Timestamp,Seconds,S,Um,Vm,Wm,T,P,H,MD,Sts,Vx,Vy,Vz,Lat,Lon,Alt,Yaw,Roll,Pitch,CH4,C2H6,H2O,T_a,Batt,R,C2C1,Power,Current,SOC,Lat_a,Lon_a,TS,Timestamp_UTC,Rho,Rho_err,Sc,V,U,W,WD,V_err,U_err,Sc_avg,WD_avg,V_avg,U_avg,W_avg,U_err_avg,V_err_avg,Nx,Ny,cross_wind,cross_wind_err,CH4_sub,CH4_res,CH4_adj,CH4_adj_err,BG_Samples_CH4,C2H6_sub,C2H6_res,C2H6_adj,C2H6_adj_err,BG_Samples_C2H6
2022-11-15 10:32:03.627364-07:00,0.0,2.05,0.75,-1.83,0.56,11.13,971.67,61.46,31.0,0.0,-0.000190968,0.000121191,3.90202e-05,32.8213684,-111.787047,362.385278,7.55676498,-0.547698542,-1.45901095,,,,,,,,,,,,,,2022-11-15 17:32:03.627364+00:00,1.1907136631786863,0.014843949366406994,1.9775602116248447,-1.9126166557923605,0.502634975491507,0.5600390202000001,345.2756357113817,0.20646033027737573,0.2491499845283824,,,,,,,,0.5358237123647583,0.8443298817806041,,,,,,,,,,,,
2022-11-15 10:32:03.821775-07:00,0.194411,2.11,0.71,-1.95,0.38,10.61,971.67,63.54,35.0,0.0,6.26188e-05,-0.000140623,-0.000614287,32.8213684,-111.787047,362.386224,7.55598618,-0.550177147,-1.45560009,,,,,,,,,,,,,,2022-11-15 17:32:03.821775+00:00,1.1928956870892196,0.014879836036691326,2.075385743086073,-2.0265698597937414,0.447482497959984,0.379385713,347.5484403686752,0.20989601933311652,0.251384741863902,,,,,,,,0.91352275033093,0.40678764070189416,,,,,,,,,,,,
2022-11-15 10:32:04.021412-07:00,0.394048,2.22,0.74,-2.07,0.35,10.5,971.67,64.02,31.0,0.0,-0.000212009,0.000372034,-0.00148662,32.8213684,-111.787047,362.38149400000003,7.55186714,-0.548474345,-1.46139973,,,,,,,,,,,,,,2022-11-15 17:32:04.021412+00:00,1.1933582942655983,0.014887449781913187,2.197886543900705,-2.1489268970935345,0.4613225019525275,0.34851338,347.88387811650523,0.213496642028257,0.25391221330866276,,,,,,,,0.8688278831944465,0.49511423872057775,,,,,,,,,,,,
2022-11-15 10:32:04.220958-07:00,0.593594,2.34,0.74,-2.2,0.34,10.55,971.68,63.7,28.0,0.0,5.53711e-05,-0.00100472,-0.00240063,32.8213684,-111.787047,362.375421,7.55202075,-0.549339909,-1.45417703,,,,,,,,,,,,,,2022-11-15 17:32:04.220958+00:00,1.1931602531586856,0.014884036940014804,2.3221171551391073,-2.2791772611357097,0.4444987002379952,0.33759937,348.9643588939937,0.21755464642458996,0.2567062128544313,,,,,,,,0.9984848406831209,0.05502747428333025,,,,,,,,,,,,
2022-11-15 10:32:04.421173-07:00,0.793809,2.27,0.81,-2.1,0.35,10.52,971.67,63.82,31.0,0.0,-0.000136527,0.000244952,-0.00209184,32.8213684,-111.787047,362.37533,7.5518999,-0.550513182,-1.45659548,2.05961,17.0366,5705.24,27.1413,11397.0,-0.371827,-1.0,17.0,-1220.0,80.0,,0.0,,2022-11-15 17:32:04.421173+00:00,1.193274157184182,0.014886064882884987,2.2505297502671757,-2.1879937245370007,0.5268468641117081,0.34790815999999997,346.4614795091843,0.2144178785284037,0.25474244395958856,2.341842065541807,347.53068195895185,-2.2862922636648357,0.5058339606053246,0.3162296892,0.2569346565215288,0.21760562015931068,0.8734864831211837,0.48684839920101003,-0.6712386013784745,0.20270713642073912,,,,,,,,,,
2022-11-15 10:32:04.621163-07:00,0.993799,2.49,0.87,-2.31,0.32,10.38,971.67,64.36,35.0,0.0,-0.000138939,0.000181923,-0.00188954,32.8213685,-111.787047,362.376886,7.55086171,-0.549164094,-1.45678263,,,,,,,,,,,,,,2022-11-15 17:32:04.621163+00:00,1.1938633660227733,0.014895764611094073,2.4681916360171168,-2.404110585797512,0.5587685060570204,0.31811046,346.91550002867785,0.22112098658560064,0.25956289823921236,,,,,,,,0.7947341361537358,0.6069577026712614,,,,,,,,,,,,
2022-11-15 10:32:04.821425-07:00,1.194061,2.48,0.85,-2.32,0.23,10.35,971.68,64.64,31.0,0.0,0.000231469,0.000383909,-0.000982924,32.8213685,-111.787047,362.37813700000004,7.55715883,-0.549175367,-1.44830513,,,,,,,,,,,,,,2022-11-15 17:32:04.821425+00:00,1.1940019887870161,0.014897893788660925,2.470485242384929,-2.4112528497604213,0.5377332306673718,0.229017076,347.42819324639834,0.221437947229702,0.25974951424574905,,,,,,,,0.8563851749504038,-0.516337517642449,,,,,,,,,,,,
2022-11-15 10:32:05.021464-07:00,1.3941,2.39,0.75,-2.26,0.26,10.44,971.66,64.17,28.0,0.0,-5.48593e-05,-0.000325923,-0.000739655,32.8213685,-111.787047,362.38009,7.55781399,-0.548777531,-1.45564151,,,,,,,,,,,,,,2022-11-15 17:32:05.021464+00:00,1.1935984925976049,0.01489155706011924,2.381507048970123,-2.339337415021222,0.4461796532521527,0.259260345,349.2017210374742,0.21947216434497205,0.25808554887619917,,,,,,,,0.9861282886638684,-0.16598493394543481,,,,,,,,,,,,
2022-11-15 10:32:05.221515-07:00,1.594151,2.19,0.7,-2.05,0.36,10.6,971.67,63.5,30.0,0.0,0.000262611,0.000133778,-0.00116775,32.8213685,-111.787047,362.37951000000004,7.56060478,-0.54661109,-1.44922227,,,,,,,,,,,,,,2022-11-15 17:32:05.221515+00:00,1.192937727465857,0.014880527872290071,2.1661381568971048,-2.1241463946291055,0.4244485940013923,0.35883224999999996,348.69994135246253,0.21286722327181268,0.25340854578753963,,,,,,,,0.45391241353051726,-0.8910463067893277,,,,,,,,,,,,
2022-11-15 10:32:05.421087-07:00,1.793723,2.07,0.68,-1.89,0.49,11.06,971.67,61.52,35.0,0.0,0.000296002,-0.000417041,-0.00111093,32.8213685,-111.787047,362.379785,7.55928555,-0.542717507,-1.44754898,2.05891,16.4962,5698.3,27.144,11446.0,-0.348367,-1.0,15.0,-1241.0,80.0,,0.0,,2022-11-15 17:32:05.421087+00:00,1.1910069320869672,0.014848770138161735,2.009076768491677,-1.9634469228182576,0.42575303048654095,0.48888907,347.76541401285397,0.20815070895212015,0.25013279076152406,2.045925929781164,347.47491805100924,-1.9972678168353273,0.4394368080884613,0.4289820047999999,0.250998054259247,0.20932770566742032,0.8154726095566892,0.5787956660711996,-0.7976612757406143,0.18104537964468115,,,,,,,,,,
2022-11-15 10:32:05.621320-07:00,1.993956,1.86,0.61,-1.66,0.57,11.06,971.67,61.58,31.0,0.0,0.000403291,-0.000238047,-0.00110327,32.8213685,-111.787047,362.38060900000005,7.55671264,-0.542064167,-1.45311972,,,,,,,,,,,,,,2022-11-15 17:32:05.621320+00:00,1.1910069320869672,0.014848770138161735,1.768850905758622,-1.7260408066727881,0.3868031288697756,0.56889673,347.3687900934891,0.20188101672436856,0.24571368902582053,,,,,,,,0.5083156609879254,0.861170824398045,,,,,,,,,,,,
2022-11-15 10:32:05.821308-07:00,2.193944,1.96,0.75,-1.75,0.47,10.86,971.66,62.33,28.0,0.0,0.000594499,4.87109e-05,-0.000968371,32.8213685,-111.787047,362.38121900000004,7.55493618,-0.543702188,-1.44910495,,,,,,,,,,,,,,2022-11-15 17:32:05.821308+00:00,1.1918333738803377,0.014862512333808245,1.9040567687882932,-1.8333675450352633,0.5139996338324453,0.46903162899999995,344.3387237587662,0.20426741504382812,0.24764969684515162,,,,,,,,0.08166238800740476,-0.9966600495579865,,,,,,,,,,,,
2022-11-15 10:32:06.020887-07:00,2.393523,1.85,0.65,-1.66,0.51,10.86,971.67,62.32,30.0,0.0,3.87986e-05,-0.00050099,-0.000934396,32.8213685,-111.787047,362.379877,7.55798281,-0.541663784,-1.45871812,,,,,,,,,,,,,,2022-11-15 17:32:06.020887+00:00,1.191845639831122,0.014862561111223383,1.7832183853982593,-1.731573493548222,0.4260528681555614,0.509065604,346.1769838340621,0.20187750654180514,0.2458098273709109,,,,,,,,0.9970146461037913,0.0772126638222759,,,,,,,,,,,,
2022-11-15 10:32:06.221078-07:00,2.593714,2.03,0.74,-1.86,0.37,10.7,971.67,63.0,35.0,0.0,-3.24373e-06,0.000411375,0.000273518,32.8213685,-111.787047,362.381158,7.56234697,-0.543100387,-1.44921373,,,,,,,,,,,,,,2022-11-15 17:32:06.221078+00:00,1.1925174569964312,0.014873612421185822,2.00139947734364,-1.94079846766092,0.48877517923521824,0.37027351799999997,345.86445202719784,0.2072893592463868,0.2497149632962319,,,,,,,,0.9999689141062968,0.007884847561843857,,,,,,,,,,,,
2022-11-15 10:32:06.421642-07:00,2.794278,2.0,0.76,-1.81,0.37,10.65,971.66,63.23,32.0,0.0,6.67466e-05,-0.000332433,0.00120268,32.8213685,-111.787047,362.38079200000004,7.56561178,-0.54494718,-1.44925046,2.06041,16.7644,5685.13,27.1461,11457.0,-0.357362,-1.0,15.0,-1258.0,80.0,,0.0,,2022-11-15 17:32:06.421642+00:00,1.1927152801823637,0.014877020465732957,1.9634226070789043,-1.894638615931215,0.5151435227300943,0.37120268,344.78925376757115,0.20588086753273874,0.248821651204554,1.899967026686331,346.15054056188376,-1.8440048640151794,0.4552865088711212,0.40224541764,0.24789142222065363,0.2047590054051736,0.9804329352517532,0.1968533958905242,0.08337926875300444,0.23841738918250213,,,,,,,,,,
2022-11-15 10:32:06.620980-07:00,2.993616,1.92,0.72,-1.74,0.39,10.69,971.67,63.05,28.0,0.0,-0.000165767,1.12497e-05,0.000624469,32.8213685,-111.787047,362.38244000000003,7.56757807,-0.543471575,-1.44730131,,,,,,,,,,,,,,2022-11-15 17:32:06.620980+00:00,1.1925594707174356,0.014874303675913313,1.8830290576241522,-1.819654474321831,0.48441307366486624,0.39062446900000003,345.0929295925985,0.20396413310653203,0.24743046081663925,,,,,,,,0.06770879223033102,0.9977051265051763,,,,,,,,,,,,
2022-11-15 10:32:06.821436-07:00,3.194072,1.91,0.6,-1.77,0.37,10.76,971.68,62.76,30.0,0.0,0.000292333,0.000225447,6.08172e-05,32.8213684,-111.787047,362.37923600000005,7.5650027,-0.537865171,-1.4540423,,,,,,,,,,,,,,2022-11-15 17:32:06.821436+00:00,1.192277707094217,0.0148695150707909,1.8687656059867002,-1.8333592686137083,0.3620479005698659,0.3700608172,348.8290835879891,0.20478316059840518,0.247680208414932,,,,,,,,0.6106896203821771,-0.7918700572426466,,,,,,,,,,,,
2022-11-15 10:32:07.021709-07:00,3.394345,1.88,0.71,-1.7,0.39,10.63,971.67,63.32,35.0,0.0,0.000350436,7.93094e-06,-0.00010462,32.8213684,-111.787047,362.38585800000004,7.56859726,-0.539219974,-1.45239196,,,,,,,,,,,,,,2022-11-15 17:32:07.021709+00:00,1.1928116152245998,0.014878452559214208,1.842391993905951,-1.778697766406935,0.4802525533380602,0.38989538,344.890300087838,0.20289510764485705,0.2466875212801503,,,,,,,,0.022625842385056764,-0.9997440028609157,,,,,,,,,,,,
2022-11-15 10:32:07.221475-07:00,3.594111,1.96,0.69,-1.8,0.37,10.71,971.67,62.96,31.0,0.0,0.000121405,0.000259022,0.000927925,32.8213683,-111.787047,362.38717,7.57257442,-0.543049247,-1.44825677,,,,,,,,,,,,,,2022-11-15 17:32:07.221475+00:00,1.1924754462355984,0.014872921230955682,1.9274950352589875,-1.874972218321313,0.44689628715318297,0.370927925,346.5937859557772,0.20558608806079287,0.24847905174991888,,,,,,,,0.905474468880363,-0.424400737753629,,,,,,,,,,,,
2022-11-15 10:32:07.422854-07:00,3.79549,1.85,0.65,-1.64,0.56,11.07,971.68,61.45,28.0,0.0,-2.13973e-05,0.000282986,0.00151669,32.8213683,-111.787047,362.391321,7.57194337,-0.546375773,-1.45011635,2.06039,17.0844,5667.51,27.1491,11416.0,-0.33108,-1.0,17.0,-1238.0,80.0,,0.0,,2022-11-15 17:32:07.422854+00:00,1.1909772845722297,0.014848129945188733,1.7638347933284986,-1.7110676640895255,0.4282062903127439,0.56151669,345.9499101948991,0.20132274140478765,0.2455026695472202,1.810194742735176,344.7050413792489,-1.745809575877205,0.47618521669325514,0.4028564834,0.24613603235710993,0.2020808366336318,0.9971535688355105,0.0753973484852402,0.3432003752711073,0.24473950418947774,,,,,,,,,,
2022-11-15 10:32:07.621710-07:00,3.994346,1.79,0.74,-1.59,0.37,10.75,971.68,62.74,30.0,0.0,-0.000148699,-0.000111745,0.00137474,32.8213683,-111.787047,362.38952,7.5722178,-0.546802946,-1.44946172,,,,,,,,,,,,,,2022-11-15 17:32:07.621710+00:00,1.1923197034910853,0.014870205943276555,1.7538295911485504,-1.6737602853763958,0.523874738735337,0.37137474,342.62026125326446,0.2000532617399618,0.24485276514082369,,,,,,,,0.6007592738065635,-0.7994299812587783,,,,,,,,,,,,
2022-11-15 10:32:07.821824-07:00,4.19446,1.79,0.72,-1.61,0.32,10.59,971.68,63.4,34.0,0.0,0.000238796,0.000319789,0.000567682,32.8213683,-111.787047,362.38833,7.57577288,-0.548366171,-1.45856396,,,,,,,,,,,,,,2022-11-15 17:32:07.821824+00:00,1.1929920484285583,0.014881268674766366,1.7634223000338922,-1.6905499451918553,0.5016962139269517,0.320567682,343.4709494044655,0.20054698431775958,0.24515815406743652,,,,,,,,0.8012559418311711,-0.5983217492956803,,,,,,,,,,,,
2022-11-15 10:32:08.021807-07:00,4.394443,1.66,0.59,-1.5,0.36,10.68,971.67,63.16,32.0,0.0,-0.000411493,-0.000108831,0.000861999,32.8213683,-111.787047,362.38988600000005,7.57614545,-0.550454813,-1.45599872,,,,,,,,,,,,,,2022-11-15 17:32:08.021807+00:00,1.1926014873989252,0.014874994995146934,1.6118691605511473,-1.5648023884967854,0.38667256909511366,0.360861999,346.11990510556507,0.19783799474239294,0.24305572674683115,,,,,,,,0.2556870119044964,-0.9667596143526838,,,,,,,,,,,,
2022-11-15 10:32:08.220962-07:00,4.593598,1.81,0.68,-1.61,0.49,11.12,971.67,61.18,28.0,0.0,-0.000190918,0.000731831,0.00163663,32.8213683,-111.787047,362.389093,7.58193005,-0.549978314,-1.46494971,,,,,,,,,,,,,,2022-11-15 17:32:08.220962+00:00,1.1907555498942446,0.014844637855652168,1.7469565223636743,-1.684914030531104,0.4614345032053991,0.49163663,344.684366454556,0.20052964693106984,0.2450851326081136,,,,,,,,0.9676154751376983,0.25242878653997924,,,,,,,,,,,,
2022-11-15 10:32:08.422144-07:00,4.79478,1.81,0.55,-1.67,0.44,11.03,971.67,61.49,29.0,0.0,-0.000457405,0.000162877,0.00195874,32.8213684,-111.787048,362.38747600000005,7.57845882,-0.545441469,-1.45303549,2.05927,17.2309,5661.61,27.1514,11376.0,-0.375373,-1.0,16.0,-1218.0,80.0,,0.0,,2022-11-15 17:32:08.422144+00:00,1.1911326629897845,0.014850837145762066,1.7579931973487724,-1.7277860422999372,0.32449264083809304,0.44195874,349.3632786980288,0.20208092321216464,0.24581102069699712,1.7353017101937205,345.75553483138486,-1.6806206151611953,0.425796630302777,0.3990950902,0.24503012760723836,0.20057718106356903,0.33545596723070703,0.9420558869033784,-1.4404025237019875,0.18012901192954506,,,,,,,,,,
2022-11-15 10:32:08.621679-07:00,4.994315,1.76,0.74,-1.54,0.4,10.74,971.67,62.62,34.0,0.0,2.94802e-05,0.000136952,0.000758263,32.8213684,-111.787048,362.38723100000004,7.58361568,-0.547298914,-1.46156777,,,,,,,,,,,,,,2022-11-15 17:32:08.621679+00:00,1.1923494317110042,0.014870848047161647,1.7084456132763564,-1.624053133531702,0.5303186145979458,0.400758263,341.91605886026406,0.19878319390195032,0.24405014341664838,,,,,,,,0.9776069786821927,-0.21043905348550393,,,,,,,,,,,,
2022-11-15 10:32:08.821542-07:00,5.194178,1.88,0.66,-1.73,0.3,10.52,971.68,63.55,33.0,0.0,0.000133152,0.000418726,0.000259819,32.8213684,-111.787048,362.38817700000004,7.58305413,-0.546557305,-1.46078759,,,,,,,,,,,,,,2022-11-15 17:32:08.821542+00:00,1.1932864378366381,0.014886113817532402,1.8512440574286524,-1.8015474809464473,0.42606482377733307,0.300259819,346.69406503851036,0.20365414653026742,0.24714861456760157,,,,,,,,0.9529777145755708,-0.30304038595923466,,,,,,,,,,,,
2022-11-15 10:32:09.021752-07:00,5.394388,1.89,0.68,-1.74,0.29,10.48,971.66,63.8,28.0,0.0,-0.000367241,-0.000842354,0.00114045,32.8213683,-111.787048,362.390619,7.58293598,-0.544285813,-1.45652929,,,,,,,,,,,,,,2022-11-15 17:32:09.021752+00:00,1.1934301608283846,0.014888785986828221,1.8688850532017092,-1.815359455025052,0.444073632556473,0.29114045,346.2542286384319,0.2039229900743244,0.24737775507719642,,,,,,,,0.9166716270255898,-0.39964124938031353,,,,,,,,,,,,
2022-11-15 10:32:09.221632-07:00,5.594268,2.0,0.67,-1.87,0.22,10.56,971.68,63.46,28.0,0.0,0.000300304,0.000378087,0.000337077,32.8213683,-111.787048,362.38662100000005,7.58149598,-0.542484462,-1.45695984,,,,,,,,,,,,,,2022-11-15 17:32:09.221632+00:00,1.1931181975295868,0.014883344776780105,1.9860972817098947,-1.941672046994858,0.4177224848320126,0.220337077,347.85870234545916,0.20752419464101726,0.24978296405471997,,,,,,,,0.7830518986945347,-0.6219563682051049,,,,,,,,,,,,
2022-11-15 10:32:09.422735-07:00,5.795371,1.85,0.56,-1.76,0.16,10.52,971.67,63.46,34.0,0.0,-1.88925e-05,-0.000332843,-0.000401955,32.8213682,-111.787048,362.385278,7.58080985,-0.541271109,-1.44388683,2.06016,16.8987,5645.39,27.154,11414.0,-0.424204,-1.0,15.0,-1225.0,80.0,,0.0,,2022-11-15 17:32:09.422735+00:00,1.193274157184182,0.014886064882884987,1.8472678355463539,-1.8188277188587496,0.3228996521447306,0.159598045,349.9330675600462,0.20446926161667356,0.24744497709587357,1.8745883669510035,349.2555704094172,-1.8404418882966556,0.35016776822805207,0.20625968160000002,0.2478675014940032,0.20496762716093997,0.9983929768016195,-0.056669779187860043,0.4539024759190441,0.24707236081343997,,,,,,,,,,
2022-11-15 10:32:09.621730-07:00,5.994366,1.87,0.5,-1.79,0.2,10.49,971.68,63.67,33.0,0.0,2.52262e-05,0.00032219,-0.000473945,32.8213682,-111.787048,362.38689600000004,7.58590499,-0.542898247,-1.4571187,,,,,,,,,,,,,,2022-11-15 17:32:09.621730+00:00,1.1934126492071608,0.014888191276955074,1.8582054002108765,-1.8400180836364166,0.25934679728855936,0.199526055,351.9771264768681,0.2052756034158643,0.24786226986948123,,,,,,,,0.9969488863012707,-0.07805714639068038,,,,,,,,,,,,
2022-11-15 10:32:09.821831-07:00,6.194467,1.82,0.54,-1.73,0.16,10.52,971.69,63.53,28.0,0.0,-9.14235e-05,-0.000185463,0.000696781,32.8213682,-111.787048,362.38704800000005,7.58605087,-0.545183203,-1.45068654,,,,,,,,,,,,,,2022-11-15 17:32:09.821831+00:00,1.193298718489094,0.014886162752522563,1.8124862640861823,-1.786332136968202,0.3067962743184848,0.160696781,350.25472702628053,0.20364608605682044,0.24686954137274475,,,,,,,,0.896943194102397,-0.44214579784658115,,,,,,,,,,,,
2022-11-15 10:32:10.021171-07:00,6.393807,1.9,0.51,-1.82,0.19,10.59,971.67,62.05,29.0,0.0,-0.000162654,-0.000362622,0.00118039,32.8213682,-111.787048,362.388391,7.58667188,-0.549831545,-1.44928045,,,,,,,,,,,,,,2022-11-15 17:32:10.021171+00:00,1.1929797708057974,0.014881219772473996,1.8904420364245547,-1.87176401289856,0.2650859730330836,0.19118039,351.9391723838028,0.20610401018447058,0.2484450953180889,,,,,,,,0.9124160283777429,-0.4092639626932547,,,,,,,,,,,,
2022-11-15 10:32:10.221722-07:00,6.594358,2.0,0.18,-1.99,0.06,10.28,971.7,64.63,33.0,0.0,-9.1784e-05,0.000580898,0.00104962,32.8213682,-111.787048,362.384424,7.58659631,-0.55110389,-1.45229022,,,,,,,,,,,,,,2022-11-15 17:32:10.221722+00:00,1.194321459007457,0.014902847898855952,1.99754761545079,-1.9957639540205863,-0.08439618371261341,0.06104962,362.4214616318979,0.21100239914158192,0.25086448045952875,,,,,,,,0.9877463879575166,0.15606752729789491,,,,,,,,,,,,
2022-11-15 10:32:10.422254-07:00,6.79489,1.86,0.35,-1.82,0.05,10.29,971.68,64.59,33.0,0.0,-0.000137956,-0.000333925,-0.000109254,32.8213682,-111.787048,362.37804600000004,7.5892986,-0.548434704,-1.4445421,2.0598,16.6469,5643.94,27.1571,11453.0,-0.396485,-1.0,12.0,-1243.0,80.0,,0.0,,2022-11-15 17:32:10.422254+00:00,1.1942547411131779,0.014902055894910959,1.853673768243736,-1.8506160735918404,0.10642644050447347,0.049890746,356.7086220783258,0.20609720067936696,0.24805645977717694,1.9135232682099328,361.83956184336506,-1.8981655228766698,-0.06342858066870323,0.08092649160000001,0.24896897236077029,0.20810236591029624,0.9242316798029864,-0.38183216476424564,0.6661579470219002,0.21482368835374585,,,,,,,,,,
2022-11-15 10:32:10.621579-07:00,6.994215,1.94,-0.15,-1.93,0.03,10.01,971.67,65.74,28.0,0.0,-0.000404846,0.000304085,0.000525772,32.8213683,-111.787048,362.381372,7.58993249,-0.547613954,-1.45436396,,,,,,,,,,,,,,2022-11-15 17:32:10.621579+00:00,1.1954233654768927,0.014921460789950346,1.935607299151629,-1.8929743962033263,-0.4040093462380739,0.030525772,372.04763575798466,0.2092287303826678,0.24886795671705067,,,,,,,,0.6005692813391966,0.7995727223409519,,,,,,,,,,,,
2022-11-15 10:32:10.821831-07:00,7.194467,1.89,0.05,-1.89,0.07,10.18,971.67,65.09,29.0,0.0,-0.000252785,0.000344332,0.00198593,32.8213683,-111.787048,362.385828,7.58760242,-0.546509231,-1.44347252,,,,,,,,,,,,,,2022-11-15 17:32:10.821831+00:00,1.1947061030192248,0.014909643396528473,1.8903456217789554,-1.8797091776690351,-0.20024978693038592,0.07198593,366.0809173648142,0.20807948916339405,0.2486108695320061,,,,,,,,0.806098027209181,0.5917820295763183,,,,,,,,,,,,
2022-11-15 10:32:11.021323-07:00,7.393959,1.66,0.75,-1.43,0.36,10.86,971.67,62.1,33.0,0.0,0.000232997,-0.000163282,0.00192454,32.8213683,-111.787048,362.38732300000004,7.58498779,-0.54586932,-1.45016738,,,,,,,,,,,,,,2022-11-15 17:32:11.021323+00:00,1.191845639831122,0.014862561111223383,1.614977953128381,-1.5166485155965599,0.5549153712319442,0.36192453999999996,339.9033040475886,0.19617008747605683,0.24231520104140253,,,,,,,,0.5738965367747212,0.8189278143267459,,,,,,,,,,,,
2022-11-15 10:32:11.221484-07:00,7.59412,1.77,1.06,-1.36,0.38,10.76,971.67,62.43,33.0,0.0,-0.000212811,-0.000238368,0.0017679,32.8213683,-111.787048,362.387018,7.58640861,-0.544541875,-1.45391195,,,,,,,,,,,,,,2022-11-15 17:32:11.221484+00:00,1.192265436823067,0.014869466246958249,1.7243951731627902,-1.488276663460397,0.8709599796927054,0.3817679,329.663241992972,0.1945892929175061,0.24187785681018947,,,,,,,,0.7459649799862587,-0.665985171482144,,,,,,,,,,,,
2022-11-15 10:32:11.422439-07:00,7.795075,1.64,0.62,-1.5,0.22,10.56,971.69,63.27,28.0,0.0,0.000150736,-0.000647121,0.000579445,32.8213683,-111.787048,362.38292800000005,7.59122158,-0.54412177,-1.44815076,2.06015,16.758,5650.55,27.1587,11447.0,-0.401975,-1.0,15.0,-1259.0,80.0,,0.0,,2022-11-15 17:32:11.422439+00:00,1.1931304764506054,0.014883393693278133,1.623747619056504,-1.5694056126930545,0.4165601436037829,0.220579445,345.13499998209824,0.1977938630534162,0.2431630039138032,1.5619491838797837,342.18754326597013,-1.46380509327384,0.4910567534394635,0.297291975,0.24154652724404402,0.19519779900447679,0.9739273632426991,0.22686006948584764,0.14617468390597588,0.22933535182371823,,,,,,,,,,
2022-11-15 10:32:11.621286-07:00,7.993922,1.55,0.73,-1.35,0.27,10.64,971.66,62.86,28.0,0.0,0.000123226,0.000109713,0.00116813,32.8213683,-111.787048,362.38533900000004,7.58913295,-0.544695604,-1.45525836,,,,,,,,,,,,,,2022-11-15 17:32:11.621286+00:00,1.1927573082763834,0.014877712038461905,1.534672484795347,-1.4344750297428905,0.5454365450096449,0.27116813,339.1814816113437,0.1943611523722294,0.24107676661490043,,,,,,,,0.6649689253282755,-0.746871025243153,,,,,,,,,,,,
2022-11-15 10:32:11.821130-07:00,8.193766,1.33,0.24,-1.29,0.25,10.83,971.68,62.16,32.0,0.0,-0.000141006,0.000175955,0.00101986,32.8213683,-111.787048,362.38234900000003,7.58811817,-0.546283875,-1.44483771,,,,,,,,,,,,,,2022-11-15 17:32:11.821130+00:00,1.1919838151317668,0.014864680767369132,1.3119526892558957,-1.3102196448762984,0.06741172765923986,0.25101986,357.0546886958479,0.19307459920317538,0.23929980783992463,,,,,,,,0.7803449992269844,0.6253492481657251,,,,,,,,,,,,
2022-11-15 10:32:12.020852-07:00,8.393488,1.0,0.05,-0.99,0.17,11.0,971.67,61.3,34.0,0.0,0.000270317,-4.60826e-06,0.000318042,32.8213683,-111.787048,362.38155500000005,7.59030904,-0.545429444,-1.45489614,,,,,,,,,,,,,,2022-11-15 17:32:12.020852+00:00,1.1912584204414463,0.014852904731240034,0.9912443067526657,-0.9879345618598224,-0.08093563586216938,0.170318042,364.6834453117508,0.1873962922496471,0.2354028945500864,,,,,,,,0.017045137808534998,0.9998547210855625,,,,,,,,,,,,
2022-11-15 10:32:12.221329-07:00,8.593965,1.08,0.19,-1.02,0.3,11.24,971.66,59.36,29.0,0.0,0.000381295,-0.000544573,0.00035304,32.8213683,-111.787048,362.38027300000005,7.59087467,-0.546094621,-1.45347575,,,,,,,,,,,,,,2022-11-15 17:32:12.221329+00:00,1.1902408541641927,0.014836331611963138,1.038108781444233,-1.0367046155151045,0.05397575642183757,0.30035304,357.0196012098027,0.1879012599980763,0.235922317874617,,,,,,,,0.8191655570871885,0.5735571375913964,,,,,,,,,,,,
2022-11-15 10:32:12.422001-07:00,8.794637,0.84,0.55,-0.56,0.3,11.47,971.67,59.49,28.0,0.0,0.000310548,-0.000428139,-9.0278e-05,32.8213683,-111.787048,362.379022,7.59331504,-0.548362729,-1.44795113,2.05881,17.1791,5639.55,27.1618,11370.0,-0.427729,-1.0,16.0,-1233.0,80.0,,0.0,,2022-11-15 17:32:12.422001+00:00,1.1892912661388408,0.014820578827425908,0.7854492151011288,-0.6281948859431133,0.4714887642117232,0.299909722,323.11010918845193,0.18168880079635816,0.23230107006087666,0.9399144998661075,337.9306290124468,-0.8258597659221346,0.3218920826384682,0.2778154192,0.2339906751605553,0.18449026649197536,0.8094781434679528,0.5871500108555534,-0.22433896507512607,0.1659919703125889,,,,,,,,,,
2022-11-15 10:32:12.620857-07:00,8.993493,1.14,0.84,-0.73,0.25,11.39,971.66,59.74,33.0,0.0,-0.000163236,0.000102941,-0.000404618,32.8213683,-111.787048,362.37710000000004,7.59338438,-0.547944542,-1.4581364,,,,,,,,,,,,,,2022-11-15 17:32:12.620857+00:00,1.189613398874516,0.014826022593054823,1.1126939694357316,-0.834494775341878,0.7360070241144127,0.249595382,318.58837705372224,0.18358268373188866,0.23392314172846795,,,,,,,,0.5334171569392768,0.8458523137538958,,,,,,,,,,,,
2022-11-15 10:32:12.821698-07:00,9.194334,0.85,0.51,-0.58,0.37,11.67,971.67,57.62,34.0,0.0,5.17923e-05,0.000344727,-0.00109909,32.8213683,-111.787048,362.376611,7.59451489,-0.548954522,-1.4484595,,,,,,,,,,,,,,2022-11-15 17:32:12.821698+00:00,1.188456148333814,0.014806865939599765,0.7720762265967791,-0.6419699909507551,0.4289245043065369,0.36890090999999997,326.25161229850625,0.1818822956839066,0.2324039515887285,,,,,,,,0.9889012912797015,-0.14857400884858354,,,,,,,,,,,,
2022-11-15 10:32:13.021406-07:00,9.394042,1.26,0.54,-1.06,0.41,11.59,971.67,59.03,29.0,0.0,0.00023229,0.000150471,-0.000394537,32.8213683,-111.787048,362.381952,7.59488213,-0.550010889,-1.45481169,,,,,,,,,,,,,,2022-11-15 17:32:13.021406+00:00,1.1887900546759744,0.014812348035498506,1.1895570536146285,-1.1219211593026508,0.3953971372093028,0.409605463,340.58608318558686,0.1885850843886131,0.23691408343745401,,,,,,,,0.5436732334341742,-0.8392969767890446,,,,,,,,,,,,
2022-11-15 10:32:13.221096-07:00,9.593732,1.64,0.98,-1.22,0.48,10.95,971.67,61.67,28.0,0.0,0.000348083,0.000301323,-0.000348579,32.8213683,-111.787048,362.382135,7.59630887,-0.552168425,-1.45112658,,,,,,,,,,,,,,2022-11-15 17:32:13.221096+00:00,1.1914680752144913,0.014856351991849174,1.564786677289662,-1.3385407111835517,0.8104727693929341,0.47965142099999997,328.80552167756207,0.19160780177233155,0.23971616246665622,,,,,,,,0.6544976137679963,-0.7560640671080716,,,,,,,,,,,,
2022-11-15 10:32:13.421950-07:00,9.794586,1.57,0.63,-1.41,0.31,10.68,971.67,61.46,33.0,0.0,3.11427e-05,0.00038662,-0.000982675,32.8213683,-111.787048,362.37890000000004,7.59733014,-0.553482149,-1.44718356,2.06092,16.72,5646.37,27.1645,11398.0,-0.375553,-1.0,16.0,-1235.0,80.0,,0.0,,2022-11-15 17:32:13.421950+00:00,1.1926014873989252,0.014874994995146934,1.5439826203794424,-1.4805284068841258,0.438084430724172,0.309017325,343.5166541154832,0.19567569872973312,0.24179897224120397,1.457222439892203,337.8454200532841,-1.342445658967081,0.5513064072345287,0.3854998814,0.23984133491132936,0.19247506279936438,0.9967714559425611,-0.08029112415545639,0.6573129612857032,0.23829838877244564,,,,,,,,,,
2022-11-15 10:32:13.621461-07:00,9.994097,1.51,0.68,-1.3,0.38,10.74,971.68,62.47,34.0,0.0,-0.000628345,0.000131469,-0.000642534,32.8213683,-111.787048,362.377771,7.59861087,-0.555511403,-1.45390662,,,,,,,,,,,,,,2022-11-15 17:32:13.621461+00:00,1.1923617028465923,0.014870896880216276,1.4667675118656374,-1.37837090509971,0.501498336825875,0.37935746600000003,340.00688783597957,0.19325334713927,0.24028393076551927,,,,,,,,0.20479589271917326,0.9788047008087757,,,,,,,,,,,,
2022-11-15 10:32:13.821021-07:00,10.193657,1.56,0.79,-1.3,0.35,10.64,971.66,62.8,29.0,0.0,-8.16535e-05,0.000180702,-0.000132268,32.8213683,-111.787048,362.38320300000004,7.5985997,-0.558481841,-1.45113694,,,,,,,,,,,,,,2022-11-15 17:32:13.821021+00:00,1.1927573082763834,0.014877712038461905,1.5210183363116443,-1.392867112365366,0.6110793620203595,0.349867732,336.3119534518086,0.19325338196687417,0.2404935256458134,,,,,,,,0.9112832874550021,0.4117800019491039,,,,,,,,,,,,
2022-11-15 10:32:14.021003-07:00,10.393639,1.77,1.13,-1.32,0.37,10.54,971.67,62.04,27.0,0.0,-0.00010226,-0.000269882,0.000348626,32.8213683,-111.787048,362.38637700000004,7.59882261,-0.561829469,-1.45490863,,,,,,,,,,,,,,2022-11-15 17:32:14.021003+00:00,1.1931900319660085,0.014884680242478968,1.737784103750762,-1.4581046865214664,0.9454228230759901,0.370348626,327.04096377585813,0.19368000050892784,0.24145224474916466,,,,,,,,0.9351227458019612,-0.35432393411086516,,,,,,,,,,,,
2022-11-15 10:32:14.221431-07:00,10.594067,1.67,1.1,-1.23,0.25,10.57,971.67,63.1,32.0,0.0,-0.000479909,-3.15061e-05,-0.00123858,32.8213683,-111.787048,362.382532,7.60075684,-0.55851062,-1.44789017,,,,,,,,,,,,,,2022-11-15 17:32:14.221431+00:00,1.1930638663768396,0.01488260376663253,1.6498775270480883,-1.3647209035816183,0.9271637986815958,0.24876142,325.8086043205428,0.19179526721442125,0.24009275249414558,,,,,,,,0.06550913597650111,-0.9978519695343655,,,,,,,,,,,,
2022-11-15 10:32:14.421764-07:00,10.7944,1.79,1.23,-1.25,0.34,10.6,971.67,64.14,34.0,0.0,-0.000231397,-0.000115196,-0.00229715,32.8213683,-111.787048,362.37941900000004,7.59950714,-0.55669087,-1.45020677,2.06189,17.448,5655.62,27.1669,11434.0,-0.296511,-1.0,12.0,-1249.0,80.0,,0.0,,2022-11-15 17:32:14.421764+00:00,1.192937727465857,0.014880527872290071,1.7536348740707066,-1.4018009158179356,1.0536552870692482,0.33770285,323.06986455139105,0.19220681197744016,0.24062150818014733,1.6526200665900739,324.8222183293894,-1.3478620285126646,0.951991706449672,0.3327260592,0.23988331494461185,0.1914395578221722,0.4456577057522939,-0.8952034457616893,1.6308731721274499,0.16064511726925784,,,,,,,,,,
2022-11-15 10:32:14.621667-07:00,10.994303,1.68,1.21,-1.09,0.41,10.56,971.67,64.3,29.0,0.0,0.00023675,-9.89795e-05,-0.0018902,32.8213683,-111.787048,362.38097500000003,7.60052423,-0.554076645,-1.45206507,,,,,,,,,,,,,,2022-11-15 17:32:14.621667+00:00,1.1931059186085684,0.014883295860624727,1.628786439106915,-1.2405638052312373,1.0554367386863015,0.40810979999999997,319.60979970783984,0.1891052520653779,0.2384012499130308,,,,,,,,0.3857230544780243,0.9226146136085983,,,,,,,,,,,,
2022-11-15 10:32:14.821136-07:00,11.193772,1.53,0.94,-1.16,0.3,10.85,971.67,61.95,28.0,0.0,-3.95528e-06,3.64637e-05,-0.0012924,32.8213682,-111.787048,362.383234,7.60185966,-0.549727346,-1.44972456,,,,,,,,,,,,,,2022-11-15 17:32:14.821136+00:00,1.1918876062268904,0.014863251335045227,1.4930173889738978,-1.274119831411065,0.7782798847352246,0.29870759999999996,328.581859291315,0.19041045734469397,0.23884881938657077,,,,,,,,0.9941683554189233,0.10783914448674589,,,,,,,,,,,,
2022-11-15 10:32:15.021241-07:00,11.393877,1.6,0.87,-1.25,0.48,10.95,971.68,61.37,32.0,0.0,-0.00045688,-0.00015639,-0.000178618,32.8213682,-111.787048,362.383478,7.60360816,-0.551558362,-1.45190238,,,,,,,,,,,,,,2022-11-15 17:32:15.021241+00:00,1.1914803372795464,0.014856400728186963,1.5228876945483307,-1.3542827675527294,0.6964948784567265,0.47982138199999996,332.783667688241,0.19219384091769742,0.23995119165215967,,,,,,,,0.3238525679354563,-0.9461075595520895,,,,,,,,,,,,
2022-11-15 10:32:15.220912-07:00,11.593548,1.47,0.78,-1.05,0.67,11.13,971.66,60.69,34.0,0.0,0.000322362,-8.62375e-05,-0.00105689,32.8213682,-111.787048,362.382898,7.60498735,-0.548606502,-1.44932316,,,,,,,,,,,,,,2022-11-15 17:32:15.220912+00:00,1.190701408877708,0.014843900713110583,1.308245501397528,-1.144077746069019,0.6345016965119187,0.6689431100000001,330.98739596337293,0.1883748521900039,0.23720471845455823,,,,,,,,0.25842999801239336,0.9660299871780971,,,,,,,,,,,,
2022-11-15 10:32:15.422336-07:00,11.794972,1.44,0.87,-0.92,0.68,11.23,971.67,61.31,29.0,0.0,0.000262056,-0.00027864,-0.00148868,32.8213682,-111.787048,362.38344700000005,7.60587569,-0.546553313,-1.45291667,2.0587,16.7204,5679.4,27.1695,11434.0,-0.208963,-1.0,12.0,-1249.0,80.0,,0.0,,2022-11-15 17:32:15.422336+00:00,1.1902949580435929,0.014837067999199302,1.2665941140501642,-1.0273359481580988,0.7408383760096532,0.67851132,324.20365712007225,0.18621419701274844,0.23586564123763573,1.3363762111003339,330.43076420673543,-1.1611524768402632,0.6561571264107371,0.5847728383999999,0.23747672748527932,0.1886994681378481,0.7284522989293133,0.6850965247208588,-0.3175223593615284,0.15402614194863146,,,,,,,,,,
2022-11-15 10:32:15.621103-07:00,11.993739,1.4,0.69,-1.08,0.55,11.18,971.67,60.45,28.0,0.0,0.000228034,-0.000192464,-0.00182329,32.8213682,-111.787048,362.38155500000005,7.61106084,-0.543315548,-1.44721163,,,,,,,,,,,,,,2022-11-15 17:32:15.621103+00:00,1.1905042737960714,0.014840507881828908,1.281871289896926,-1.162066593765811,0.54110556781051,0.54817671,335.0313940079911,0.18888928007724698,0.23743914728478957,,,,,,,,0.6449889984180444,0.7641918554392529,,,,,,,,,,,,
2022-11-15 10:32:15.820884-07:00,12.19352,1.41,0.81,-1.02,0.55,11.18,971.68,60.6,31.0,0.0,0.000126857,0.000326353,-0.00158833,32.8213683,-111.787048,362.381769,7.61356828,-0.540652513,-1.44919665,,,,,,,,,,,,,,2022-11-15 17:32:15.820884+00:00,1.1905165259421064,0.014840556512527006,1.3022824556087205,-1.117999328655658,0.6678451132648773,0.54841167,329.1477062539999,0.18782517049154382,0.23692293879725346,,,,,,,,0.9320606699616025,-0.3623022322740072,,,,,,,,,,,,
2022-11-15 10:32:16.021741-07:00,12.394377,1.46,0.84,-1.09,0.5,11.01,971.67,62.34,34.0,0.0,-0.000253642,0.000200146,-0.00217592,32.8213682,-111.787048,362.383325,7.61428497,-0.545197205,-1.44685058,,,,,,,,,,,,,,2022-11-15 17:32:16.021741+00:00,1.1912164983405018,0.014852215471857543,1.3758175695974422,-1.1914917707337602,0.6879108554796481,0.49782408,329.9999004263217,0.18905986598435412,0.2378174461987692,,,,,,,,0.6194580200004417,0.7850297838025844,,,,,,,,,,,,
2022-11-15 10:32:16.221404-07:00,12.59404,1.33,0.56,-1.1,0.49,11.54,971.67,60.12,30.0,0.0,-2.52352e-05,0.000593471,-0.00159092,32.8213682,-111.787048,362.38576700000004,7.61575485,-0.548631253,-1.44394662,,,,,,,,,,,,,,2022-11-15 17:32:16.221404+00:00,1.1889988414360777,0.014815776416134633,1.233773677260514,-1.1639197867865863,0.40925324265984564,0.48840908,340.62749134618105,0.18923777008065404,0.23748478210951246,,,,,,,,0.9990971906154258,0.04248298134975385,,,,,,,,,,,,
2022-11-15 10:32:16.421844-07:00,12.79448,1.33,0.63,-1.03,0.55,11.48,971.68,59.16,28.0,0.0,-0.000293261,0.000202074,-0.000941312,32.8213681,-111.787048,362.386957,7.61910051,-0.547451374,-1.44852409,2.05882,17.296,5674.36,27.1717,11457.0,-0.279515,-1.0,12.0,-1249.0,80.0,,0.0,,2022-11-15 17:32:16.421844+00:00,1.189261721607417,0.014819941070618936,1.2070905610468767,-1.1042341605274626,0.4875802921495839,0.549058688,336.17589672790706,0.18797884563686823,0.23677573705721386,1.3343214332840645,338.8518145881186,-1.239786024054212,0.475874943133903,0.5064232516,0.23851218854341605,0.1905883264858959,0.5673999773615759,0.8234423268754668,-0.7508808565137661,0.1503217393745535,,,,,,,,,,
2022-11-15 10:32:16.621298-07:00,12.993934,1.46,0.61,-1.23,0.5,11.16,971.68,60.45,31.0,0.0,0.000289878,3.24932e-06,-0.00121268,32.8213681,-111.787048,362.382837,7.61803579,-0.545748788,-1.44479543,,,,,,,,,,,,,,2022-11-15 17:32:16.621298+00:00,1.190600273719247,0.014841932923237633,1.3730432007086448,-1.3000073226695543,0.44184679699843593,0.49878732,341.2281178728372,0.19174030850485646,0.23924241997968632,,,,,,,,0.011208563204120347,-0.9999371820824042,,,,,,,,,,,,
2022-11-15 10:32:16.821643-07:00,13.194279,1.57,0.54,-1.38,0.5,11.18,971.67,60.35,35.0,0.0,0.00059171,0.000153684,-0.00196291,32.8213681,-111.787048,362.380304,7.62192353,-0.545744929,-1.44779858,,,,,,,,,,,,,,2022-11-15 17:32:16.821643+00:00,1.1905042737960714,0.014840507881828908,1.481882157806846,-1.439277079553697,0.3527835283820012,0.49803709,346.2276665673459,0.19492484222274667,0.2412405573718985,,,,,,,,0.25138777713980814,-0.9678864527953195,,,,,,,,,,,,
2022-11-15 10:32:17.020878-07:00,13.393514,1.42,0.71,-1.09,0.56,11.16,971.68,60.45,30.0,0.0,0.000396768,-0.00015195,-0.00155407,32.8213681,-111.787048,362.38149400000003,7.62154672,-0.544710828,-1.44261623,,,,,,,,,,,,,,2022-11-15 17:32:17.020878+00:00,1.190600273719247,0.014841932923237633,1.3011536563818928,-1.1746892881072262,0.5595586778186068,0.5584459300000001,334.52938629290105,0.18903591306458425,0.2376245809980246,,,,,,,,0.3576396675873263,0.9338596619235819,,,,,,,,,,,,
2022-11-15 10:32:17.221717-07:00,13.594353,1.46,0.77,-1.15,0.47,11.08,971.67,62.05,27.0,0.0,0.000146281,0.000362551,-0.00181728,32.8213681,-111.787048,362.38585800000004,7.61861739,-0.544116777,-1.44810027,,,,,,,,,,,,,,2022-11-15 17:32:17.221717+00:00,1.1909231262302957,0.014847392454021686,1.3837190114933702,-1.241571256219295,0.6108838829910567,0.46818272,333.8016686795271,0.19016449703371524,0.23847148524466327,,,,,,,,0.9273606474740937,-0.37416871798218193,,,,,,,,,,,,
2022-11-15 10:32:17.422238-07:00,13.794874,1.35,0.63,-1.05,0.57,11.2,971.68,60.21,30.0,0.0,0.000193276,8.6675e-05,-0.00120846,32.8213681,-111.787048,362.38259300000004,7.61573447,-0.543667364,-1.45136828,2.05792,16.5227,5655.92,27.1754,11431.0,-0.166107,-1.0,13.0,-1259.0,80.0,,0.0,,2022-11-15 17:32:17.422238+00:00,1.1904327899459086,0.0148391803581304,1.2244969368651426,-1.1241444794485063,0.48548114043448076,0.56879154,336.64206753903903,0.18833906453610344,0.23699895712855806,1.3598908146165127,338.82859037579766,-1.265258383321908,0.48465274816842924,0.5027521198,0.23883728666113924,0.1910481501659573,0.4091896899905112,-0.9124493397474017,1.3527990842480286,0.16400979325697787,,,,,,,,,,
2022-11-15 10:32:17.621459-07:00,13.994095,1.51,0.58,-1.3,0.51,10.95,971.68,62.35,35.0,0.0,-0.000103287,0.000551862,-0.00105315,32.8213681,-111.787048,362.38552200000004,7.61810775,-0.544072195,-1.45348247,,,,,,,,,,,,,,2022-11-15 17:32:17.621459+00:00,1.1914803372795464,0.014856400728186963,1.42295822786738,-1.3648643336112702,0.4024369131818519,0.5089468500000001,343.571590027326,0.19319255272221872,0.24015175870920502,,,,,,,,0.9829325040876261,0.18396655241654356,,,,,,,,,,,,
2022-11-15 10:32:17.820898-07:00,14.193534,1.53,0.55,-1.36,0.41,10.76,971.68,63.3,30.0,0.0,-8.1397e-05,-0.000147372,-0.000606441,32.8213682,-111.787048,362.38268400000004,7.61271594,-0.544304349,-1.45866826,,,,,,,,,,,,,,2022-11-15 17:32:17.820898+00:00,1.192277707094217,0.0148695150707909,1.467126240474778,-1.421022559223243,0.3649031264161499,0.40939355899999996,345.598239340195,0.19450872347316495,0.24093965122524535,,,,,,,,0.8753557247723668,-0.4834794257341717,,,,,,,,,,,,
2022-11-15 10:32:18.021326-07:00,14.393962,1.46,0.65,-1.25,0.39,10.91,971.68,61.39,28.0,0.0,0.000266518,-0.000359691,-0.00101333,32.8213682,-111.787048,362.38482100000004,7.61485971,-0.544078674,-1.45152702,,,,,,,,,,,,,,2022-11-15 17:32:18.021326+00:00,1.1916481159653562,0.014859159712037166,1.409329126124582,-1.325469946602697,0.47889247895130016,0.38898667000000003,340.13520498297953,0.19215825164191822,0.23957750507233425,,,,,,,,0.8034714742437289,0.5953432539943733,,,,,,,,,,,,
2022-11-15 10:32:18.221102-07:00,14.593738,1.31,0.68,-1.02,0.44,11.02,971.68,60.92,30.0,0.0,0.000297562,0.000232035,-0.000455553,32.8213682,-111.787048,362.38689600000004,7.61503009,-0.544512886,-1.45353479,,,,,,,,,,,,,,2022-11-15 17:32:18.221102+00:00,1.1911868382345747,0.01485157498085585,1.225809863738949,-1.100883549288407,0.5391337801936179,0.439544447,333.90770262334655,0.1878202686875185,0.2367254872805366,,,,,,,,0.6149273954790289,-0.788583729409489,,,,,,,,,,,,
2022-11-15 10:32:18.422388-07:00,14.795024,1.42,0.61,-1.23,0.34,10.7,971.68,62.17,34.0,0.0,0.000194254,3.74875e-05,0.000972236,32.8213682,-111.787048,362.38833,7.61810138,-0.541736268,-1.45060722,2.05761,16.4578,5651.38,27.1778,11395.0,-0.0944741,-1.0,14.0,-1244.0,80.0,,0.0,,2022-11-15 17:32:18.422388+00:00,1.1925297298612618,0.01487366127269126,1.3729800139210708,-1.2999735899660443,0.44174968479615095,0.34097223600000004,341.23150189184,0.19174009987161655,0.23924261151662388,1.3921692809278254,349.23479006353716,-1.333034902369198,0.23571149190240082,0.2679199848,0.23978263318133036,0.19319255085644943,0.1894857089909926,-0.9818834788752588,1.3535489065608601,0.18645487438271977,,,,,,,,,,
2022-11-15 10:32:18.621719-07:00,14.994355,1.5,0.03,-1.5,0.07,9.97,971.67,65.42,31.0,0.0,0.000453795,9.82695e-05,-0.000183892,32.8213682,-111.787048,362.38353900000004,7.61912613,-0.538847458,-1.4534133,,,,,,,,,,,,,,2022-11-15 17:32:18.621719+00:00,1.1955922582948464,0.014924244085965346,1.5001512300757247,-1.490636352431932,-0.16869196159312175,0.069816108,366.45656499389975,0.19771216995229063,0.2420104542489311,,,,,,,,0.2116448312070669,-0.9773466454760728,,,,,,,,,,,,
2022-11-15 10:32:18.821282-07:00,15.193918,1.45,0.08,-1.45,0.1,10.23,971.67,64.13,28.0,0.0,0.000423085,-0.000405014,0.000280463,32.8213682,-111.787048,362.38723100000004,7.61880088,-0.541713701,-1.45648723,,,,,,,,,,,,,,2022-11-15 17:32:18.821282+00:00,1.1944953072497597,0.014906171267095076,1.4525761707788016,-1.44821107355691,-0.11252652283594307,0.100280463,364.4429758256199,0.19653196412890314,0.24135710778822597,,,,,,,,0.6915114728088456,0.7223654774238184,,,,,,,,,,,,
2022-11-15 10:32:19.021676-07:00,15.394312,1.41,0.31,-1.34,0.28,10.33,971.67,64.94,30.0,0.0,0.000553943,-0.000238092,0.000345366,32.8213682,-111.787048,362.38653000000005,7.62046695,-0.54482716,-1.45284728,,,,,,,,,,,,,,2022-11-15 17:32:19.021676+00:00,1.194073938790874,0.01489923187548281,1.3756801708700959,-1.3695127666167934,0.1301180794462965,0.28034536600000004,354.57259182731394,0.1940461796120228,0.24021329027324104,,,,,,,,0.39488288851089354,0.9187314647715583,,,,,,,,,,,,
2022-11-15 10:32:19.221039-07:00,15.593675,1.34,0.65,-1.11,0.36,10.86,971.67,61.52,35.0,0.0,0.000168232,-1.85303e-05,-0.000142994,32.8213682,-111.787048,362.380334,7.61937022,-0.547533216,-1.45492902,,,,,,,,,,,,,,2022-11-15 17:32:19.221039+00:00,1.191845639831122,0.014862561111223383,1.2863946702982298,-1.1864025528276443,0.4972526826631906,0.359857006,337.2601535176511,0.18941014588408717,0.2377654982045014,,,,,,,,0.10948513870742584,0.9939884327305906,,,,,,,,,,,,
2022-11-15 10:32:19.422822-07:00,15.795458,1.38,0.59,-1.19,0.38,10.71,971.66,62.02,31.0,0.0,-7.42746e-05,-0.000467991,-0.00011884,32.8213682,-111.787048,362.38320300000004,7.62102442,-0.544692305,-1.45260494,2.05624,16.872,5652.77,27.1803,11395.0,0.0522977,-1.0,14.0,-1244.0,80.0,,0.0,,2022-11-15 17:32:19.422822+00:00,1.192463173803124,0.014872872384406089,1.3286512015082168,-1.2582025136912358,0.4268962986607913,0.37988116,341.2584079964772,0.19093213262627223,0.2386852180344259,1.3110614425429254,345.7786634645719,-1.2634156135915449,0.3173918398241549,0.3244452784,0.2387736609032755,0.19138224970457032,0.9876386930547445,-0.15674760598208887,0.5115058346610357,0.23295449939553678,,,,,,,,,,
2022-11-15 10:32:19.621163-07:00,15.993799,1.29,0.5,-1.15,0.3,10.71,971.67,63.28,28.0,0.0,-0.000200482,0.000214814,0.00112751,32.8213682,-111.787048,362.383661,7.61784885,-0.543822469,-1.45910084,,,,,,,,,,,,,,2022-11-15 17:32:19.621163+00:00,1.1924754462355984,0.014872921230955682,1.2537321532752321,-1.2059182054539628,0.34293671998029607,0.30112751,344.12540926219566,0.19016699429045553,0.23800946852553004,,,,,,,,0.7310740547659852,0.6822981213868475,,,,,,,,,,,,
2022-11-15 10:32:19.821236-07:00,16.193872,1.34,0.36,-1.26,0.3,10.42,971.66,63.26,30.0,0.0,-4.17833e-05,-0.000439923,0.00101535,32.8213682,-111.787048,362.38234900000003,7.61755857,-0.54602965,-1.45291144,,,,,,,,,,,,,,2022-11-15 17:32:19.821236+00:00,1.1936826762907033,0.01489294298508213,1.3108490167628526,-1.2970420293680878,0.18975541837019996,0.30101535,351.6767547192215,0.19235579611001383,0.23919482947867932,,,,,,,,0.9955198153809398,-0.09455314475943964,,,,,,,,,,,,
2022-11-15 10:32:20.021322-07:00,16.393958,1.29,0.5,-1.15,0.34,10.74,971.68,61.99,35.0,0.0,1.2377e-05,-0.000406005,0.000463314,32.8213682,-111.787048,362.38418,7.61904441,-0.545463772,-1.45494439,,,,,,,,,,,,,,2022-11-15 17:32:20.021322+00:00,1.1923617028465923,0.014870896880216276,1.2543875223691825,-1.206546184249534,0.34312441118111386,0.340463314,344.12500911763175,0.19016310948927445,0.23801294276200205,,,,,,,,0.9995356606915267,0.030470690933309733,,,,,,,,,,,,
2022-11-15 10:32:20.221438-07:00,16.594074,1.3,0.57,-1.12,0.32,10.94,971.67,61.03,31.0,0.0,-2.02648e-05,-0.000417793,2.79565e-05,32.8213682,-111.787048,362.38353900000004,7.61819745,-0.543666736,-1.45118071,,,,,,,,,,,,,,2022-11-15 17:32:20.221438+00:00,1.191510015024946,0.014857041636771465,1.2570895084825637,-1.1860976795362292,0.41646887871209065,0.3200279565,340.65253631512473,0.1895997437919746,0.2377533944423591,,,,,,,,0.9988257330472249,-0.04844744578070041,,,,,,,,,,,,
2022-11-15 10:32:20.422114-07:00,16.79475,1.3,0.11,-1.29,0.11,10.35,971.68,63.57,28.0,0.0,-0.000238225,-1.0134e-05,0.0004323,32.8213682,-111.787048,362.388147,7.6217754,-0.545659987,-1.44735458,2.05774,17.3044,5649.3,27.183,11429.0,0.0739196,-1.0,13.0,-1243.0,80.0,,0.0,,2022-11-15 17:32:20.422114+00:00,1.1940019887870161,0.014897893788660925,1.2947029929025076,-1.2932028879562032,-0.062306744518117956,0.1104323,362.7583877635348,0.192969347704626,0.23916055989472837,1.2714826965015293,356.02760878007444,-1.2442745338059096,0.0834956051546382,0.16235511070000003,0.238512597713409,0.19160893520955438,0.04250117782324935,-0.9990964167104377,1.2466988896916718,0.19126330763698243,,,,,,,,,,
2022-11-15 10:32:20.621389-07:00,16.994025,1.28,0.05,-1.28,0.07,10.29,971.67,63.81,29.0,0.0,-0.000332994,0.000224128,0.00046189,32.8213682,-111.787048,362.392175,7.6217432,-0.545874005,-1.45294752,,,,,,,,,,,,,,2022-11-15 17:32:20.621389+00:00,1.1942424504954732,0.014902006853756082,1.2807843492128428,-1.2750990557976387,-0.12054437810422917,0.07046189000000001,365.4005357646794,0.1927590861967606,0.23892045609764967,,,,,,,,0.5583719502984508,0.8295907214523944,,,,,,,,,,,,
2022-11-15 10:32:20.821571-07:00,17.194207,1.27,0.01,-1.27,-0.03,10.06,971.67,65.93,35.0,0.0,-0.00075523,-0.000317769,0.000390093,32.8213682,-111.787048,362.38973400000003,7.6207084,-0.546665398,-1.44788569,,,,,,,,,,,,,,2022-11-15 17:32:20.821571+00:00,1.1952123165440378,0.014917983134760778,1.2704491095405492,-1.260426861489942,-0.1592641414976664,-0.029609906999999998,367.2015749394016,0.1925533888651362,0.23871563537030574,,,,,,,,0.3878262451674132,-0.9217325010865927,,,,,,,,,,,,
2022-11-15 10:32:21.021117-07:00,17.393753,1.44,-0.07,-1.43,-0.09,9.9,971.68,65.44,31.0,0.0,-0.000129427,0.000104286,0.00111135,32.8213682,-111.787048,362.38930700000003,7.62441582,-0.545622267,-1.45403707,,,,,,,,,,,,,,2022-11-15 17:32:21.021117+00:00,1.1959002431412087,0.014929166584752481,1.4316331289035964,-1.40796570011893,-0.2592412063367098,-0.08888865,370.4327169871763,0.19605195515521787,0.2407843731295572,,,,,,,,0.6274220676996551,0.7786793621019433,,,,,,,,,,,,
2022-11-15 10:32:21.221693-07:00,17.594329,1.37,-0.05,-1.37,-0.05,9.93,971.69,65.21,28.0,0.0,0.000306937,-0.000333227,0.000699583,32.8213682,-111.787048,362.388147,7.62432148,-0.549635725,-1.44958556,,,,,,,,,,,,,,2022-11-15 17:32:21.221693+00:00,1.1957858113388486,0.014927126841544574,1.371188808789153,-1.3515876239754738,-0.23101870933963284,-0.049300417000000006,369.6994895080356,0.1946946749426507,0.23996886393096714,,,,,,,,0.7355259720557294,0.6774965272468002,,,,,,,,,,,,
2022-11-15 10:32:21.421954-07:00,17.79459,1.32,-0.17,-1.31,-0.06,9.86,971.67,67.02,30.0,0.0,1.57873e-05,-0.000383125,-8.63269e-05,32.8213682,-111.787048,362.382898,7.62704216,-0.551004606,-1.4501613,2.05984,17.0827,5648.88,27.1858,11454.0,0.149542,-1.0,12.0,-1244.0,80.0,,0.0,,2022-11-15 17:32:21.421954+00:00,1.1960569597132147,0.014931903525934763,1.3213504285459248,-1.2762304510004086,-0.3423489315855869,-0.0600863269,375.01608400509303,0.19337790769878843,0.238942389579206,1.3516879174088774,373.673166594238,-1.3118541968772122,-0.3170105608408276,-0.05389672018,0.23944183187923102,0.19408804881297348,0.999152085418485,0.04117171606688818,-0.3707530514787806,0.2390361779990852,,,,,,,,,,
2022-11-15 10:32:21.621338-07:00,17.993974,1.31,-0.24,-1.29,-0.08,9.84,971.67,66.93,34.0,0.0,-0.000379006,-0.00033121,-0.000386271,32.8213682,-111.787048,362.38186,7.6276402,-0.552409519,-1.45116309,,,,,,,,,,,,,,2022-11-15 17:32:21.621338+00:00,1.1961414896937594,0.014933296999155004,1.312568557249206,-1.2470605114792945,-0.40948296446648763,-0.080386271,378.1780357384416,0.192951005114833,0.23855951043221582,,,,,,,,0.6580315961156367,-0.7529903176758036,,,,,,,,,,,,
2022-11-15 10:32:21.820867-07:00,18.193503,1.32,-0.17,-1.31,0.01,10.13,971.66,64.5,32.0,0.0,-0.000501699,-0.000604754,-0.000821936,32.8213683,-111.787048,362.383752,7.63128936,-0.552035484,-1.44897748,,,,,,,,,,,,,,2022-11-15 17:32:21.820867+00:00,1.1949046756416082,0.014913068034772077,1.3216986635565076,-1.276426697811953,-0.3429609924757209,0.009178064,375.0395067324434,0.19336470115337734,0.2389540223242091,,,,,,,,0.7696355796874708,-0.6384834175443641,,,,,,,,,,,,
2022-11-15 10:32:22.021484-07:00,18.39412,1.02,0.02,-1.02,0.03,10.24,971.67,65.22,28.0,0.0,-0.000606813,4.52439e-05,-9.19735e-05,32.8213683,-111.787048,362.387903,7.63059371,-0.552780735,-1.4530894,,,,,,,,,,,,,,2022-11-15 17:32:22.021484+00:00,1.1944531570219024,0.014905477035978183,1.020220058265189,-1.0135781437193876,-0.11622527204092058,0.0299080265,366.54143815330656,0.18776807638098697,0.23579093404704904,,,,,,,,0.07435348707321351,0.9972319484252665,,,,,,,,,,,,
2022-11-15 10:32:22.221161-07:00,18.593797,0.9,0.45,-0.74,0.26,10.89,971.67,61.15,29.0,0.0,-0.000417402,-0.000391693,0.000250204,32.8213683,-111.787048,362.38772,7.62909311,-0.552502137,-1.44806173,,,,,,,,,,,,,,2022-11-15 17:32:22.221161+00:00,1.1917197583735986,0.01486049082586578,0.8662744248976105,-0.793583260326552,0.34735714784809874,0.260250204,336.3606561119923,0.18358245055356412,0.23366566809065437,,,,,,,,0.6842930961471667,-0.7292070752298858,,,,,,,,,,,,
2022-11-15 10:32:22.422607-07:00,18.795243,1.18,0.73,-0.85,0.37,10.62,971.68,63.36,34.0,0.0,-4.87421e-05,-8.45061e-05,-0.000366559,32.8213683,-111.787048,362.38884900000005,7.62910254,-0.550842537,-1.45159204,2.0588,16.8131,5641.44,27.1882,11437.0,0.238111,-1.0,14.0,-1271.0,80.0,,0.0,,2022-11-15 17:32:22.422607+00:00,1.1928659260003494,0.014879193154103486,1.1204906269797206,-0.939475193471126,0.6106435998205479,0.369633441,326.97678737601865,0.18508058972373348,0.23501683375768492,1.1543292823850344,337.60890151009596,-1.023340547370719,0.4519373096868716,0.3075933763,0.2360050277139713,0.18682768633300645,0.8662362485694999,-0.49963462816766374,0.9027808536062105,0.18312843582552113,,,,,,,,,,
2022-11-15 10:32:22.621127-07:00,18.993763,1.43,0.9,-1.03,0.39,10.62,971.66,63.54,32.0,0.0,3.2191e-06,-0.000256884,-0.00081217,32.8213683,-111.787048,362.386316,7.62847271,-0.550393159,-1.44692467,,,,,,,,,,,,,,2022-11-15 17:32:22.621127+00:00,1.1928413733507939,0.014879095377576956,1.3680244180445615,-1.1406151248220573,0.7553065241299878,0.38918783,326.48778179286387,0.1879474877198451,0.23722767307495227,,,,,,,,0.9999214920414405,0.012530353291879657,,,,,,,,,,,,
2022-11-15 10:32:22.821662-07:00,19.194298,1.48,0.82,-1.13,0.49,10.84,971.67,61.26,28.0,0.0,-0.000173998,-0.000620433,-0.00101262,32.8213683,-111.787048,362.384088,7.62650919,-0.550035752,-1.44613009,,,,,,,,,,,,,,2022-11-15 17:32:22.821662+00:00,1.1919295755781436,0.014863941623232985,1.39663688373809,-1.2294510145144715,0.6626045486766446,0.48898737999999997,331.67784411629833,0.1897598272869028,0.23832402959951585,,,,,,,,0.9628524190066351,-0.2700281822570955,,,,,,,,,,,,
2022-11-15 10:32:23.021442-07:00,19.394078,1.24,0.79,-0.78,0.55,11.12,971.67,61.28,28.0,0.0,-4.54222e-05,-0.000599079,-0.00154989,32.8213683,-111.787048,362.383844,7.62602044,-0.551552129,-1.45350009,,,,,,,,,,,,,,2022-11-15 17:32:23.021442+00:00,1.1907555498942446,0.014844637855652168,1.110626193683281,-0.8785384297022389,0.6794562308432659,0.54845011,322.2818534696778,0.1841154516703382,0.23441323973342618,,,,,,,,0.9971379936500088,-0.07560305297826947,,,,,,,,,,,,
2022-11-15 10:32:23.221680-07:00,19.594316,1.42,0.91,-1.03,0.36,10.81,971.67,62.59,34.0,0.0,-0.000155242,-0.000910495,-0.0014985,32.8213683,-111.787048,362.38509500000004,7.62775061,-0.551274104,-1.44753927,,,,,,,,,,,,,,2022-11-15 17:32:23.221680+00:00,1.1920555013679284,0.014866012874079213,1.375078994973547,-1.1425865812227098,0.7650739486005648,0.3585015,326.1938055916111,0.18794990384020288,0.2372414689373725,,,,,,,,0.9857738261593323,-0.16807725503229318,,,,,,,,,,,,
2022-11-15 10:32:23.422087-07:00,19.794723,1.29,0.75,-1.0,0.33,10.93,971.67,62.13,32.0,0.0,-0.000159965,-3.46131e-05,-0.000749292,32.8213683,-111.787048,362.385217,7.62819068,-0.55263842,-1.45274575,2.05854,17.2742,5646.41,27.1915,11397.0,0.205341,-1.0,15.0,-1254.0,80.0,,0.0,,2022-11-15 17:32:23.422087+00:00,1.191551957788077,0.014857731345980962,1.2499520699402322,-1.0907430147733181,0.6104587233147579,0.329250708,330.76546621187094,0.18743612244597307,0.23664247022237575,1.2423184828597575,329.1336511400895,-1.0639652698500104,0.6342752175862291,0.4128760518,0.2363785619552979,0.1870099238989637,0.21148498022046947,-0.9773812475902879,1.174039384684298,0.17895829623813525,,,,,,,,,,
2022-11-15 10:32:23.621242-07:00,19.993878,1.32,0.75,-1.01,0.42,10.87,971.67,62.4,27.0,0.0,3.46208e-07,-0.000215611,-0.000996092,32.8213683,-111.787048,362.385065,7.62708946,-0.554552839,-1.44561724,,,,,,,,,,,,,,2022-11-15 17:32:23.621242+00:00,1.191803676390525,0.01486187095175869,1.2582031135125569,-1.1008238054187913,0.6093127475081934,0.419003908,331.0352022690518,0.18760906575072858,0.23675390017941783,,,,,,,,0.9999987108556929,0.0016057045034098213,,,,,,,,,,,,
2022-11-15 10:32:23.821144-07:00,20.19378,1.28,0.65,-1.03,0.41,10.95,971.67,62.15,28.0,0.0,-0.000392863,5.87526e-05,-0.000825967,32.8213683,-111.787048,362.382379,7.63098673,-0.554322805,-1.44862465,,,,,,,,,,,,,,2022-11-15 17:32:23.821144+00:00,1.1914680752144913,0.014856351991849174,1.2177320421891702,-1.1071345181329937,0.5070744376643638,0.409174033,335.39192815823594,0.18793907578757585,0.2368417307038973,,,,,,,,0.1479050293547545,0.9890015683969208,,,,,,,,,,,,
2022-11-15 10:32:24.020893-07:00,20.393529,1.45,0.81,-1.1,0.5,11.09,971.68,61.57,33.0,0.0,-0.000773242,7.01208e-05,-0.00150557,32.8213683,-111.787048,362.38131100000004,7.6300713,-0.554674255,-1.4513639,,,,,,,,,,,,,,2022-11-15 17:32:24.020893+00:00,1.1908934837500673,0.0148467523802031,1.3656196138083418,-1.1977395179014219,0.6560007445691769,0.49849443,331.2905231651556,0.18919066070612597,0.23793896228661926,,,,,,,,0.09031356665657021,0.9959133796057613,,,,,,,,,,,,
2022-11-15 10:32:24.221554-07:00,20.59419,1.28,0.68,-0.96,0.52,11.38,971.66,60.26,33.0,0.0,-0.000391737,-7.06035e-05,-0.000215034,32.8213683,-111.787048,362.385828,7.63321291,-0.553100789,-1.4500491,,,,,,,,,,,,,,2022-11-15 17:32:24.221554+00:00,1.1896552086449752,0.014826709413393322,1.1763159167166322,-1.041888809570479,0.5460648719819843,0.519784966,332.3404941600197,0.1867574614888589,0.2361054312597926,,,,,,,,0.17737404509395863,-0.9841435099247499,,,,,,,,,,,,
2022-11-15 10:32:24.422030-07:00,20.794666,1.24,0.57,-0.98,0.51,11.36,971.66,60.25,28.0,0.0,-0.000319592,0.000178006,0.000950061,32.8213683,-111.787048,362.39101600000004,7.63386713,-0.549038848,-1.45300549,2.06002,16.93,5640.82,27.1935,11381.0,0.201476,-1.0,17.0,-1238.0,80.0,,0.0,,2022-11-15 17:32:24.422030+00:00,1.1897388370031097,0.01482808324578994,1.1334237881542033,-1.0468565339923837,0.4344431847679024,0.510950061,337.4616562650133,0.18708303489905137,0.2361649768281731,1.2835029685123405,341.7253236161076,-1.202205133996984,0.3873916049330387,0.4443341914,0.238104065370278,0.19012692202558895,0.4865928454418568,0.8736288701529942,-0.861779129561259,0.1556767362016114,,,,,,,,,,
2022-11-15 10:32:24.620972-07:00,20.993608,1.37,0.28,-1.29,0.37,11.33,971.67,60.52,28.0,0.0,-3.59564e-05,-0.000502528,0.0011753,32.8213683,-111.787048,362.390649,7.63310183,-0.546478204,-1.44429336,,,,,,,,,,,,,,2022-11-15 17:32:24.620972+00:00,1.189876547273752,0.014830193035437785,1.3205358884813374,-1.3162639216922662,0.10613350657775684,0.3711753,355.39007766457263,0.19293392282148714,0.23949996288728817,,,,,,,,0.9974500114149966,-0.07136858362208956,,,,,,,,,,,,
2022-11-15 10:32:24.821682-07:00,21.194318,1.46,0.38,-1.37,0.32,11.48,971.67,59.78,33.0,0.0,-0.000354751,5.66706e-05,0.0012662,32.8213683,-111.787048,362.38936800000005,7.63255543,-0.543464103,-1.44730141,,,,,,,,,,,,,,2022-11-15 17:32:24.821682+00:00,1.189249482375143,0.01481989257726053,1.421619635401188,-1.4082768868283682,0.19431571676837314,0.3212662,352.1438668257765,0.19466953021242125,0.24081099358951677,,,,,,,,0.15774742118773544,0.9874794940193032,,,,,,,,,,,,
2022-11-15 10:32:25.021723-07:00,21.394359,1.5,0.26,-1.42,0.41,11.39,971.67,60.36,34.0,0.0,-0.000234906,-0.000207656,0.000437297,32.8213682,-111.787048,362.383936,7.63377094,-0.542774518,-1.46008385,,,,,,,,,,,,,,2022-11-15 17:32:25.021723+00:00,1.1896256419780593,0.01482607112722101,1.4438027956688884,-1.442161341253262,0.06882716452019413,0.410437297,357.26763157167727,0.19579419276429602,0.24131129163395185,,,,,,,,0.6623135704716965,-0.7492267576435275,,,,,,,,,,,,
2022-11-15 10:32:25.221571-07:00,21.594207,1.43,0.6,-1.23,0.43,11.49,971.66,59.73,29.0,0.0,-7.87293e-05,-0.000534764,-0.000506788,32.8213683,-111.787048,362.378412,7.63541508,-0.541100546,-1.45696603,,,,,,,,,,,,,,2022-11-15 17:32:25.221571+00:00,1.1891954627450632,0.014819157902463916,1.3690220990817927,-1.2993505213532128,0.43117250658344625,0.429493212,341.64224888411485,0.19168502386214123,0.23927512185139257,,,,,,,,0.9893358115114322,-0.1456525044790367,,,,,,,,,,,,
2022-11-15 10:32:25.422469-07:00,21.795105,1.71,0.79,-1.37,0.66,11.5,971.66,59.69,28.0,0.0,0.000310739,-0.00035901,-0.000971035,32.8213683,-111.787048,362.376184,7.63633912,-0.542149731,-1.46490647,2.05677,17.5862,5639.85,27.1962,11381.0,0.0513202,-1.0,17.0,-1238.0,80.0,,0.0,,2022-11-15 17:32:25.422469+00:00,1.1891536852828202,0.014818471784493675,1.5819051924678447,-1.463188282060569,0.6012521011999616,0.6590289650000001,337.66130017166086,0.19465797520088268,0.24163235782672846,1.6094356264643501,341.3617334408792,-1.503840734496331,0.5270039943812687,0.5316366180000001,0.24236717105119907,0.19591760451815682,0.7561089969900096,0.6544457079626711,-0.5857096525492049,0.1619889087705067,,,,,,,,,,
2022-11-15 10:32:25.621629-07:00,21.994265,2.01,1.03,-1.66,0.47,11.25,971.68,60.77,32.0,0.0,5.915e-05,-0.000399014,-0.000422371,32.8213684,-111.787048,362.37813700000004,7.63735183,-0.543418632,-1.46242353,,,,,,,,,,,,,,2022-11-15 17:32:25.621629+00:00,1.1902235014807283,0.014835741093056031,1.953974679568682,-1.782562960936438,0.8003039039596477,0.469577629,335.8217083773906,0.20165812858348284,0.2469375579984622,,,,,,,,0.9891902276540273,0.14663796750423694,,,,,,,,,,,,
2022-11-15 10:32:25.821650-07:00,22.194286,1.83,0.93,-1.42,0.69,11.08,971.68,61.38,34.0,0.0,0.000353406,-0.000977333,-0.000354013,32.8213684,-111.787048,362.376978,7.63426676,-0.540980035,-1.46747044,,,,,,,,,,,,,,2022-11-15 17:32:25.821650+00:00,1.1909353826869757,0.01484744113061312,1.6984733655345428,-1.5319405668781725,0.7334642956430938,0.6896459869999999,334.4157781995523,0.19579270217998118,0.24267952594546027,,,,,,,,0.9404062068204523,0.34005318139015955,,,,,,,,,,,,
2022-11-15 10:32:26.021178-07:00,22.393814,1.7,0.94,-1.19,0.76,10.99,971.68,61.73,29.0,0.0,0.000751909,-0.00016516,0.000421811,32.8213684,-111.787048,362.378961,7.63533157,-0.539235263,-1.47159414,,,,,,,,,,,,,,2022-11-15 17:32:26.021178+00:00,1.1913126058320516,0.014853642772801377,1.5170018876778713,-1.3045099210849866,0.7743052324562107,0.7604218110000001,329.3083163198127,0.1908861243528032,0.23935006509832843,,,,,,,,0.21453965251986723,0.9767152796473774,,,,,,,,,,,,
2022-11-15 10:32:26.221777-07:00,22.594413,1.87,1.06,-1.38,0.67,11.28,971.67,60.43,28.0,0.0,7.30598e-05,-0.000957973,-0.000167951,32.8213684,-111.787048,362.38006,7.63795821,-0.539549385,-1.46308819,,,,,,,,,,,,,,2022-11-15 17:32:26.221777+00:00,1.190085715882421,0.014833629717431008,1.7409819398552941,-1.5096020232436043,0.8672484340263289,0.669832049,330.1231440667841,0.19487602651515346,0.24234009293974682,,,,,,,,0.997104450788838,0.07604415965141338,,,,,,,,,,,,
