Timestamp,Seconds,S,Um,Vm,Wm,T,P,H,MD,Sts,Vx,Vy,Vz,Lat,Lon,Alt,Yaw,Roll,Pitch,CH4,C2H6,H20,T_a,Batt,R,C2C1,Power,Current,SOC,Lat_a,Lon_a,TS,Timestamp_UTC
2022-11-15 10:32:03.627364-07:00,0.0,2.05,0.75,-1.83,0.56,11.13,971.67,61.46,31.0,0.0,-0.000190968,0.000121191,3.90202e-05,32.8213684,-111.787047,361.535278,7.55676498,-0.547698542,-1.45901095,,,,,,,,,,,,,,2022-11-15 17:32:03.627364+00:00
2022-11-15 10:32:03.821775-07:00,0.194411,2.11,0.71,-1.95,0.38,10.61,971.67,63.54,35.0,0.0,6.26188e-05,-0.000140623,-0.000614287,32.8213684,-111.787047,361.536224,7.55598618,-0.550177147,-1.45560009,,,,,,,,,,,,,,2022-11-15 17:32:03.821775+00:00
2022-11-15 10:32:04.021412-07:00,0.394048,2.22,0.74,-2.07,0.35,10.5,971.67,64.02,31.0,0.0,-0.000212009,0.000372034,-0.00148662,32.8213684,-111.787047,361.531494,7.55186714,-0.548474345,-1.46139973,,,,,,,,,,,,,,2022-11-15 17:32:04.021412+00:00
2022-11-15 10:32:04.220958-07:00,0.593594,2.34,0.74,-2.2,0.34,10.55,971.68,63.7,28.0,0.0,5.53711e-05,-0.00100472,-0.00240063,32.8213684,-111.787047,361.525421,7.55202075,-0.549339909,-1.45417703,,,,,,,,,,,,,,2022-11-15 17:32:04.220958+00:00
2022-11-15 10:32:04.421173-07:00,0.793809,2.27,0.81,-2.1,0.35,10.52,971.67,63.82,31.0,0.0,-0.000136527,0.000244952,-0.00209184,32.8213684,-111.787047,361.52533,7.5518999,-0.550513182,-1.45659548,2.05961,17.0366,5705.24,27.1413,11397.0,-0.371827,-1.0,17.0,-1220.0,80.0,,0.0,,2022-11-15 17:32:04.421173+00:00
2022-11-15 10:32:04.621163-07:00,0.993799,2.49,0.87,-2.31,0.32,10.38,971.67,64.36,35.0,0.0,-0.000138939,0.000181923,-0.00188954,32.8213685,-111.787047,361.526886,7.55086171,-0.549164094,-1.45678263,,,,,,,,,,,,,,2022-11-15 17:32:04.621163+00:00
2022-11-15 10:32:04.821425-07:00,1.194061,2.48,0.85,-2.32,0.23,10.35,971.68,64.64,31.0,0.0,0.000231469,0.000383909,-0.000982924,32.8213685,-111.787047,361.528137,7.55715883,-0.549175367,-1.44830513,,,,,,,,,,,,,,2022-11-15 17:32:04.821425+00:00
2022-11-15 10:32:05.021464-07:00,1.3941,2.39,0.75,-2.26,0.26,10.44,971.66,64.17,28.0,0.0,-5.48593e-05,-0.000325923,-0.000739655,32.8213685,-111.787047,361.53009,7.55781399,-0.548777531,-1.45564151,,,,,,,,,,,,,,2022-11-15 17:32:05.021464+00:00
2022-11-15 10:32:05.221515-07:00,1.594151,2.19,0.7,-2.05,0.36,10.6,971.67,63.5,30.0,0.0,0.000262611,0.000133778,-0.00116775,32.8213685,-111.787047,361.52951,7.56060478,-0.54661109,-1.44922227,,,,,,,,,,,,,,2022-11-15 17:32:05.221515+00:00
2022-11-15 10:32:05.421087-07:00,1.793723,2.07,0.68,-1.89,0.49,11.06,971.67,61.52,35.0,0.0,0.000296002,-0.000417041,-0.00111093,32.8213685,-111.787047,361.529785,7.55928555,-0.542717507,-1.44754898,2.05891,16.4962,5698.3,27.144,11446.0,-0.348367,-1.0,15.0,-1241.0,80.0,,0.0,,2022-11-15 17:32:05.421087+00:00
2022-11-15 10:32:05.621320-07:00,1.993956,1.86,0.61,-1.66,0.57,11.06,971.67,61.58,31.0,0.0,0.000403291,-0.000238047,-0.00110327,32.8213685,-111.787047,361.530609,7.55671264,-0.542064167,-1.45311972,,,,,,,,,,,,,,2022-11-15 17:32:05.621320+00:00
2022-11-15 10:32:05.821308-07:00,2.193944,1.96,0.75,-1.75,0.47,10.86,971.66,62.33,28.0,0.0,0.000594499,4.87109e-05,-0.000968371,32.8213685,-111.787047,361.531219,7.55493618,-0.543702188,-1.44910495,,,,,,,,,,,,,,2022-11-15 17:32:05.821308+00:00
2022-11-15 10:32:06.020887-07:00,2.393523,1.85,0.65,-1.66,0.51,10.86,971.67,62.32,30.0,0.0,3.87986e-05,-0.00050099,-0.000934396,32.8213685,-111.787047,361.529877,7.55798281,-0.541663784,-1.45871812,,,,,,,,,,,,,,2022-11-15 17:32:06.020887+00:00
2022-11-15 10:32:06.221078-07:00,2.593714,2.03,0.74,-1.86,0.37,10.7,971.67,63.0,35.0,0.0,-3.24373e-06,0.000411375,0.000273518,32.8213685,-111.787047,361.531158,7.56234697,-0.543100387,-1.44921373,,,,,,,,,,,,,,2022-11-15 17:32:06.221078+00:00
2022-11-15 10:32:06.421642-07:00,2.794278,2.0,0.76,-1.81,0.37,10.65,971.66,63.23,32.0,0.0,6.67466e-05,-0.000332433,0.00120268,32.8213685,-111.787047,361.530792,7.56561178,-0.54494718,-1.44925046,2.06041,16.7644,5685.13,27.1461,11457.0,-0.357362,-1.0,15.0,-1258.0,80.0,,0.0,,2022-11-15 17:32:06.421642+00:00
2022-11-15 10:32:06.620980-07:00,2.993616,1.92,0.72,-1.74,0.39,10.69,971.67,63.05,28.0,0.0,-0.000165767,1.12497e-05,0.000624469,32.8213685,-111.787047,361.53244,7.56757807,-0.543471575,-1.44730131,,,,,,,,,,,,,,2022-11-15 17:32:06.620980+00:00
2022-11-15 10:32:06.821436-07:00,3.194072,1.91,0.6,-1.77,0.37,10.76,971.68,62.76,30.0,0.0,0.000292333,0.000225447,6.08172e-05,32.8213684,-111.787047,361.529236,7.5650027,-0.537865171,-1.4540423,,,,,,,,,,,,,,2022-11-15 17:32:06.821436+00:00
2022-11-15 10:32:07.021709-07:00,3.394345,1.88,0.71,-1.7,0.39,10.63,971.67,63.32,35.0,0.0,0.000350436,7.93094e-06,-0.00010462,32.8213684,-111.787047,361.535858,7.56859726,-0.539219974,-1.45239196,,,,,,,,,,,,,,2022-11-15 17:32:07.021709+00:00
2022-11-15 10:32:07.221475-07:00,3.594111,1.96,0.69,-1.8,0.37,10.71,971.67,62.96,31.0,0.0,0.000121405,0.000259022,0.000927925,32.8213683,-111.787047,361.53717,7.57257442,-0.543049247,-1.44825677,,,,,,,,,,,,,,2022-11-15 17:32:07.221475+00:00
2022-11-15 10:32:07.422854-07:00,3.79549,1.85,0.65,-1.64,0.56,11.07,971.68,61.45,28.0,0.0,-2.13973e-05,0.000282986,0.00151669,32.8213683,-111.787047,361.541321,7.57194337,-0.546375773,-1.45011635,2.06039,17.0844,5667.51,27.1491,11416.0,-0.33108,-1.0,17.0,-1238.0,80.0,,0.0,,2022-11-15 17:32:07.422854+00:00
2022-11-15 10:32:07.621710-07:00,3.994346,1.79,0.74,-1.59,0.37,10.75,971.68,62.74,30.0,0.0,-0.000148699,-0.000111745,0.00137474,32.8213683,-111.787047,361.53952,7.5722178,-0.546802946,-1.44946172,,,,,,,,,,,,,,2022-11-15 17:32:07.621710+00:00
2022-11-15 10:32:07.821824-07:00,4.19446,1.79,0.72,-1.61,0.32,10.59,971.68,63.4,34.0,0.0,0.000238796,0.000319789,0.000567682,32.8213683,-111.787047,361.53833,7.57577288,-0.548366171,-1.45856396,,,,,,,,,,,,,,2022-11-15 17:32:07.821824+00:00
2022-11-15 10:32:08.021807-07:00,4.394443,1.66,0.59,-1.5,0.36,10.68,971.67,63.16,32.0,0.0,-0.000411493,-0.000108831,0.000861999,32.8213683,-111.787047,361.539886,7.57614545,-0.550454813,-1.45599872,,,,,,,,,,,,,,2022-11-15 17:32:08.021807+00:00
2022-11-15 10:32:08.220962-07:00,4.593598,1.81,0.68,-1.61,0.49,11.12,971.67,61.18,28.0,0.0,-0.000190918,0.000731831,0.00163663,32.8213683,-111.787047,361.539093,7.58193005,-0.549978314,-1.46494971,,,,,,,,,,,,,,2022-11-15 17:32:08.220962+00:00
2022-11-15 10:32:08.422144-07:00,4.79478,1.81,0.55,-1.67,0.44,11.03,971.67,61.49,29.0,0.0,-0.000457405,0.000162877,0.00195874,32.8213684,-111.787048,361.537476,7.57845882,-0.545441469,-1.45303549,2.05927,17.2309,5661.61,27.1514,11376.0,-0.375373,-1.0,16.0,-1218.0,80.0,,0.0,,2022-11-15 17:32:08.422144+00:00
2022-11-15 10:32:08.621679-07:00,4.994315,1.76,0.74,-1.54,0.4,10.74,971.67,62.62,34.0,0.0,2.94802e-05,0.000136952,0.000758263,32.8213684,-111.787048,361.537231,7.58361568,-0.547298914,-1.46156777,,,,,,,,,,,,,,2022-11-15 17:32:08.621679+00:00
2022-11-15 10:32:08.821542-07:00,5.194178,1.88,0.66,-1.73,0.3,10.52,971.68,63.55,33.0,0.0,0.000133152,0.000418726,0.000259819,32.8213684,-111.787048,361.538177,7.58305413,-0.546557305,-1.46078759,,,,,,,,,,,,,,2022-11-15 17:32:08.821542+00:00
2022-11-15 10:32:09.021752-07:00,5.394388,1.89,0.68,-1.74,0.29,10.48,971.66,63.8,28.0,0.0,-0.000367241,-0.000842354,0.00114045,32.8213683,-111.787048,361.540619,7.58293598,-0.544285813,-1.45652929,,,,,,,,,,,,,,2022-11-15 17:32:09.021752+00:00
2022-11-15 10:32:09.221632-07:00,5.594268,2.0,0.67,-1.87,0.22,10.56,971.68,63.46,28.0,0.0,0.000300304,0.000378087,0.000337077,32.8213683,-111.787048,361.536621,7.58149598,-0.542484462,-1.45695984,,,,,,,,,,,,,,2022-11-15 17:32:09.221632+00:00
2022-11-15 10:32:09.422735-07:00,5.795371,1.85,0.56,-1.76,0.16,10.52,971.67,63.46,34.0,0.0,-1.88925e-05,-0.000332843,-0.000401955,32.8213682,-111.787048,361.535278,7.58080985,-0.541271109,-1.44388683,2.06016,16.8987,5645.39,27.154,11414.0,-0.424204,-1.0,15.0,-1225.0,80.0,,0.0,,2022-11-15 17:32:09.422735+00:00
2022-11-15 10:32:09.621730-07:00,5.994366,1.87,0.5,-1.79,0.2,10.49,971.68,63.67,33.0,0.0,2.52262e-05,0.00032219,-0.000473945,32.8213682,-111.787048,361.536896,7.58590499,-0.542898247,-1.4571187,,,,,,,,,,,,,,2022-11-15 17:32:09.621730+00:00
2022-11-15 10:32:09.821831-07:00,6.194467,1.82,0.54,-1.73,0.16,10.52,971.69,63.53,28.0,0.0,-9.14235e-05,-0.000185463,0.000696781,32.8213682,-111.787048,361.537048,7.58605087,-0.545183203,-1.45068654,,,,,,,,,,,,,,2022-11-15 17:32:09.821831+00:00
2022-11-15 10:32:10.021171-07:00,6.393807,1.9,0.51,-1.82,0.19,10.59,971.67,62.05,29.0,0.0,-0.000162654,-0.000362622,0.00118039,32.8213682,-111.787048,361.538391,7.58667188,-0.549831545,-1.44928045,,,,,,,,,,,,,,2022-11-15 17:32:10.021171+00:00
2022-11-15 10:32:10.221722-07:00,6.594358,2.0,0.18,-1.99,0.06,10.28,971.7,64.63,33.0,0.0,-9.1784e-05,0.000580898,0.00104962,32.8213682,-111.787048,361.534424,7.58659631,-0.55110389,-1.45229022,,,,,,,,,,,,,,2022-11-15 17:32:10.221722+00:00
2022-11-15 10:32:10.422254-07:00,6.79489,1.86,0.35,-1.82,0.05,10.29,971.68,64.59,33.0,0.0,-0.000137956,-0.000333925,-0.000109254,32.8213682,-111.787048,361.528046,7.5892986,-0.548434704,-1.4445421,2.0598,16.6469,5643.94,27.1571,11453.0,-0.396485,-1.0,12.0,-1243.0,80.0,,0.0,,2022-11-15 17:32:10.422254+00:00
2022-11-15 10:32:10.621579-07:00,6.994215,1.94,-0.15,-1.93,0.03,10.01,971.67,65.74,28.0,0.0,-0.000404846,0.000304085,0.000525772,32.8213683,-111.787048,361.531372,7.58993249,-0.547613954,-1.45436396,,,,,,,,,,,,,,2022-11-15 17:32:10.621579+00:00
2022-11-15 10:32:10.821831-07:00,7.194467,1.89,0.05,-1.89,0.07,10.18,971.67,65.09,29.0,0.0,-0.000252785,0.000344332,0.00198593,32.8213683,-111.787048,361.535828,7.58760242,-0.546509231,-1.44347252,,,,,,,,,,,,,,2022-11-15 17:32:10.821831+00:00
2022-11-15 10:32:11.021323-07:00,7.393959,1.66,0.75,-1.43,0.36,10.86,971.67,62.1,33.0,0.0,0.000232997,-0.000163282,0.00192454,32.8213683,-111.787048,361.537323,7.58498779,-0.54586932,-1.45016738,,,,,,,,,,,,,,2022-11-15 17:32:11.021323+00:00
2022-11-15 10:32:11.221484-07:00,7.59412,1.77,1.06,-1.36,0.38,10.76,971.67,62.43,33.0,0.0,-0.000212811,-0.000238368,0.0017679,32.8213683,-111.787048,361.537018,7.58640861,-0.544541875,-1.45391195,,,,,,,,,,,,,,2022-11-15 17:32:11.221484+00:00
2022-11-15 10:32:11.422439-07:00,7.795075,1.64,0.62,-1.5,0.22,10.56,971.69,63.27,28.0,0.0,0.000150736,-0.000647121,0.000579445,32.8213683,-111.787048,361.532928,7.59122158,-0.54412177,-1.44815076,2.06015,16.758,5650.55,27.1587,11447.0,-0.401975,-1.0,15.0,-1259.0,80.0,,0.0,,2022-11-15 17:32:11.422439+00:00
2022-11-15 10:32:11.621286-07:00,7.993922,1.55,0.73,-1.35,0.27,10.64,971.66,62.86,28.0,0.0,0.000123226,0.000109713,0.00116813,32.8213683,-111.787048,361.535339,7.58913295,-0.544695604,-1.45525836,,,,,,,,,,,,,,2022-11-15 17:32:11.621286+00:00
2022-11-15 10:32:11.821130-07:00,8.193766,1.33,0.24,-1.29,0.25,10.83,971.68,62.16,32.0,0.0,-0.000141006,0.000175955,0.00101986,32.8213683,-111.787048,361.532349,7.58811817,-0.546283875,-1.44483771,,,,,,,,,,,,,,2022-11-15 17:32:11.821130+00:00
2022-11-15 10:32:12.020852-07:00,8.393488,1.0,0.05,-0.99,0.17,11.0,971.67,61.3,34.0,0.0,0.000270317,-4.60826e-06,0.000318042,32.8213683,-111.787048,361.531555,7.59030904,-0.545429444,-1.45489614,,,,,,,,,,,,,,2022-11-15 17:32:12.020852+00:00
2022-11-15 10:32:12.221329-07:00,8.593965,1.08,0.19,-1.02,0.3,11.24,971.66,59.36,29.0,0.0,0.000381295,-0.000544573,0.00035304,32.8213683,-111.787048,361.530273,7.59087467,-0.546094621,-1.45347575,,,,,,,,,,,,,,2022-11-15 17:32:12.221329+00:00
2022-11-15 10:32:12.422001-07:00,8.794637,0.84,0.55,-0.56,0.3,11.47,971.67,59.49,28.0,0.0,0.000310548,-0.000428139,-9.0278e-05,32.8213683,-111.787048,361.529022,7.59331504,-0.548362729,-1.44795113,2.05881,17.1791,5639.55,27.1618,11370.0,-0.427729,-1.0,16.0,-1233.0,80.0,,0.0,,2022-11-15 17:32:12.422001+00:00
2022-11-15 10:32:12.620857-07:00,8.993493,1.14,0.84,-0.73,0.25,11.39,971.66,59.74,33.0,0.0,-0.000163236,0.000102941,-0.000404618,32.8213683,-111.787048,361.5271,7.59338438,-0.547944542,-1.4581364,,,,,,,,,,,,,,2022-11-15 17:32:12.620857+00:00
2022-11-15 10:32:12.821698-07:00,9.194334,0.85,0.51,-0.58,0.37,11.67,971.67,57.62,34.0,0.0,5.17923e-05,0.000344727,-0.00109909,32.8213683,-111.787048,361.526611,7.59451489,-0.548954522,-1.4484595,,,,,,,,,,,,,,2022-11-15 17:32:12.821698+00:00
2022-11-15 10:32:13.021406-07:00,9.394042,1.26,0.54,-1.06,0.41,11.59,971.67,59.03,29.0,0.0,0.00023229,0.000150471,-0.000394537,32.8213683,-111.787048,361.531952,7.59488213,-0.550010889,-1.45481169,,,,,,,,,,,,,,2022-11-15 17:32:13.021406+00:00
2022-11-15 10:32:13.221096-07:00,9.593732,1.64,0.98,-1.22,0.48,10.95,971.67,61.67,28.0,0.0,0.000348083,0.000301323,-0.000348579,32.8213683,-111.787048,361.532135,7.59630887,-0.552168425,-1.45112658,,,,,,,,,,,,,,2022-11-15 17:32:13.221096+00:00
2022-11-15 10:32:13.421950-07:00,9.794586,1.57,0.63,-1.41,0.31,10.68,971.67,61.46,33.0,0.0,3.11427e-05,0.00038662,-0.000982675,32.8213683,-111.787048,361.5289,7.59733014,-0.553482149,-1.44718356,2.06092,16.72,5646.37,27.1645,11398.0,-0.375553,-1.0,16.0,-1235.0,80.0,,0.0,,2022-11-15 17:32:13.421950+00:00
2022-11-15 10:32:13.621461-07:00,9.994097,1.51,0.68,-1.3,0.38,10.74,971.68,62.47,34.0,0.0,-0.000628345,0.000131469,-0.000642534,32.8213683,-111.787048,361.527771,7.59861087,-0.555511403,-1.45390662,,,,,,,,,,,,,,2022-11-15 17:32:13.621461+00:00
2022-11-15 10:32:13.821021-07:00,10.193657,1.56,0.79,-1.3,0.35,10.64,971.66,62.8,29.0,0.0,-8.16535e-05,0.000180702,-0.000132268,32.8213683,-111.787048,361.533203,7.5985997,-0.558481841,-1.45113694,,,,,,,,,,,,,,2022-11-15 17:32:13.821021+00:00
2022-11-15 10:32:14.021003-07:00,10.393639,1.77,1.13,-1.32,0.37,10.54,971.67,62.04,27.0,0.0,-0.00010226,-0.000269882,0.000348626,32.8213683,-111.787048,361.536377,7.59882261,-0.561829469,-1.45490863,,,,,,,,,,,,,,2022-11-15 17:32:14.021003+00:00
2022-11-15 10:32:14.221431-07:00,10.594067,1.67,1.1,-1.23,0.25,10.57,971.67,63.1,32.0,0.0,-0.000479909,-3.15061e-05,-0.00123858,32.8213683,-111.787048,361.532532,7.60075684,-0.55851062,-1.44789017,,,,,,,,,,,,,,2022-11-15 17:32:14.221431+00:00
2022-11-15 10:32:14.421764-07:00,10.7944,1.79,1.23,-1.25,0.34,10.6,971.67,64.14,34.0,0.0,-0.000231397,-0.000115196,-0.00229715,32.8213683,-111.787048,361.529419,7.59950714,-0.55669087,-1.45020677,2.06189,17.448,5655.62,27.1669,11434.0,-0.296511,-1.0,12.0,-1249.0,80.0,,0.0,,2022-11-15 17:32:14.421764+00:00
2022-11-15 10:32:14.621667-07:00,10.994303,1.68,1.21,-1.09,0.41,10.56,971.67,64.3,29.0,0.0,0.00023675,-9.89795e-05,-0.0018902,32.8213683,-111.787048,361.530975,7.60052423,-0.554076645,-1.45206507,,,,,,,,,,,,,,2022-11-15 17:32:14.621667+00:00
2022-11-15 10:32:14.821136-07:00,11.193772,1.53,0.94,-1.16,0.3,10.85,971.67,61.95,28.0,0.0,-3.95528e-06,3.64637e-05,-0.0012924,32.8213682,-111.787048,361.533234,7.60185966,-0.549727346,-1.44972456,,,,,,,,,,,,,,2022-11-15 17:32:14.821136+00:00
2022-11-15 10:32:15.021241-07:00,11.393877,1.6,0.87,-1.25,0.48,10.95,971.68,61.37,32.0,0.0,-0.00045688,-0.00015639,-0.000178618,32.8213682,-111.787048,361.533478,7.60360816,-0.551558362,-1.45190238,,,,,,,,,,,,,,2022-11-15 17:32:15.021241+00:00
2022-11-15 10:32:15.220912-07:00,11.593548,1.47,0.78,-1.05,0.67,11.13,971.66,60.69,34.0,0.0,0.000322362,-8.62375e-05,-0.00105689,32.8213682,-111.787048,361.532898,7.60498735,-0.548606502,-1.44932316,,,,,,,,,,,,,,2022-11-15 17:32:15.220912+00:00
2022-11-15 10:32:15.422336-07:00,11.794972,1.44,0.87,-0.92,0.68,11.23,971.67,61.31,29.0,0.0,0.000262056,-0.00027864,-0.00148868,32.8213682,-111.787048,361.533447,7.60587569,-0.546553313,-1.45291667,2.0587,16.7204,5679.4,27.1695,11434.0,-0.208963,-1.0,12.0,-1249.0,80.0,,0.0,,2022-11-15 17:32:15.422336+00:00
2022-11-15 10:32:15.621103-07:00,11.993739,1.4,0.69,-1.08,0.55,11.18,971.67,60.45,28.0,0.0,0.000228034,-0.000192464,-0.00182329,32.8213682,-111.787048,361.531555,7.61106084,-0.543315548,-1.44721163,,,,,,,,,,,,,,2022-11-15 17:32:15.621103+00:00
2022-11-15 10:32:15.820884-07:00,12.19352,1.41,0.81,-1.02,0.55,11.18,971.68,60.6,31.0,0.0,0.000126857,0.000326353,-0.00158833,32.8213683,-111.787048,361.531769,7.61356828,-0.540652513,-1.44919665,,,,,,,,,,,,,,2022-11-15 17:32:15.820884+00:00
2022-11-15 10:32:16.021741-07:00,12.394377,1.46,0.84,-1.09,0.5,11.01,971.67,62.34,34.0,0.0,-0.000253642,0.000200146,-0.00217592,32.8213682,-111.787048,361.533325,7.61428497,-0.545197205,-1.44685058,,,,,,,,,,,,,,2022-11-15 17:32:16.021741+00:00
2022-11-15 10:32:16.221404-07:00,12.59404,1.33,0.56,-1.1,0.49,11.54,971.67,60.12,30.0,0.0,-2.52352e-05,0.000593471,-0.00159092,32.8213682,-111.787048,361.535767,7.61575485,-0.548631253,-1.44394662,,,,,,,,,,,,,,2022-11-15 17:32:16.221404+00:00
2022-11-15 10:32:16.421844-07:00,12.79448,1.33,0.63,-1.03,0.55,11.48,971.68,59.16,28.0,0.0,-0.000293261,0.000202074,-0.000941312,32.8213681,-111.787048,361.536957,7.61910051,-0.547451374,-1.44852409,2.05882,17.296,5674.36,27.1717,11457.0,-0.279515,-1.0,12.0,-1249.0,80.0,,0.0,,2022-11-15 17:32:16.421844+00:00
2022-11-15 10:32:16.621298-07:00,12.993934,1.46,0.61,-1.23,0.5,11.16,971.68,60.45,31.0,0.0,0.000289878,3.24932e-06,-0.00121268,32.8213681,-111.787048,361.532837,7.61803579,-0.545748788,-1.44479543,,,,,,,,,,,,,,2022-11-15 17:32:16.621298+00:00
2022-11-15 10:32:16.821643-07:00,13.194279,1.57,0.54,-1.38,0.5,11.18,971.67,60.35,35.0,0.0,0.00059171,0.000153684,-0.00196291,32.8213681,-111.787048,361.530304,7.62192353,-0.545744929,-1.44779858,,,,,,,,,,,,,,2022-11-15 17:32:16.821643+00:00
2022-11-15 10:32:17.020878-07:00,13.393514,1.42,0.71,-1.09,0.56,11.16,971.68,60.45,30.0,0.0,0.000396768,-0.00015195,-0.00155407,32.8213681,-111.787048,361.531494,7.62154672,-0.544710828,-1.44261623,,,,,,,,,,,,,,2022-11-15 17:32:17.020878+00:00
2022-11-15 10:32:17.221717-07:00,13.594353,1.46,0.77,-1.15,0.47,11.08,971.67,62.05,27.0,0.0,0.000146281,0.000362551,-0.00181728,32.8213681,-111.787048,361.535858,7.61861739,-0.544116777,-1.44810027,,,,,,,,,,,,,,2022-11-15 17:32:17.221717+00:00
2022-11-15 10:32:17.422238-07:00,13.794874,1.35,0.63,-1.05,0.57,11.2,971.68,60.21,30.0,0.0,0.000193276,8.6675e-05,-0.00120846,32.8213681,-111.787048,361.532593,7.61573447,-0.543667364,-1.45136828,2.05792,16.5227,5655.92,27.1754,11431.0,-0.166107,-1.0,13.0,-1259.0,80.0,,0.0,,2022-11-15 17:32:17.422238+00:00
2022-11-15 10:32:17.621459-07:00,13.994095,1.51,0.58,-1.3,0.51,10.95,971.68,62.35,35.0,0.0,-0.000103287,0.000551862,-0.00105315,32.8213681,-111.787048,361.535522,7.61810775,-0.544072195,-1.45348247,,,,,,,,,,,,,,2022-11-15 17:32:17.621459+00:00
2022-11-15 10:32:17.820898-07:00,14.193534,1.53,0.55,-1.36,0.41,10.76,971.68,63.3,30.0,0.0,-8.1397e-05,-0.000147372,-0.000606441,32.8213682,-111.787048,361.532684,7.61271594,-0.544304349,-1.45866826,,,,,,,,,,,,,,2022-11-15 17:32:17.820898+00:00
2022-11-15 10:32:18.021326-07:00,14.393962,1.46,0.65,-1.25,0.39,10.91,971.68,61.39,28.0,0.0,0.000266518,-0.000359691,-0.00101333,32.8213682,-111.787048,361.534821,7.61485971,-0.544078674,-1.45152702,,,,,,,,,,,,,,2022-11-15 17:32:18.021326+00:00
2022-11-15 10:32:18.221102-07:00,14.593738,1.31,0.68,-1.02,0.44,11.02,971.68,60.92,30.0,0.0,0.000297562,0.000232035,-0.000455553,32.8213682,-111.787048,361.536896,7.61503009,-0.544512886,-1.45353479,,,,,,,,,,,,,,2022-11-15 17:32:18.221102+00:00
2022-11-15 10:32:18.422388-07:00,14.795024,1.42,0.61,-1.23,0.34,10.7,971.68,62.17,34.0,0.0,0.000194254,3.74875e-05,0.000972236,32.8213682,-111.787048,361.53833,7.61810138,-0.541736268,-1.45060722,2.05761,16.4578,5651.38,27.1778,11395.0,-0.0944741,-1.0,14.0,-1244.0,80.0,,0.0,,2022-11-15 17:32:18.422388+00:00
2022-11-15 10:32:18.621719-07:00,14.994355,1.5,0.03,-1.5,0.07,9.97,971.67,65.42,31.0,0.0,0.000453795,9.82695e-05,-0.000183892,32.8213682,-111.787048,361.533539,7.61912613,-0.538847458,-1.4534133,,,,,,,,,,,,,,2022-11-15 17:32:18.621719+00:00
2022-11-15 10:32:18.821282-07:00,15.193918,1.45,0.08,-1.45,0.1,10.23,971.67,64.13,28.0,0.0,0.000423085,-0.000405014,0.000280463,32.8213682,-111.787048,361.537231,7.61880088,-0.541713701,-1.45648723,,,,,,,,,,,,,,2022-11-15 17:32:18.821282+00:00
2022-11-15 10:32:19.021676-07:00,15.394312,1.41,0.31,-1.34,0.28,10.33,971.67,64.94,30.0,0.0,0.000553943,-0.000238092,0.000345366,32.8213682,-111.787048,361.53653,7.62046695,-0.54482716,-1.45284728,,,,,,,,,,,,,,2022-11-15 17:32:19.021676+00:00
2022-11-15 10:32:19.221039-07:00,15.593675,1.34,0.65,-1.11,0.36,10.86,971.67,61.52,35.0,0.0,0.000168232,-1.85303e-05,-0.000142994,32.8213682,-111.787048,361.530334,7.61937022,-0.547533216,-1.45492902,,,,,,,,,,,,,,2022-11-15 17:32:19.221039+00:00
2022-11-15 10:32:19.422822-07:00,15.795458,1.38,0.59,-1.19,0.38,10.71,971.66,62.02,31.0,0.0,-7.42746e-05,-0.000467991,-0.00011884,32.8213682,-111.787048,361.533203,7.62102442,-0.544692305,-1.45260494,2.05624,16.872,5652.77,27.1803,11395.0,0.0522977,-1.0,14.0,-1244.0,80.0,,0.0,,2022-11-15 17:32:19.422822+00:00
2022-11-15 10:32:19.621163-07:00,15.993799,1.29,0.5,-1.15,0.3,10.71,971.67,63.28,28.0,0.0,-0.000200482,0.000214814,0.00112751,32.8213682,-111.787048,361.533661,7.61784885,-0.543822469,-1.45910084,,,,,,,,,,,,,,2022-11-15 17:32:19.621163+00:00
2022-11-15 10:32:19.821236-07:00,16.193872,1.34,0.36,-1.26,0.3,10.42,971.66,63.26,30.0,0.0,-4.17833e-05,-0.000439923,0.00101535,32.8213682,-111.787048,361.532349,7.61755857,-0.54602965,-1.45291144,,,,,,,,,,,,,,2022-11-15 17:32:19.821236+00:00
2022-11-15 10:32:20.021322-07:00,16.393958,1.29,0.5,-1.15,0.34,10.74,971.68,61.99,35.0,0.0,1.2377e-05,-0.000406005,0.000463314,32.8213682,-111.787048,361.53418,7.61904441,-0.545463772,-1.45494439,,,,,,,,,,,,,,2022-11-15 17:32:20.021322+00:00
2022-11-15 10:32:20.221438-07:00,16.594074,1.3,0.57,-1.12,0.32,10.94,971.67,61.03,31.0,0.0,-2.02648e-05,-0.000417793,2.79565e-05,32.8213682,-111.787048,361.533539,7.61819745,-0.543666736,-1.45118071,,,,,,,,,,,,,,2022-11-15 17:32:20.221438+00:00
2022-11-15 10:32:20.422114-07:00,16.79475,1.3,0.11,-1.29,0.11,10.35,971.68,63.57,28.0,0.0,-0.000238225,-1.0134e-05,0.0004323,32.8213682,-111.787048,361.538147,7.6217754,-0.545659987,-1.44735458,2.05774,17.3044,5649.3,27.183,11429.0,0.0739196,-1.0,13.0,-1243.0,80.0,,0.0,,2022-11-15 17:32:20.422114+00:00
2022-11-15 10:32:20.621389-07:00,16.994025,1.28,0.05,-1.28,0.07,10.29,971.67,63.81,29.0,0.0,-0.000332994,0.000224128,0.00046189,32.8213682,-111.787048,361.542175,7.6217432,-0.545874005,-1.45294752,,,,,,,,,,,,,,2022-11-15 17:32:20.621389+00:00
2022-11-15 10:32:20.821571-07:00,17.194207,1.27,0.01,-1.27,-0.03,10.06,971.67,65.93,35.0,0.0,-0.00075523,-0.000317769,0.000390093,32.8213682,-111.787048,361.539734,7.6207084,-0.546665398,-1.44788569,,,,,,,,,,,,,,2022-11-15 17:32:20.821571+00:00
2022-11-15 10:32:21.021117-07:00,17.393753,1.44,-0.07,-1.43,-0.09,9.9,971.68,65.44,31.0,0.0,-0.000129427,0.000104286,0.00111135,32.8213682,-111.787048,361.539307,7.62441582,-0.545622267,-1.45403707,,,,,,,,,,,,,,2022-11-15 17:32:21.021117+00:00
2022-11-15 10:32:21.221693-07:00,17.594329,1.37,-0.05,-1.37,-0.05,9.93,971.69,65.21,28.0,0.0,0.000306937,-0.000333227,0.000699583,32.8213682,-111.787048,361.538147,7.62432148,-0.549635725,-1.44958556,,,,,,,,,,,,,,2022-11-15 17:32:21.221693+00:00
2022-11-15 10:32:21.421954-07:00,17.79459,1.32,-0.17,-1.31,-0.06,9.86,971.67,67.02,30.0,0.0,1.57873e-05,-0.000383125,-8.63269e-05,32.8213682,-111.787048,361.532898,7.62704216,-0.551004606,-1.4501613,2.05984,17.0827,5648.88,27.1858,11454.0,0.149542,-1.0,12.0,-1244.0,80.0,,0.0,,2022-11-15 17:32:21.421954+00:00
2022-11-15 10:32:21.621338-07:00,17.993974,1.31,-0.24,-1.29,-0.08,9.84,971.67,66.93,34.0,0.0,-0.000379006,-0.00033121,-0.000386271,32.8213682,-111.787048,361.53186,7.6276402,-0.552409519,-1.45116309,,,,,,,,,,,,,,2022-11-15 17:32:21.621338+00:00
2022-11-15 10:32:21.820867-07:00,18.193503,1.32,-0.17,-1.31,0.01,10.13,971.66,64.5,32.0,0.0,-0.000501699,-0.000604754,-0.000821936,32.8213683,-111.787048,361.533752,7.63128936,-0.552035484,-1.44897748,,,,,,,,,,,,,,2022-11-15 17:32:21.820867+00:00
2022-11-15 10:32:22.021484-07:00,18.39412,1.02,0.02,-1.02,0.03,10.24,971.67,65.22,28.0,0.0,-0.000606813,4.52439e-05,-9.19735e-05,32.8213683,-111.787048,361.537903,7.63059371,-0.552780735,-1.4530894,,,,,,,,,,,,,,2022-11-15 17:32:22.021484+00:00
2022-11-15 10:32:22.221161-07:00,18.593797,0.9,0.45,-0.74,0.26,10.89,971.67,61.15,29.0,0.0,-0.000417402,-0.000391693,0.000250204,32.8213683,-111.787048,361.53772,7.62909311,-0.552502137,-1.44806173,,,,,,,,,,,,,,2022-11-15 17:32:22.221161+00:00
2022-11-15 10:32:22.422607-07:00,18.795243,1.18,0.73,-0.85,0.37,10.62,971.68,63.36,34.0,0.0,-4.87421e-05,-8.45061e-05,-0.000366559,32.8213683,-111.787048,361.538849,7.62910254,-0.550842537,-1.45159204,2.0588,16.8131,5641.44,27.1882,11437.0,0.238111,-1.0,14.0,-1271.0,80.0,,0.0,,2022-11-15 17:32:22.422607+00:00
2022-11-15 10:32:22.621127-07:00,18.993763,1.43,0.9,-1.03,0.39,10.62,971.66,63.54,32.0,0.0,3.2191e-06,-0.000256884,-0.00081217,32.8213683,-111.787048,361.536316,7.62847271,-0.550393159,-1.44692467,,,,,,,,,,,,,,2022-11-15 17:32:22.621127+00:00
2022-11-15 10:32:22.821662-07:00,19.194298,1.48,0.82,-1.13,0.49,10.84,971.67,61.26,28.0,0.0,-0.000173998,-0.000620433,-0.00101262,32.8213683,-111.787048,361.534088,7.62650919,-0.550035752,-1.44613009,,,,,,,,,,,,,,2022-11-15 17:32:22.821662+00:00
2022-11-15 10:32:23.021442-07:00,19.394078,1.24,0.79,-0.78,0.55,11.12,971.67,61.28,28.0,0.0,-4.54222e-05,-0.000599079,-0.00154989,32.8213683,-111.787048,361.533844,7.62602044,-0.551552129,-1.45350009,,,,,,,,,,,,,,2022-11-15 17:32:23.021442+00:00
2022-11-15 10:32:23.221680-07:00,19.594316,1.42,0.91,-1.03,0.36,10.81,971.67,62.59,34.0,0.0,-0.000155242,-0.000910495,-0.0014985,32.8213683,-111.787048,361.535095,7.62775061,-0.551274104,-1.44753927,,,,,,,,,,,,,,2022-11-15 17:32:23.221680+00:00
2022-11-15 10:32:23.422087-07:00,19.794723,1.29,0.75,-1.0,0.33,10.93,971.67,62.13,32.0,0.0,-0.000159965,-3.46131e-05,-0.000749292,32.8213683,-111.787048,361.535217,7.62819068,-0.55263842,-1.45274575,2.05854,17.2742,5646.41,27.1915,11397.0,0.205341,-1.0,15.0,-1254.0,80.0,,0.0,,2022-11-15 17:32:23.422087+00:00
2022-11-15 10:32:23.621242-07:00,19.993878,1.32,0.75,-1.01,0.42,10.87,971.67,62.4,27.0,0.0,3.46208e-07,-0.000215611,-0.000996092,32.8213683,-111.787048,361.535065,7.62708946,-0.554552839,-1.44561724,,,,,,,,,,,,,,2022-11-15 17:32:23.621242+00:00
2022-11-15 10:32:23.821144-07:00,20.19378,1.28,0.65,-1.03,0.41,10.95,971.67,62.15,28.0,0.0,-0.000392863,5.87526e-05,-0.000825967,32.8213683,-111.787048,361.532379,7.63098673,-0.554322805,-1.44862465,,,,,,,,,,,,,,2022-11-15 17:32:23.821144+00:00
2022-11-15 10:32:24.020893-07:00,20.393529,1.45,0.81,-1.1,0.5,11.09,971.68,61.57,33.0,0.0,-0.000773242,7.01208e-05,-0.00150557,32.8213683,-111.787048,361.531311,7.6300713,-0.554674255,-1.4513639,,,,,,,,,,,,,,2022-11-15 17:32:24.020893+00:00
2022-11-15 10:32:24.221554-07:00,20.59419,1.28,0.68,-0.96,0.52,11.38,971.66,60.26,33.0,0.0,-0.000391737,-7.06035e-05,-0.000215034,32.8213683,-111.787048,361.535828,7.63321291,-0.553100789,-1.4500491,,,,,,,,,,,,,,2022-11-15 17:32:24.221554+00:00
2022-11-15 10:32:24.422030-07:00,20.794666,1.24,0.57,-0.98,0.51,11.36,971.66,60.25,28.0,0.0,-0.000319592,0.000178006,0.000950061,32.8213683,-111.787048,361.541016,7.63386713,-0.549038848,-1.45300549,2.06002,16.93,5640.82,27.1935,11381.0,0.201476,-1.0,17.0,-1238.0,80.0,,0.0,,2022-11-15 17:32:24.422030+00:00
2022-11-15 10:32:24.620972-07:00,20.993608,1.37,0.28,-1.29,0.37,11.33,971.67,60.52,28.0,0.0,-3.59564e-05,-0.000502528,0.0011753,32.8213683,-111.787048,361.540649,7.63310183,-0.546478204,-1.44429336,,,,,,,,,,,,,,2022-11-15 17:32:24.620972+00:00
2022-11-15 10:32:24.821682-07:00,21.194318,1.46,0.38,-1.37,0.32,11.48,971.67,59.78,33.0,0.0,-0.000354751,5.66706e-05,0.0012662,32.8213683,-111.787048,361.539368,7.63255543,-0.543464103,-1.44730141,,,,,,,,,,,,,,2022-11-15 17:32:24.821682+00:00
2022-11-15 10:32:25.021723-07:00,21.394359,1.5,0.26,-1.42,0.41,11.39,971.67,60.36,34.0,0.0,-0.000234906,-0.000207656,0.000437297,32.8213682,-111.787048,361.533936,7.63377094,-0.542774518,-1.46008385,,,,,,,,,,,,,,2022-11-15 17:32:25.021723+00:00
2022-11-15 10:32:25.221571-07:00,21.594207,1.43,0.6,-1.23,0.43,11.49,971.66,59.73,29.0,0.0,-7.87293e-05,-0.000534764,-0.000506788,32.8213683,-111.787048,361.528412,7.63541508,-0.541100546,-1.45696603,,,,,,,,,,,,,,2022-11-15 17:32:25.221571+00:00
2022-11-15 10:32:25.422469-07:00,21.795105,1.71,0.79,-1.37,0.66,11.5,971.66,59.69,28.0,0.0,0.000310739,-0.00035901,-0.000971035,32.8213683,-111.787048,361.526184,7.63633912,-0.542149731,-1.46490647,2.05677,17.5862,5639.85,27.1962,11381.0,0.0513202,-1.0,17.0,-1238.0,80.0,,0.0,,2022-11-15 17:32:25.422469+00:00
2022-11-15 10:32:25.621629-07:00,21.994265,2.01,1.03,-1.66,0.47,11.25,971.68,60.77,32.0,0.0,5.915e-05,-0.000399014,-0.000422371,32.8213684,-111.787048,361.528137,7.63735183,-0.543418632,-1.46242353,,,,,,,,,,,,,,2022-11-15 17:32:25.621629+00:00
2022-11-15 10:32:25.821650-07:00,22.194286,1.83,0.93,-1.42,0.69,11.08,971.68,61.38,34.0,0.0,0.000353406,-0.000977333,-0.000354013,32.8213684,-111.787048,361.526978,7.63426676,-0.540980035,-1.46747044,,,,,,,,,,,,,,2022-11-15 17:32:25.821650+00:00
2022-11-15 10:32:26.021178-07:00,22.393814,1.7,0.94,-1.19,0.76,10.99,971.68,61.73,29.0,0.0,0.000751909,-0.00016516,0.000421811,32.8213684,-111.787048,361.528961,7.63533157,-0.539235263,-1.47159414,,,,,,,,,,,,,,2022-11-15 17:32:26.021178+00:00
2022-11-15 10:32:26.221777-07:00,22.594413,1.87,1.06,-1.38,0.67,11.28,971.67,60.43,28.0,0.0,7.30598e-05,-0.000957973,-0.000167951,32.8213684,-111.787048,361.53006,7.63795821,-0.539549385,-1.46308819,,,,,,,,,,,,,,2022-11-15 17:32:26.221777+00:00
2022-11-15 10:32:26.421849-07:00,22.794485,1.86,0.92,-1.55,0.45,10.75,971.67,62.69,33.0,0.0,0.000798528,-0.000677506,0.000583361,32.8213684,-111.787048,361.534607,7.63836425,-0.539711014,-1.46404462,2.05963,17.1832,5641.24,27.199,11410.0,0.141302,-1.0,14.0,-1243.0,80.0,,0.0,,2022-11-15 17:32:26.421849+00:00
2022-11-15 10:32:26.621556-07:00,22.994192,1.75,0.64,-1.54,0.54,10.91,971.67,61.93,34.0,0.0,0.000552872,-0.000117653,-2.73744e-05,32.8213684,-111.787048,361.532166,7.63879465,-0.538092291,-1.46530286,,,,,,,,,,,,,,2022-11-15 17:32:26.621556+00:00
2022-11-15 10:32:26.821642-07:00,23.194278,1.81,1.01,-1.36,0.64,11.47,971.66,59.6,28.0,0.0,0.000662195,-0.000405289,-0.00120419,32.8213684,-111.787048,361.532257,7.64271515,-0.537495401,-1.46004617,,,,,,,,,,,,,,2022-11-15 17:32:26.821642+00:00
2022-11-15 10:32:27.020992-07:00,23.393628,1.88,0.97,-1.52,0.51,10.93,971.66,61.76,27.0,0.0,0.000555582,-0.000345432,-0.00043283,32.8213684,-111.787048,361.534515,7.64550485,-0.539102891,-1.46574664,,,,,,,,,,,,,,2022-11-15 17:32:27.020992+00:00
2022-11-15 10:32:27.221413-07:00,23.594049,2.02,1.12,-1.63,0.4,10.71,971.66,62.59,32.0,0.0,0.000821545,-8.53902e-05,-0.00146397,32.8213684,-111.787048,361.529663,7.64714916,-0.540602646,-1.45020218,,,,,,,,,,,,,,2022-11-15 17:32:27.221413+00:00
2022-11-15 10:32:27.422616-07:00,23.795252,1.97,0.85,-1.75,0.25,10.47,971.67,63.84,34.0,0.0,0.000509443,4.97813e-05,-0.00122738,32.8213684,-111.787048,361.528046,7.64683261,-0.541318157,-1.44979769,2.05828,17.5158,5651.0,27.2018,11447.0,0.126888,-1.0,14.0,-1259.0,80.0,,0.0,,2022-11-15 17:32:27.422616+00:00
2022-11-15 10:32:27.621828-07:00,23.994464,2.03,1.01,-1.74,0.29,10.49,971.67,63.76,30.0,0.0,-6.96517e-05,-1.14737e-06,-0.00209285,32.8213684,-111.787048,361.519836,7.65430644,-0.544058532,-1.4390712,,,,,,,,,,,,,,2022-11-15 17:32:27.621828+00:00
2022-11-15 10:32:27.821494-07:00,24.19413,1.87,0.82,-1.66,0.27,10.52,971.66,63.48,27.0,0.0,0.000170287,0.000395594,-0.00273311,32.8213684,-111.787048,361.516998,7.65582035,-0.545429243,-1.44809066,,,,,,,,,,,,,,2022-11-15 17:32:27.821494+00:00
2022-11-15 10:32:28.020912-07:00,24.393548,1.91,1.03,-1.57,0.37,10.46,971.67,63.81,33.0,0.0,0.000479222,0.000635368,-0.00258765,32.8213684,-111.787048,361.510773,7.65554748,-0.547828056,-1.43977568,,,,,,,,,,,,,,2022-11-15 17:32:28.020912+00:00
2022-11-15 10:32:28.221171-07:00,24.593807,1.68,0.74,-1.49,0.22,10.53,971.67,63.52,34.0,0.0,0.000660251,0.00032012,-0.0022795,32.8213684,-111.787048,361.508789,7.6580435,-0.546183505,-1.44410632,,,,,,,,,,,,,,2022-11-15 17:32:28.221171+00:00
2022-11-15 10:32:28.421877-07:00,24.794513,1.63,0.81,-1.38,0.33,10.77,971.66,62.42,29.0,0.0,0.000606562,0.000365087,-0.000835159,32.8213684,-111.787048,361.502136,7.65898869,-0.549197301,-1.44364685,2.05882,17.2279,5659.67,27.2045,11406.0,0.144457,-1.0,17.0,-1247.0,80.0,,0.0,,2022-11-15 17:32:28.421877+00:00
2022-11-15 10:32:28.621042-07:00,24.993678,1.67,0.79,-1.43,0.33,10.6,971.68,63.08,28.0,0.0,0.000320784,0.000201541,-0.00152098,32.8213685,-111.787048,361.496796,7.66158574,-0.551542666,-1.43654195,,,,,,,,,,,,,,2022-11-15 17:32:28.621042+00:00
2022-11-15 10:32:28.821183-07:00,25.193819,1.59,0.69,-1.41,0.27,10.58,971.68,61.84,31.0,0.0,0.00045039,0.000887464,-0.00146946,32.8213685,-111.787048,361.492188,7.66272302,-0.552698806,-1.44105963,,,,,,,,,,,,,,2022-11-15 17:32:28.821183+00:00
2022-11-15 10:32:29.021801-07:00,25.394437,1.61,0.75,-1.4,0.29,10.49,971.66,63.62,35.0,0.0,-0.000212617,0.000320523,-0.00222949,32.8213685,-111.787048,361.486389,7.66344222,-0.553606603,-1.43343762,,,,,,,,,,,,,,2022-11-15 17:32:29.021801+00:00
2022-11-15 10:32:29.220856-07:00,25.593492,1.57,0.7,-1.37,0.31,10.54,971.66,63.42,29.0,0.0,6.48512e-05,0.000572156,-0.00125274,32.8213685,-111.787048,361.482452,7.6676031,-0.552414678,-1.4405188,,,,,,,,,,,,,,2022-11-15 17:32:29.220856+00:00
2022-11-15 10:32:29.422421-07:00,25.795057,1.44,0.55,-1.3,0.3,10.6,971.66,63.13,28.0,0.0,5.25694e-05,0.000296074,8.73526e-05,32.8213685,-111.787048,361.479279,7.66658342,-0.555104143,-1.43487881,2.05594,17.0789,5654.51,27.2069,11378.0,0.0486505,-1.0,16.0,-1212.0,80.0,,0.0,,2022-11-15 17:32:29.422421+00:00
2022-11-15 10:32:29.621806-07:00,25.994442,1.51,0.72,-1.26,0.41,10.65,971.67,61.62,31.0,0.0,-0.000304136,0.000383001,0.000579924,32.8213685,-111.787048,361.475037,7.66655813,-0.55712123,-1.43476437,,,,,,,,,,,,,,2022-11-15 17:32:29.621806+00:00
2022-11-15 10:32:29.820985-07:00,26.193621,1.46,0.7,-1.23,0.38,10.6,971.66,63.22,34.0,0.0,-0.000114178,0.000500794,0.00057472,32.8213685,-111.787048,361.46933,7.66400332,-0.554495337,-1.43835178,,,,,,,,,,,,,,2022-11-15 17:32:29.820985+00:00
2022-11-15 10:32:30.021031-07:00,26.393667,1.43,0.81,-1.11,0.38,10.61,971.67,63.02,30.0,0.0,-0.000428691,0.000155912,-0.00109509,32.8213685,-111.787048,361.463318,7.66497751,-0.55329683,-1.43574044,,,,,,,,,,,,,,2022-11-15 17:32:30.021031+00:00
2022-11-15 10:32:30.221617-07:00,26.594253,1.42,0.78,-1.12,0.39,10.65,971.67,61.45,28.0,0.0,-0.000114735,0.00020496,-0.000400007,32.8213685,-111.787048,361.460724,7.66635376,-0.554180132,-1.44416493,,,,,,,,,,,,,,2022-11-15 17:32:30.221617+00:00
2022-11-15 10:32:30.422561-07:00,26.795197,1.37,0.78,-1.07,0.35,10.64,971.66,61.6,30.0,0.0,-0.000179022,3.78339e-05,-0.000383812,32.8213685,-111.787048,361.453857,7.66535459,-0.556379456,-1.43927372,2.05782,16.9846,5634.36,27.2093,11415.0,0.0485014,-1.0,14.0,-1216.0,80.0,,0.0,,2022-11-15 17:32:30.422561+00:00
2022-11-15 10:32:30.621039-07:00,26.993675,1.39,0.82,-1.08,0.33,10.57,971.66,61.86,35.0,0.0,1.83327e-06,0.000206739,-0.000819976,32.8213685,-111.787048,361.446838,7.6678147,-0.551774042,-1.44144437,,,,,,,,,,,,,,2022-11-15 17:32:30.621039+00:00
2022-11-15 10:32:30.821657-07:00,27.194293,1.36,0.79,-1.07,0.31,10.62,971.67,62.99,31.0,0.0,-9.59754e-05,-0.000360427,-0.00131114,32.8213685,-111.787048,361.443115,7.66699509,-0.550449191,-1.43994766,,,,,,,,,,,,,,2022-11-15 17:32:30.821657+00:00
2022-11-15 10:32:31.021447-07:00,27.394083,1.28,0.76,-0.97,0.33,10.66,971.68,61.51,27.0,0.0,-0.000257675,6.62575e-05,0.000459305,32.8213685,-111.787048,361.441742,7.66784369,-0.548228348,-1.43968846,,,,,,,,,,,,,,2022-11-15 17:32:31.021447+00:00
2022-11-15 10:32:31.221256-07:00,27.593892,1.46,0.89,-1.09,0.39,10.53,971.67,61.95,30.0,0.0,-0.000389726,0.000663918,0.00124508,32.8213685,-111.787048,361.439362,7.66847759,-0.548740743,-1.44283988,,,,,,,,,,,,,,2022-11-15 17:32:31.221256+00:00
2022-11-15 10:32:31.421847-07:00,27.794483,1.44,0.8,-1.14,0.38,10.6,971.68,61.67,34.0,0.0,-0.000109279,-0.000247704,0.000996807,32.8213686,-111.787048,361.438263,7.66968187,-0.545741476,-1.43808905,2.05964,17.4749,5617.61,27.2115,11455.0,0.0697864,-1.0,14.0,-1238.0,80.0,,0.0,,2022-11-15 17:32:31.421847+00:00
2022-11-15 10:32:31.621402-07:00,27.994038,1.39,0.78,-1.1,0.36,10.63,971.66,61.52,31.0,0.0,0.00016278,0.000279443,0.00173497,32.8213686,-111.787048,361.437195,7.66908247,-0.545811267,-1.44295891,,,,,,,,,,,,,,2022-11-15 17:32:31.621402+00:00
2022-11-15 10:32:31.820888-07:00,28.193524,1.55,0.82,-1.25,0.41,10.62,971.67,61.65,28.0,0.0,0.000208938,-4.52618e-05,0.00280572,32.8213686,-111.787048,361.438538,7.67116413,-0.546903421,-1.43385717,,,,,,,,,,,,,,2022-11-15 17:32:31.820888+00:00
2022-11-15 10:32:32.021255-07:00,28.393891,1.64,0.9,-1.31,0.4,10.56,971.67,61.93,30.0,0.0,7.38977e-05,0.0001418,0.00141193,32.8213686,-111.787048,361.43338,7.67605615,-0.548723098,-1.44035739,,,,,,,,,,,,,,2022-11-15 17:32:32.021255+00:00
2022-11-15 10:32:32.221029-07:00,28.593665,1.62,0.76,-1.38,0.36,10.67,971.66,62.55,35.0,0.0,-0.000274843,8.64922e-05,-0.000470854,32.8213686,-111.787048,361.424286,7.67607315,-0.54827689,-1.44129897,,,,,,,,,,,,,,2022-11-15 17:32:32.221029+00:00
2022-11-15 10:32:32.422529-07:00,28.795165,1.59,0.72,-1.39,0.28,10.75,971.67,60.97,32.0,0.0,-2.7897e-06,-0.000339689,-0.00135575,32.8213686,-111.787048,361.421204,7.68133336,-0.551106133,-1.44077897,2.05764,16.9441,5607.26,27.2146,11437.0,0.0773998,-1.0,15.0,-1253.0,80.0,,0.0,,2022-11-15 17:32:32.422529+00:00
2022-11-15 10:32:32.620858-07:00,28.993494,1.64,0.94,-1.31,0.28,10.74,971.66,62.16,28.0,0.0,-0.000221818,3.11918e-05,-0.000977244,32.8213686,-111.787048,361.421387,7.6786406,-0.551786292,-1.44509691,,,,,,,,,,,,,,2022-11-15 17:32:32.620858+00:00
2022-11-15 10:32:32.821155-07:00,29.193791,1.64,0.97,-1.29,0.3,10.82,971.67,60.69,29.0,0.0,-0.000264612,0.000210615,-0.000262109,32.8213686,-111.787048,361.419434,7.68356739,-0.549963186,-1.43954114,,,,,,,,,,,,,,2022-11-15 17:32:32.821155+00:00
2022-11-15 10:32:33.021571-07:00,29.394207,1.89,1.22,-1.4,0.35,10.88,971.67,60.54,35.0,0.0,-0.000130982,0.000256504,0.000393815,32.8213686,-111.787048,361.418732,7.68080556,-0.547763988,-1.44398078,,,,,,,,,,,,,,2022-11-15 17:32:33.021571+00:00
2022-11-15 10:32:33.221094-07:00,29.59373,1.8,1.04,-1.38,0.52,11.16,971.67,60.61,32.0,0.0,-2.84646e-05,0.000579906,0.00168353,32.8213686,-111.787048,361.417969,7.68066327,-0.546090601,-1.43562802,,,,,,,,,,,,,,2022-11-15 17:32:33.221094+00:00
2022-11-15 10:32:33.422348-07:00,29.794984,1.81,0.99,-1.46,0.39,11.12,971.67,59.42,28.0,0.0,6.15302e-05,0.000541445,0.0011192,32.8213686,-111.787048,361.418579,7.67780062,-0.545007186,-1.4430188,2.05752,16.8475,5598.95,27.2169,11387.0,-0.00291223,-1.0,18.0,-1220.0,80.0,,0.0,,2022-11-15 17:32:33.422348+00:00
2022-11-15 10:32:33.621649-07:00,29.994285,1.67,0.88,-1.38,0.33,10.94,971.66,61.44,29.0,0.0,6.45456e-05,0.000294554,0.000781321,32.8213686,-111.787048,361.415283,7.67865429,-0.544926047,-1.43697228,,,,,,,,,,,,,,2022-11-15 17:32:33.621649+00:00
2022-11-15 10:32:33.821612-07:00,30.194248,1.79,0.97,-1.45,0.38,10.66,971.66,61.22,34.0,0.0,0.000198754,0.000829935,-0.000201959,32.8213686,-111.787048,361.412842,7.67918473,-0.545752824,-1.44599387,,,,,,,,,,,,,,2022-11-15 17:32:33.821612+00:00
2022-11-15 10:32:34.021665-07:00,30.394301,1.77,0.88,-1.5,0.32,10.65,971.65,61.32,33.0,0.0,-0.000459179,0.000475403,-0.000958926,32.8213686,-111.787048,361.410919,7.67817168,-0.545710357,-1.44091497,,,,,,,,,,,,,,2022-11-15 17:32:34.021665+00:00
2022-11-15 10:32:34.220934-07:00,30.59357,1.74,0.86,-1.46,0.39,10.62,971.67,61.5,28.0,0.0,-1.57235e-05,0.000681449,-0.000449848,32.8213686,-111.787048,361.411102,7.67976795,-0.545886422,-1.44755656,,,,,,,,,,,,,,2022-11-15 17:32:34.220934+00:00
2022-11-15 10:32:34.422522-07:00,30.795158,1.67,0.73,-1.47,0.34,10.65,971.67,61.33,29.0,0.0,-0.000106838,0.000183844,-0.000584916,32.8213686,-111.787048,361.410461,7.67960928,-0.545754798,-1.44826286,2.05616,17.2361,5595.14,27.2211,11387.0,-0.0488516,-1.0,18.0,-1220.0,80.0,,0.0,,2022-11-15 17:32:34.422522+00:00
2022-11-15 10:32:34.621772-07:00,30.994408,1.73,0.84,-1.49,0.27,10.5,971.66,61.93,33.0,0.0,7.85348e-05,1.54249e-05,-0.000905741,32.8213686,-111.787048,361.409302,7.68024359,-0.545186832,-1.4405188,,,,,,,,,,,,,,2022-11-15 17:32:34.621772+00:00
2022-11-15 10:32:34.821762-07:00,31.194398,1.84,1.03,-1.49,0.34,10.61,971.67,61.33,34.0,0.0,0.000102506,0.000409451,-0.000671101,32.8213686,-111.787048,361.41037,7.679186,-0.545797198,-1.44728455,,,,,,,,,,,,,,2022-11-15 17:32:34.821762+00:00
2022-11-15 10:32:35.021594-07:00,31.39423,1.89,1.03,-1.55,0.35,10.5,971.66,61.91,29.0,0.0,-5.99033e-05,-0.000447464,-3.14875e-05,32.8213687,-111.787048,361.409729,7.68293666,-0.543836736,-1.44064061,,,,,,,,,,,,,,2022-11-15 17:32:35.021594+00:00
2022-11-15 10:32:35.221434-07:00,31.59407,1.85,1.04,-1.48,0.4,10.6,971.66,62.7,28.0,0.0,1.30105e-05,0.000616702,0.00045377,32.8213687,-111.787048,361.407318,7.68574443,-0.544271318,-1.44574716,,,,,,,,,,,,,,2022-11-15 17:32:35.221434+00:00
2022-11-15 10:32:35.422277-07:00,31.794913,1.81,1.08,-1.4,0.36,10.66,971.67,62.53,33.0,0.0,0.000157085,-0.000551397,-0.000609479,32.8213687,-111.787048,361.404236,7.68508877,-0.545971273,-1.43989172,2.05821,17.0221,5598.65,27.2264,11442.0,-0.0447094,-1.0,12.0,-1235.0,80.0,,0.0,,2022-11-15 17:32:35.422277+00:00
2022-11-15 10:32:35.620882-07:00,31.993518,1.83,1.07,-1.44,0.36,10.56,971.66,61.62,35.0,0.0,0.000336202,0.000187258,-0.00099534,32.8213687,-111.787048,361.404785,7.68499319,-0.543991186,-1.44586929,,,,,,,,,,,,,,2022-11-15 17:32:35.620882+00:00
2022-11-15 10:32:35.820911-07:00,32.193547,1.82,1.19,-1.3,0.43,10.58,971.67,61.46,30.0,0.0,4.664e-05,-7.11528e-05,-0.00109274,32.8213687,-111.787048,361.40451,7.68369673,-0.543860147,-1.44866479,,,,,,,,,,,,,,2022-11-15 17:32:35.820911+00:00
2022-11-15 10:32:36.020913-07:00,32.393549,1.71,1.18,-1.2,0.33,10.62,971.67,61.26,28.0,0.0,0.000143651,0.000112132,-2.25414e-05,32.8213687,-111.787048,361.406952,7.6878235,-0.545015113,-1.43860959,,,,,,,,,,,,,,2022-11-15 17:32:36.020913+00:00
2022-11-15 10:32:36.221078-07:00,32.593714,1.74,1.2,-1.2,0.41,10.55,971.67,62.91,33.0,0.0,0.000318934,0.000316422,0.00117219,32.8213687,-111.787048,361.407104,7.68413777,-0.543660926,-1.44390157,,,,,,,,,,,,,,2022-11-15 17:32:36.221078+00:00
2022-11-15 10:32:36.421888-07:00,32.794524,1.57,1.05,-1.12,0.35,10.71,971.67,60.76,35.0,0.0,0.000153746,0.000143058,0.00113794,32.8213687,-111.787048,361.409088,7.68642202,-0.546033268,-1.43701733,2.05631,17.127,5609.23,27.2294,11451.0,-0.0218679,-1.0,14.0,-1266.0,80.0,,0.0,,2022-11-15 17:32:36.421888+00:00
2022-11-15 10:32:36.620936-07:00,32.993572,1.52,1.08,-1.02,0.36,10.61,971.67,61.27,30.0,0.0,3.61822e-05,0.000798276,0.000155533,32.8213687,-111.787048,361.403931,7.68748669,-0.545004566,-1.44246026,,,,,,,,,,,,,,2022-11-15 17:32:36.620936+00:00
2022-11-15 10:32:36.821497-07:00,33.194133,1.43,0.78,-1.16,0.29,10.68,971.66,61.02,28.0,0.0,0.000130717,0.000157303,0.000131719,32.8213687,-111.787048,361.406616,7.68503576,-0.545944232,-1.43811318,,,,,,,,,,,,,,2022-11-15 17:32:36.821497+00:00
2022-11-15 10:32:37.020861-07:00,33.393497,1.31,0.61,-1.16,0.12,10.71,971.67,60.84,31.0,0.0,0.000370253,0.000489925,-0.000252459,32.8213687,-111.787048,361.40097,7.68832342,-0.542999825,-1.43864973,,,,,,,,,,,,,,2022-11-15 17:32:37.020861+00:00
2022-11-15 10:32:37.220855-07:00,33.593491,1.43,0.74,-1.2,0.25,10.76,971.67,60.62,34.0,0.0,0.000376638,0.000427067,-0.00181035,32.8213687,-111.787048,361.395721,7.68715035,-0.543164395,-1.44217149,,,,,,,,,,,,,,2022-11-15 17:32:37.220855+00:00
2022-11-15 10:32:37.422649-07:00,33.795285,1.38,0.74,-1.14,0.24,10.71,971.67,60.9,29.0,0.0,4.01437e-05,0.000289615,-0.000846435,32.8213687,-111.787048,361.398529,7.69106602,-0.542487362,-1.43828388,2.05656,18.0728,5616.64,27.2319,11410.0,-0.154233,-1.0,14.0,-1256.0,80.0,,0.0,,2022-11-15 17:32:37.422649+00:00
2022-11-15 10:32:37.621213-07:00,33.993849,1.4,0.8,-1.1,0.32,10.73,971.66,60.76,27.0,0.0,0.000139048,0.000454673,-0.000188725,32.8213687,-111.787048,361.398712,7.68951576,-0.543574591,-1.44294909,,,,,,,,,,,,,,2022-11-15 17:32:37.621213+00:00
2022-11-15 10:32:37.821463-07:00,34.194099,1.58,0.88,-1.25,0.39,10.64,971.67,61.14,31.0,0.0,0.000521673,-0.000273891,-0.000369671,32.8213687,-111.787048,361.399719,7.69296067,-0.543251035,-1.43706207,,,,,,,,,,,,,,2022-11-15 17:32:37.821463+00:00
2022-11-15 10:32:38.021836-07:00,34.394472,1.57,0.91,-1.24,0.31,10.59,971.66,61.25,35.0,0.0,1.01916e-05,0.000348521,0.000436372,32.8213687,-111.787048,361.402771,7.69229294,-0.543737643,-1.44464565,,,,,,,,,,,,,,2022-11-15 17:32:38.021836+00:00
2022-11-15 10:32:38.221653-07:00,34.594289,1.62,1.02,-1.2,0.37,10.65,971.67,62.31,29.0,0.0,0.000137054,-0.000220461,-0.000412074,32.8213687,-111.787048,361.397339,7.6935827,-0.545652064,-1.44592032,,,,,,,,,,,,,,2022-11-15 17:32:38.221653+00:00
2022-11-15 10:32:38.422036-07:00,34.794672,1.65,1.02,-1.26,0.28,10.52,971.68,61.6,28.0,0.0,0.000136102,-0.000478219,-0.00192971,32.8213687,-111.787048,361.393005,7.69417797,-0.54840817,-1.4435781,2.05677,17.2915,5619.71,27.2345,11378.0,-0.182263,-1.0,15.0,-1219.0,80.0,,0.0,,2022-11-15 17:32:38.422036+00:00
2022-11-15 10:32:38.621684-07:00,34.99432,1.58,1.04,-1.17,0.23,10.61,971.67,61.17,31.0,0.0,-3.59215e-05,1.89757e-05,-0.00163337,32.8213687,-111.787048,361.3927,7.69395494,-0.549606076,-1.44488756,,,,,,,,,,,,,,2022-11-15 17:32:38.621684+00:00
2022-11-15 10:32:38.821467-07:00,35.194103,1.64,1.14,-1.13,0.3,10.47,971.66,61.83,34.0,0.0,3.03997e-05,-0.000285482,-0.00130669,32.8213687,-111.787048,361.390625,7.69777938,-0.545190768,-1.43940246,,,,,,,,,,,,,,2022-11-15 17:32:38.821467+00:00
2022-11-15 10:32:39.021128-07:00,35.393764,1.7,1.12,-1.23,0.32,10.4,971.66,62.04,30.0,0.0,0.000806166,0.000211408,-0.000576633,32.8213687,-111.787048,361.388916,7.6995729,-0.540928199,-1.44728615,,,,,,,,,,,,,,2022-11-15 17:32:39.021128+00:00
2022-11-15 10:32:39.221428-07:00,35.594064,1.63,1.06,-1.19,0.3,10.35,971.65,62.25,27.0,0.0,0.000304999,-0.000135826,-0.000114223,32.8213687,-111.787048,361.392151,7.69704459,-0.542348833,-1.43989557,,,,,,,,,,,,,,2022-11-15 17:32:39.221428+00:00
2022-11-15 10:32:39.422537-07:00,35.795173,1.69,1.08,-1.27,0.32,10.41,971.67,61.97,31.0,0.0,0.000872897,0.000547095,0.000595757,32.8213687,-111.787048,361.395355,7.69863551,-0.541757431,-1.44254705,2.05638,17.2708,5620.31,27.2374,11416.0,-0.182039,-1.0,12.0,-1218.0,80.0,,0.0,,2022-11-15 17:32:39.422537+00:00
2022-11-15 10:32:39.621101-07:00,35.993737,1.48,0.87,-1.18,0.14,10.44,971.67,61.85,36.0,0.0,0.000519349,-1.85695e-06,0.000972682,32.8213688,-111.787048,361.396179,7.694568,-0.545762633,-1.44760588,,,,,,,,,,,,,,2022-11-15 17:32:39.621101+00:00
2022-11-15 10:32:39.821825-07:00,36.194461,1.49,1.0,-1.08,0.2,10.54,971.66,61.45,31.0,0.0,0.000535156,0.000137903,3.02643e-06,32.8213688,-111.787048,361.395355,7.69449733,-0.547176579,-1.44764666,,,,,,,,,,,,,,2022-11-15 17:32:39.821825+00:00
2022-11-15 10:32:40.021833-07:00,36.394469,1.63,1.17,-1.08,0.35,10.53,971.67,61.32,27.0,0.0,0.00020191,0.000416742,-0.000690886,32.8213688,-111.787048,361.396912,7.69362419,-0.553608975,-1.44912737,,,,,,,,,,,,,,2022-11-15 17:32:40.021833+00:00
2022-11-15 10:32:40.220953-07:00,36.593589,1.55,1.09,-1.06,0.32,10.49,971.66,61.48,30.0,0.0,-0.00017006,-0.000355665,-0.000243073,32.8213688,-111.787048,361.398438,7.69355005,-0.554770328,-1.44495247,,,,,,,,,,,,,,2022-11-15 17:32:40.220953+00:00
2022-11-15 10:32:40.422153-07:00,36.794789,1.48,0.95,-1.09,0.3,10.45,971.67,62.92,35.0,0.0,-0.000772236,-0.000334119,0.000230904,32.8213688,-111.787048,361.404266,7.69602171,-0.555199413,-1.44790715,2.05538,17.3138,5624.23,27.2398,11450.0,-0.169721,-1.0,11.0,-1244.0,80.0,,0.0,,2022-11-15 17:32:40.422153+00:00
2022-11-15 10:32:40.621629-07:00,36.994265,1.54,1.0,-1.13,0.32,10.58,971.65,61.14,31.0,0.0,-0.000678059,-0.000523135,-6.43594e-05,32.8213688,-111.787048,361.401611,7.69541478,-0.555861747,-1.44565193,,,,,,,,,,,,,,2022-11-15 17:32:40.621629+00:00
2022-11-15 10:32:40.820889-07:00,37.193525,1.57,1.07,-1.09,0.36,10.46,971.66,61.62,28.0,0.0,-9.91631e-05,-2.7393e-05,-0.00114741,32.8213688,-111.787048,361.394836,7.69731514,-0.556224779,-1.44793309,,,,,,,,,,,,,,2022-11-15 17:32:40.820889+00:00
2022-11-15 10:32:41.021411-07:00,37.394047,1.49,0.99,-1.06,0.33,10.53,971.66,61.32,30.0,0.0,-0.000275844,-0.0004009,-0.0012078,32.8213688,-111.787048,361.393005,7.69854146,-0.553605481,-1.44754023,,,,,,,,,,,,,,2022-11-15 17:32:41.021411+00:00
2022-11-15 10:32:41.221427-07:00,37.594063,1.45,0.99,-1.0,0.34,10.52,971.66,61.46,35.0,0.0,-7.83379e-05,-0.0005659,-0.00137103,32.8213688,-111.787048,361.394897,7.70014341,-0.554038987,-1.44598117,,,,,,,,,,,,,,2022-11-15 17:32:41.221427+00:00
2022-11-15 10:32:41.421945-07:00,37.794581,1.46,1.04,-0.98,0.31,10.5,971.66,61.46,31.0,0.0,3.37409e-05,0.000108239,0.00025312,32.8213688,-111.787048,361.399414,7.69986909,-0.554166455,-1.44613415,2.05911,16.9113,5626.32,27.2424,11445.0,-0.140396,-1.0,12.0,-1254.0,80.0,,0.0,,2022-11-15 17:32:41.421945+00:00
2022-11-15 10:32:41.621016-07:00,37.993652,1.62,1.16,-1.04,0.43,10.47,971.65,61.56,28.0,0.0,-0.00012081,-0.000207156,0.00149895,32.8213688,-111.787048,361.398804,7.70175472,-0.553147454,-1.44385844,,,,,,,,,,,,,,2022-11-15 17:32:41.621016+00:00
2022-11-15 10:32:41.821435-07:00,38.194071,1.47,1.04,-1.0,0.3,10.5,971.67,61.47,30.0,0.0,-6.68753e-05,0.000211886,0.000570466,32.8213688,-111.787048,361.395081,7.70454666,-0.551459046,-1.44721953,,,,,,,,,,,,,,2022-11-15 17:32:41.821435+00:00
2022-11-15 10:32:42.021472-07:00,38.394108,1.57,1.15,-1.0,0.38,10.48,971.66,62.76,36.0,0.0,-0.00038286,-0.00033546,-0.000784128,32.8213688,-111.787048,361.390717,7.69902893,-0.551187293,-1.44493293,,,,,,,,,,,,,,2022-11-15 17:32:42.021472+00:00
2022-11-15 10:32:42.221752-07:00,38.594388,1.4,1.03,-0.9,0.27,10.56,971.67,61.21,32.0,0.0,-0.000520012,-9.13707e-05,-0.00136112,32.8213688,-111.787048,361.38916,7.69928308,-0.553436896,-1.44365774,,,,,,,,,,,,,,2022-11-15 17:32:42.221752+00:00
2022-11-15 10:32:42.422410-07:00,38.795046,1.53,1.13,-0.97,0.32,10.5,971.67,61.37,28.0,0.0,-0.000524031,0.000167822,0.000362135,32.8213688,-111.787048,361.395813,7.70166635,-0.55472106,-1.44894439,2.06125,17.3294,5624.96,27.2445,11402.0,-0.0938768,-1.0,15.0,-1242.0,80.0,,0.0,,2022-11-15 17:32:42.422410+00:00
2022-11-15 10:32:42.621153-07:00,38.993789,1.58,1.16,-1.01,0.37,10.37,971.66,61.9,29.0,0.0,-0.000124742,-0.000135594,0.00127264,32.8213688,-111.787048,361.3992,7.70255894,-0.549999213,-1.44524562,,,,,,,,,,,,,,2022-11-15 17:32:42.621153+00:00
2022-11-15 10:32:42.820909-07:00,39.193545,1.58,1.11,-1.09,0.3,10.49,971.66,62.59,35.0,0.0,0.000214099,-0.00017934,0.000682761,32.8213687,-111.787048,361.397034,7.70496856,-0.548462537,-1.45033008,,,,,,,,,,,,,,2022-11-15 17:32:42.820909+00:00
2022-11-15 10:32:43.020978-07:00,39.393614,1.62,1.22,-1.0,0.38,10.43,971.65,61.51,33.0,0.0,0.000135931,-0.000427788,-0.000143518,32.8213686,-111.787048,361.395996,7.70193546,-0.552693132,-1.444795,,,,,,,,,,,,,,2022-11-15 17:32:43.020978+00:00
2022-11-15 10:32:43.221016-07:00,39.593652,1.46,1.06,-0.95,0.32,10.56,971.67,61.05,29.0,0.0,-0.000572184,-0.00011331,0.000579846,32.8213686,-111.787048,361.39978,7.70245508,-0.554562695,-1.4478132,,,,,,,,,,,,,,2022-11-15 17:32:43.221016+00:00
2022-11-15 10:32:43.422640-07:00,39.795276,1.42,1.07,-0.88,0.33,10.39,971.66,61.75,29.0,0.0,-0.000772724,-0.000254809,0.00168439,32.8213686,-111.787048,361.402496,7.70130633,-0.557737071,-1.44531095,2.05991,17.1043,5626.61,27.2477,11380.0,-0.0272875,-1.0,15.0,-1205.0,80.0,,0.0,,2022-11-15 17:32:43.422640+00:00
2022-11-15 10:32:43.621011-07:00,39.993647,1.4,1.06,-0.88,0.24,10.38,971.66,61.73,33.0,0.0,-0.000506414,-0.000126347,0.00194413,32.8213686,-111.787048,361.400574,7.70338566,-0.556502874,-1.44323381,,,,,,,,,,,,,,2022-11-15 17:32:43.621011+00:00
2022-11-15 10:32:43.821602-07:00,40.194238,1.51,1.18,-0.91,0.26,10.69,971.65,60.46,33.0,0.0,-0.000436036,0.000163783,0.00125806,32.8213686,-111.787048,361.399536,7.70489173,-0.557602508,-1.44553706,,,,,,,,,,,,,,2022-11-15 17:32:43.821602+00:00
2022-11-15 10:32:44.021597-07:00,40.394233,1.59,1.24,-0.96,0.29,10.48,971.67,62.55,28.0,0.0,-0.000762994,-0.000631997,0.000537201,32.8213686,-111.787048,361.398499,7.70797584,-0.555678039,-1.44278768,,,,,,,,,,,,,,2022-11-15 17:32:44.021597+00:00
2022-11-15 10:32:44.221492-07:00,40.594128,1.54,1.12,-1.02,0.27,10.5,971.65,62.47,28.0,0.0,-0.000215835,0.000245289,-0.000804934,32.8213686,-111.787048,361.392914,7.70524379,-0.551326355,-1.44318887,,,,,,,,,,,,,,2022-11-15 17:32:44.221492+00:00
2022-11-15 10:32:44.422806-07:00,40.795442,1.56,1.19,-0.98,0.25,10.67,971.67,61.93,33.0,0.0,7.88128e-05,-0.000606054,-0.000420228,32.8213686,-111.787048,361.396912,7.70257786,-0.552415166,-1.43947228,2.05998,17.7636,5625.36,27.2499,11422.0,-0.0271807,-1.0,13.0,-1225.0,80.0,,0.0,,2022-11-15 17:32:44.422806+00:00
2022-11-15 10:32:44.621322-07:00,40.993958,1.64,1.23,-1.06,0.25,10.66,971.65,61.83,34.0,0.0,0.000305238,-6.47377e-05,0.000621809,32.8213686,-111.787048,361.397888,7.70343677,-0.551837327,-1.44251289,,,,,,,,,,,,,,2022-11-15 17:32:44.621322+00:00
2022-11-15 10:32:44.821537-07:00,41.194173,1.6,1.2,-1.03,0.2,10.73,971.66,61.36,28.0,0.0,2.54056e-06,2.35704e-05,0.00113232,32.8213685,-111.787048,361.397736,7.70021131,-0.551954526,-1.44550674,,,,,,,,,,,,,,2022-11-15 17:32:44.821537+00:00
2022-11-15 10:32:45.021823-07:00,41.394459,1.43,0.99,-1.01,0.18,10.72,971.66,61.57,28.0,0.0,-1.16621e-05,-0.000223035,0.000480611,32.8213685,-111.787048,361.394562,7.70046814,-0.551507766,-1.44082807,,,,,,,,,,,,,,2022-11-15 17:32:45.021823+00:00
2022-11-15 10:32:45.221461-07:00,41.594097,1.47,1.07,-0.99,0.16,10.85,971.67,61.05,32.0,0.0,6.05327e-05,0.000361934,0.000344676,32.8213685,-111.787048,361.393799,7.69694469,-0.553561794,-1.4419647,,,,,,,,,,,,,,2022-11-15 17:32:45.221461+00:00
2022-11-15 10:32:45.422767-07:00,41.795403,1.55,1.18,-0.97,0.28,10.72,971.66,61.48,34.0,0.0,-0.000272677,-0.000298606,-0.00016357,32.8213685,-111.787048,361.395966,7.6976398,-0.553146109,-1.43976789,2.05869,16.7437,5622.06,27.2522,11451.0,-0.0261498,-1.0,11.0,-1252.0,80.0,,0.0,,2022-11-15 17:32:45.422767+00:00
2022-11-15 10:32:45.621053-07:00,41.993689,1.61,1.23,-0.99,0.27,10.64,971.65,61.89,29.0,0.0,-0.000403641,0.000136736,0.000233326,32.8213685,-111.787048,361.395752,7.69652913,-0.551025351,-1.44321374,,,,,,,,,,,,,,2022-11-15 17:32:45.621053+00:00
2022-11-15 10:32:45.821179-07:00,42.193815,1.88,1.33,-1.33,0.03,10.39,971.67,62.86,28.0,1.0,-0.000793681,1.54826e-05,0.000270216,32.8213685,-111.787048,361.397247,7.70459794,-0.548131787,-1.4390427,,,,,,,,,,,,,,2022-11-15 17:32:45.821179+00:00
2022-11-15 10:32:46.021672-07:00,42.394308,1.34,0.89,-0.97,0.23,10.48,971.66,62.46,32.0,1.0,-0.000178888,-0.000117078,0.000668834,32.8213685,-111.787048,361.397247,7.75636194,-0.548201005,-1.43890797,,,,,,,,,,,,,,2022-11-15 17:32:46.021672+00:00
2022-11-15 10:32:46.220896-07:00,42.593532,1.34,0.86,-1.03,0.12,10.54,971.66,61.0,34.0,1.0,8.429e-05,0.000117753,0.000780972,32.8213685,-111.787048,361.397247,7.75783103,-0.549480789,-1.44489856,,,,,,,,,,,,,,2022-11-15 17:32:46.220896+00:00
2022-11-15 10:32:46.422000-07:00,42.794636,1.58,1.16,-1.07,0.12,10.18,971.67,63.85,29.0,1.0,-0.000204384,0.000322289,0.00049839,32.8213686,-111.787048,361.397247,7.74730032,-0.549344314,-1.44617834,2.05907,17.1238,5620.71,27.2549,11431.0,-0.035332,-1.0,11.0,-1258.0,80.0,,0.0,,2022-11-15 17:32:46.422000+00:00
2022-11-15 10:32:46.621118-07:00,42.993754,1.42,1.09,-0.88,0.21,10.44,971.66,62.66,28.0,1.0,0.000230043,0.000628005,-7.35038e-05,32.8213685,-111.787048,361.396271,7.79987567,-0.554169694,-1.43717854,,,,,,,,,,,,,,2022-11-15 17:32:46.621118+00:00
2022-11-15 10:32:46.821528-07:00,43.194164,1.58,1.18,-0.98,0.36,10.54,971.66,62.16,30.0,1.0,0.000565411,-0.000484569,-0.000961163,32.8213685,-111.787048,361.394897,7.82472088,-0.556384352,-1.45235054,,,,,,,,,,,,,,2022-11-15 17:32:46.821528+00:00
2022-11-15 10:32:47.021243-07:00,43.393879,1.35,0.86,-1.03,0.1,10.04,971.65,64.25,34.0,1.0,0.00178931,0.000265013,-0.0019784,32.8213685,-111.787048,361.394653,7.73004581,-0.554455588,-1.44513886,,,,,,,,,,,,,,2022-11-15 17:32:47.021243+00:00
2022-11-15 10:32:47.221353-07:00,43.593989,1.41,1.01,-0.98,0.05,10.23,971.67,63.44,31.0,1.0,0.00273969,4.89069e-05,-0.00213794,32.8213684,-111.787048,361.396576,7.76974851,-0.576450011,-1.45219959,,,,,,,,,,,,,,2022-11-15 17:32:47.221353+00:00
2022-11-15 10:32:47.422442-07:00,43.795078,1.54,1.11,-1.06,0.03,10.35,971.66,62.93,27.0,1.0,-0.00206988,0.00256242,-0.000648954,32.8213684,-111.787048,361.397278,7.76038472,-0.535683048,-1.47332873,2.05662,16.3059,5623.11,27.2578,11384.0,0.0391551,-1.0,15.0,-1228.0,80.0,,0.0,,2022-11-15 17:32:47.422442+00:00
2022-11-15 10:32:47.620959-07:00,43.993595,1.46,1.17,-0.8,0.33,10.8,971.66,61.01,31.0,1.0,-0.00242587,0.000232848,0.00209447,32.8213684,-111.787048,361.400848,7.79731073,-0.551897719,-1.47144425,,,,,,,,,,,,,,2022-11-15 17:32:47.620959+00:00
2022-11-15 10:32:47.821538-07:00,44.194174,1.66,1.35,-0.93,0.28,10.67,971.66,61.7,34.0,1.0,0.0107184,-0.00639687,0.00510004,32.8213684,-111.787048,361.401245,7.8105623,-0.5530209,-1.49980323,,,,,,,,,,,,,,2022-11-15 17:32:47.821538+00:00
2022-11-15 10:32:48.021388-07:00,44.394024,1.72,1.44,-0.93,0.07,10.44,971.64,62.49,35.0,1.0,0.00121102,0.00105603,0.0060676,32.8213684,-111.787048,361.402557,7.85963033,-0.521018041,-1.51939122,,,,,,,,,,,,,,2022-11-15 17:32:48.021388+00:00
2022-11-15 10:32:48.221337-07:00,44.593973,1.37,1.2,-0.65,0.08,10.53,971.65,60.91,21.0,1.0,0.000166535,0.0011161,0.00509762,32.8213684,-111.787048,361.403046,7.80416818,-0.502349257,-1.44776527,,,,,,,,,,,,,,2022-11-15 17:32:48.221337+00:00
2022-11-15 10:32:48.422330-07:00,44.794966,1.46,1.26,-0.72,0.17,10.42,971.63,62.52,36.0,1.0,0.00016806,0.0203449,0.0144397,32.8213684,-111.787048,361.408478,7.91210389,-0.500771254,-1.07184299,2.05437,16.3799,5617.67,27.2602,11394.0,0.179686,-1.0,14.0,-1230.0,80.0,,0.0,,2022-11-15 17:32:48.422330+00:00
2022-11-15 10:32:48.621276-07:00,44.993912,1.1,0.89,-0.61,0.24,10.59,971.63,61.89,28.0,1.0,0.00894512,0.00530299,0.0147908,32.8213684,-111.787048,361.410645,8.06568622,-0.489077775,-0.771722759,,,,,,,,,,,,,,2022-11-15 17:32:48.621276+00:00
2022-11-15 10:32:48.821799-07:00,45.194435,1.17,0.67,-0.96,0.04,10.54,971.62,62.07,28.0,1.0,0.0143726,0.00790312,0.0503993,32.8213684,-111.787048,361.411987,8.48386458,-0.121544725,-0.276850256,,,,,,,,,,,,,,2022-11-15 17:32:48.821799+00:00
2022-11-15 10:32:49.021685-07:00,45.394321,1.44,1.0,-1.03,0.07,10.41,971.62,61.37,29.0,2.0,0.026162,0.0285425,0.305512,32.8213685,-111.787048,361.446075,9.10093449,1.19272512,0.790963857,,,,,,,,,,,,,,2022-11-15 17:32:49.021685+00:00
2022-11-15 10:32:49.221561-07:00,45.594197,1.25,0.85,-0.87,0.29,10.52,971.61,62.18,22.0,2.0,0.0680292,0.0702626,0.568351,32.8213685,-111.787048,361.551056,9.19900443,1.04336116,0.935140305,,,,,,,,,,,,,,2022-11-15 17:32:49.221561+00:00
2022-11-15 10:32:49.422690-07:00,45.795326,1.43,0.45,-1.34,-0.19,10.37,971.6,62.78,30.0,2.0,0.0896361,0.0941898,0.700155,32.8213687,-111.787048,361.739655,9.2071196,0.519542896,0.105184792,2.0587,17.0026,5616.93,27.2628,11438.0,0.150414,-1.0,12.0,-1247.0,80.0,,0.0,,2022-11-15 17:32:49.422690+00:00
2022-11-15 10:32:49.621716-07:00,45.994352,1.67,0.05,-1.66,-0.2,10.38,971.59,62.6,28.0,2.0,0.0927209,0.0887017,0.705116,32.8213689,-111.787048,361.905212,9.14971127,0.0477840575,-0.63900247,,,,,,,,,,,,,,2022-11-15 17:32:49.621716+00:00
2022-11-15 10:32:49.821020-07:00,46.193656,2.37,-0.03,-2.26,-0.72,10.01,971.57,64.17,28.0,2.0,0.0748514,0.06601,0.658367,32.821369,-111.787047,362.053558,9.1343766,-0.182677383,-1.04494133,,,,,,,,,,,,,,2022-11-15 17:32:49.821020+00:00
2022-11-15 10:32:50.021242-07:00,46.393878,2.26,-0.21,-2.21,-0.4,10.35,971.55,62.86,26.0,2.0,0.057655,0.0164378,0.723182,32.8213691,-111.787047,362.180176,9.12265104,-0.274608401,-1.21641883,,,,,,,,,,,,,,2022-11-15 17:32:50.021242+00:00
