Timestamp,Seconds,S,Um,Vm,Wm,T,P,H,MD,Sts,Vx,Vy,Vz,Lat,Lon,Alt,Yaw,Roll,Pitch,CH4,C2H6,H20,T_a,Batt,R,C2C1,Power,Current,SOC,Lat_a,Lon_a,TS,Timestamp_UTC,Rho,Rho_err,Sc,V,U,W,WD,V_err,U_err,Sc_avg,WD_avg,V_avg,U_avg,W_avg,U_err_avg,V_err_avg,Nx,Ny,cross_wind,cross_wind_err,CH4_sub,CH4_res,CH4_adj,CH4_adj_err,BG_Samples_CH4,C2H6_sub,C2H6_res,C2H6_adj,C2H6_adj_err,BG_Samples_C2H6,x_dist,y_dist,s_dist,z_dist,velocity_s,velocity_z,x_src_dist,y_src_dist,s_src_dist,collecting,group,transect_num
2022-11-15 10:32:04.421173-07:00,0.793809,2.27,0.81,-2.1,0.35,10.52,971.67,63.82,31.0,0.0,-0.000136527,0.000244952,-0.00209184,32.8213684,-111.787047,362.37533,7.5518999,-0.550513182,-1.45659548,2.05961,17.0366,5705.24,27.1413,11397.0,-0.371827,-1.0,17.0,-1220.0,80.0,,0.0,,2022-11-15 17:32:04.421173+00:00,1.193274157184182,0.014886064882884987,2.2505297502671757,-2.1879937245370007,0.5268468641117081,0.34790815999999997,346.4614795091843,0.2144178785284037,0.25474244395958856,2.341842065541807,347.53068195895185,-2.2862922636648357,0.5058339606053246,0.3162296892,0.2569346565215288,0.21760562015931068,0.8734864831211837,0.48684839920101003,-0.6712386013784745,0.20270713642073912,,,,,,,,,,,-0.022265034162483703,0.09355372145211413,0.09616668104804453,0.12808300000000372,0.09616668104804453,0.12808300000000372,-22.999776529787447,-103.376606601461,105.90426107033367,False,,
2022-11-15 10:32:05.421087-07:00,1.793723,2.07,0.68,-1.89,0.49,11.06,971.67,61.52,35.0,0.0,0.000296002,-0.000417041,-0.00111093,32.8213685,-111.787047,362.379785,7.55928555,-0.542717507,-1.44754898,2.05891,16.4962,5698.3,27.144,11446.0,-0.348367,-1.0,15.0,-1241.0,80.0,,0.0,,2022-11-15 17:32:05.421087+00:00,1.1910069320869672,0.014848770138161735,2.009076768491677,-1.9634469228182576,0.42575303048654095,0.48888907,347.76541401285397,0.20815070895212015,0.25013279076152406,2.045925929781164,347.47491805100924,-1.9972678168353273,0.4394368080884613,0.4289820047999999,0.250998054259247,0.20932770566742032,0.8154726095566892,0.5787956660711996,-0.7976612757406143,0.18104537964468115,,,,,,,,,,,-0.011132517443093083,0.0935537214121419,0.09421375554918417,0.13253800000001092,-0.001952925498860364,0.004455000000007203,-22.988644013068058,-103.37660660150098,105.90184392162898,False,,
2022-11-15 10:32:06.421642-07:00,2.794278,2.0,0.76,-1.81,0.37,10.65,971.66,63.23,32.0,0.0,6.67466e-05,-0.000332433,0.00120268,32.8213685,-111.787047,362.38079200000004,7.56561178,-0.54494718,-1.44925046,2.06041,16.7644,5685.13,27.1461,11457.0,-0.357362,-1.0,15.0,-1258.0,80.0,,0.0,,2022-11-15 17:32:06.421642+00:00,1.1927152801823637,0.014877020465732957,1.9634226070789043,-1.894638615931215,0.5151435227300943,0.37120268,344.78925376757115,0.20588086753273874,0.248821651204554,1.899967026686331,346.15054056188376,-1.8440048640151794,0.4552865088711212,0.40224541764,0.24789142222065363,0.2047590054051736,0.9804329352517532,0.1968533958905242,0.08337926875300444,0.23841738918250213,,,,,,,,,,,-0.01113251744485063,0.09355372142691168,0.09421375556405816,0.13354500000002645,1.487399092781061e-11,0.0010070000000155233,-22.988644013069813,-103.3766066014862,105.90184392161494,False,,
2022-11-15 10:32:07.422854-07:00,3.79549,1.85,0.65,-1.64,0.56,11.07,971.68,61.45,28.0,0.0,-2.13973e-05,0.000282986,0.00151669,32.8213683,-111.787047,362.391321,7.57194337,-0.546375773,-1.45011635,2.06039,17.0844,5667.51,27.1491,11416.0,-0.33108,-1.0,17.0,-1238.0,80.0,,0.0,,2022-11-15 17:32:07.422854+00:00,1.1909772845722297,0.014848129945188733,1.7638347933284986,-1.7110676640895255,0.4282062903127439,0.56151669,345.9499101948991,0.20132274140478765,0.2455026695472202,1.810194742735176,344.7050413792489,-1.745809575877205,0.47618521669325514,0.4028564834,0.24613603235710993,0.2020808366336318,0.9971535688355105,0.0753973484852402,0.3432003752711073,0.24473950418947774,,,,,,,,,,,-0.03339755097337844,0.09355372179197047,0.09933627369772242,0.14407399999998916,0.005122518133664267,0.010528999999962707,-23.010909046598343,-103.37660660112114,105.90667933380682,False,,
2022-11-15 10:32:08.422144-07:00,4.79478,1.81,0.55,-1.67,0.44,11.03,971.67,61.49,29.0,0.0,-0.000457405,0.000162877,0.00195874,32.8213684,-111.787048,362.38747600000005,7.57845882,-0.545441469,-1.45303549,2.05927,17.2309,5661.61,27.1514,11376.0,-0.375373,-1.0,16.0,-1218.0,80.0,,0.0,,2022-11-15 17:32:08.422144+00:00,1.1911326629897845,0.014850837145762066,1.7579931973487724,-1.7277860422999372,0.32449264083809304,0.44195874,349.3632786980288,0.20208092321216464,0.24581102069699712,1.7353017101937205,345.75553483138486,-1.6806206151611953,0.425796630302777,0.3990950902,0.24503012760723836,0.20057718106356903,0.33545596723070703,0.9420558869033784,-1.4404025237019875,0.18012901192954506,,,,,,,,,,,-0.02226503420488124,0.0,0.02226503420488124,0.14022900000003347,-0.07707123949284118,-0.0038449999999556894,-22.999776529829845,-103.47016032291312,105.99558385928849,False,,
2022-11-15 10:32:09.422735-07:00,5.795371,1.85,0.56,-1.76,0.16,10.52,971.67,63.46,34.0,0.0,-1.88925e-05,-0.000332843,-0.000401955,32.8213682,-111.787048,362.385278,7.58080985,-0.541271109,-1.44388683,2.06016,16.8987,5645.39,27.154,11414.0,-0.424204,-1.0,15.0,-1225.0,80.0,,0.0,,2022-11-15 17:32:09.422735+00:00,1.193274157184182,0.014886064882884987,1.8472678355463539,-1.8188277188587496,0.3228996521447306,0.159598045,349.9330675600462,0.20446926161667356,0.24744497709587357,1.8745883669510035,349.2555704094172,-1.8404418882966556,0.35016776822805207,0.20625968160000002,0.2478675014940032,0.20496762716093997,0.9983929768016195,-0.056669779187860043,0.4539024759190441,0.24707236081343997,,,,,,,,,,,-0.04453006768626596,0.0,0.04453006768626596,0.13803100000001223,0.02226503348138472,-0.0021980000000212385,-23.02204156331123,-103.47016032291312,106.0004173340472,False,,
2022-11-15 10:32:10.422254-07:00,6.79489,1.86,0.35,-1.82,0.05,10.29,971.68,64.59,33.0,0.0,-0.000137956,-0.000333925,-0.000109254,32.8213682,-111.787048,362.37804600000004,7.5892986,-0.548434704,-1.4445421,2.0598,16.6469,5643.94,27.1571,11453.0,-0.396485,-1.0,12.0,-1243.0,80.0,,0.0,,2022-11-15 17:32:10.422254+00:00,1.1942547411131779,0.014902055894910959,1.853673768243736,-1.8506160735918404,0.10642644050447347,0.049890746,356.7086220783258,0.20609720067936696,0.24805645977717694,1.9135232682099328,361.83956184336506,-1.8981655228766698,-0.06342858066870323,0.08092649160000001,0.24896897236077029,0.20810236591029624,0.9242316798029864,-0.38183216476424564,0.6661579470219002,0.21482368835374585,,,,,,,,,,,-0.04453006763577708,0.0,0.04453006763577708,0.13079900000002453,-5.048887696812443e-11,-0.007231999999987693,-23.02204156326074,-103.47016032291312,106.00041733403623,False,,
2022-11-15 10:32:11.422439-07:00,7.795075,1.64,0.62,-1.5,0.22,10.56,971.69,63.27,28.0,0.0,0.000150736,-0.000647121,0.000579445,32.8213683,-111.787048,362.38292800000005,7.59122158,-0.54412177,-1.44815076,2.06015,16.758,5650.55,27.1587,11447.0,-0.401975,-1.0,15.0,-1259.0,80.0,,0.0,,2022-11-15 17:32:11.422439+00:00,1.1931304764506054,0.014883393693278133,1.623747619056504,-1.5694056126930545,0.4165601436037829,0.220579445,345.13499998209824,0.1977938630534162,0.2431630039138032,1.5619491838797837,342.18754326597013,-1.46380509327384,0.4910567534394635,0.297291975,0.24154652724404402,0.19519779900447679,0.9739273632426991,0.22686006948584764,0.14617468390597588,0.22933535182371823,,,,,,,,,,,-0.0333975509294328,0.0,0.0333975509294328,0.1356810000000337,-0.011132516706344284,0.004882000000009157,-23.010909046554396,-103.47016032291312,105.99800003961464,False,,
2022-11-15 10:32:12.422001-07:00,8.794637,0.84,0.55,-0.56,0.3,11.47,971.67,59.49,28.0,0.0,0.000310548,-0.000428139,-9.0278e-05,32.8213683,-111.787048,362.379022,7.59331504,-0.548362729,-1.44795113,2.05881,17.1791,5639.55,27.1618,11370.0,-0.427729,-1.0,16.0,-1233.0,80.0,,0.0,,2022-11-15 17:32:12.422001+00:00,1.1892912661388408,0.014820578827425908,0.7854492151011288,-0.6281948859431133,0.4714887642117232,0.299909722,323.11010918845193,0.18168880079635816,0.23230107006087666,0.9399144998661075,337.9306290124468,-0.8258597659221346,0.3218920826384682,0.2778154192,0.2339906751605553,0.18449026649197536,0.8094781434679528,0.5871500108555534,-0.22433896507512607,0.1659919703125889,,,,,,,,,,,-0.033397550908981034,0.0,0.033397550908981034,0.13177500000000464,-2.0451765281315204e-11,-0.003906000000029053,-23.010909046533943,-103.47016032291312,105.99800003961019,False,,
2022-11-15 10:32:13.421950-07:00,9.794586,1.57,0.63,-1.41,0.31,10.68,971.67,61.46,33.0,0.0,3.11427e-05,0.00038662,-0.000982675,32.8213683,-111.787048,362.37890000000004,7.59733014,-0.553482149,-1.44718356,2.06092,16.72,5646.37,27.1645,11398.0,-0.375553,-1.0,16.0,-1235.0,80.0,,0.0,,2022-11-15 17:32:13.421950+00:00,1.1926014873989252,0.014874994995146934,1.5439826203794424,-1.4805284068841258,0.438084430724172,0.309017325,343.5166541154832,0.19567569872973312,0.24179897224120397,1.457222439892203,337.8454200532841,-1.342445658967081,0.5513064072345287,0.3854998814,0.23984133491132936,0.19247506279936438,0.9967714559425611,-0.08029112415545639,0.6573129612857032,0.23829838877244564,,,,,,,,,,,-0.03339755090834224,0.0,0.03339755090834224,0.13165300000002844,-6.387945727936994e-13,-0.0001219999999761967,-23.010909046533307,-103.47016032291312,105.99800003961005,False,,
2022-11-15 10:32:14.421764-07:00,10.7944,1.79,1.23,-1.25,0.34,10.6,971.67,64.14,34.0,0.0,-0.000231397,-0.000115196,-0.00229715,32.8213683,-111.787048,362.37941900000004,7.59950714,-0.55669087,-1.45020677,2.06189,17.448,5655.62,27.1669,11434.0,-0.296511,-1.0,12.0,-1249.0,80.0,,0.0,,2022-11-15 17:32:14.421764+00:00,1.192937727465857,0.014880527872290071,1.7536348740707066,-1.4018009158179356,1.0536552870692482,0.33770285,323.06986455139105,0.19220681197744016,0.24062150818014733,1.6526200665900739,324.8222183293894,-1.3478620285126646,0.951991706449672,0.3327260592,0.23988331494461185,0.1914395578221722,0.4456577057522939,-0.8952034457616893,1.6308731721274499,0.16064511726925784,,,,,,,,,,,-0.03339755091105972,0.0,0.03339755091105972,0.1321720000000255,2.717479019587188e-12,0.0005189999999970496,-23.01090904653602,-103.47016032291312,105.99800003961064,False,,
2022-11-15 10:32:15.422336-07:00,11.794972,1.44,0.87,-0.92,0.68,11.23,971.67,61.31,29.0,0.0,0.000262056,-0.00027864,-0.00148868,32.8213682,-111.787048,362.38344700000005,7.60587569,-0.546553313,-1.45291667,2.0587,16.7204,5679.4,27.1695,11434.0,-0.208963,-1.0,12.0,-1249.0,80.0,,0.0,,2022-11-15 17:32:15.422336+00:00,1.1902949580435929,0.014837067999199302,1.2665941140501642,-1.0273359481580988,0.7408383760096532,0.67851132,324.20365712007225,0.18621419701274844,0.23586564123763573,1.3363762111003339,330.43076420673543,-1.1611524768402632,0.6561571264107371,0.5847728383999999,0.23747672748527932,0.1886994681378481,0.7284522989293133,0.6850965247208588,-0.3175223593615284,0.15402614194863146,,,,,,,,,,,-0.04453006767348317,0.0,0.04453006767348317,0.13620000000003074,0.011132516762423453,0.00402800000000525,-23.022041563298448,-103.47016032291312,106.00041733404443,False,,
2022-11-15 10:32:16.421844-07:00,12.79448,1.33,0.63,-1.03,0.55,11.48,971.68,59.16,28.0,0.0,-0.000293261,0.000202074,-0.000941312,32.8213681,-111.787048,362.386957,7.61910051,-0.547451374,-1.44852409,2.05882,17.296,5674.36,27.1717,11457.0,-0.279515,-1.0,12.0,-1249.0,80.0,,0.0,,2022-11-15 17:32:16.421844+00:00,1.189261721607417,0.014819941070618936,1.2070905610468767,-1.1042341605274626,0.4875802921495839,0.549058688,336.17589672790706,0.18797884563686823,0.23677573705721386,1.3343214332840645,338.8518145881186,-1.239786024054212,0.475874943133903,0.5064232516,0.23851218854341605,0.1905883264858959,0.5673999773615759,0.8234423268754668,-0.7508808565137661,0.1503217393745535,,,,,,,,,,,-0.05566258515359818,0.0,0.05566258515359818,0.13970999999997957,0.011132517480115012,0.003509999999948832,-23.03317408077856,-103.47016032291312,106.00283574265734,False,,
2022-11-15 10:32:17.422238-07:00,13.794874,1.35,0.63,-1.05,0.57,11.2,971.68,60.21,30.0,0.0,0.000193276,8.6675e-05,-0.00120846,32.8213681,-111.787048,362.38259300000004,7.61573447,-0.543667364,-1.45136828,2.05792,16.5227,5655.92,27.1754,11431.0,-0.166107,-1.0,13.0,-1259.0,80.0,,0.0,,2022-11-15 17:32:17.422238+00:00,1.1904327899459086,0.0148391803581304,1.2244969368651426,-1.1241444794485063,0.48548114043448076,0.56879154,336.64206753903903,0.18833906453610344,0.23699895712855806,1.3598908146165127,338.82859037579766,-1.265258383321908,0.48465274816842924,0.5027521198,0.23883728666113924,0.1910481501659573,0.4091896899905112,-0.9124493397474017,1.3527990842480286,0.16400979325697787,,,,,,,,,,,-0.0556625851155151,0.0,0.0556625851155151,0.13534600000002683,-3.808308529640314e-11,-0.004363999999952739,-23.03317408074048,-103.47016032291312,106.00283574264907,False,,
2022-11-15 10:32:18.422388-07:00,14.795024,1.42,0.61,-1.23,0.34,10.7,971.68,62.17,34.0,0.0,0.000194254,3.74875e-05,0.000972236,32.8213682,-111.787048,362.38833,7.61810138,-0.541736268,-1.45060722,2.05761,16.4578,5651.38,27.1778,11395.0,-0.0944741,-1.0,14.0,-1244.0,80.0,,0.0,,2022-11-15 17:32:18.422388+00:00,1.1925297298612618,0.01487366127269126,1.3729800139210708,-1.2999735899660443,0.44174968479615095,0.34097223600000004,341.23150189184,0.19174009987161655,0.23924261151662388,1.3921692809278254,349.23479006353716,-1.333034902369198,0.23571149190240082,0.2679199848,0.23978263318133036,0.19319255085644943,0.1894857089909926,-0.9818834788752588,1.3535489065608601,0.18645487438271977,,,,,,,,,,,-0.04453006770757295,0.0,0.04453006770757295,0.14108299999998053,-0.011132517407942147,0.005736999999953696,-23.022041563332536,-103.47016032291312,106.00041733405183,False,,
2022-11-15 10:32:19.422822-07:00,15.795458,1.38,0.59,-1.19,0.38,10.71,971.66,62.02,31.0,0.0,-7.42746e-05,-0.000467991,-0.00011884,32.8213682,-111.787048,362.38320300000004,7.62102442,-0.544692305,-1.45260494,2.05624,16.872,5652.77,27.1803,11395.0,0.0522977,-1.0,14.0,-1244.0,80.0,,0.0,,2022-11-15 17:32:19.422822+00:00,1.192463173803124,0.014872872384406089,1.3286512015082168,-1.2582025136912358,0.4268962986607913,0.37988116,341.2584079964772,0.19093213262627223,0.2386852180344259,1.3110614425429254,345.7786634645719,-1.2634156135915449,0.3173918398241549,0.3244452784,0.2387736609032755,0.19138224970457032,0.9876386930547445,-0.15674760598208887,0.5115058346610357,0.23295449939553678,,,,,,,,,,,-0.04453006767177973,0.0,0.04453006767177973,0.1359560000000215,-3.579322255253814e-11,-0.0051269999999590254,-23.022041563296742,-103.47016032291312,106.00041733404406,False,,
2022-11-15 10:32:20.422114-07:00,16.79475,1.3,0.11,-1.29,0.11,10.35,971.68,63.57,28.0,0.0,-0.000238225,-1.0134e-05,0.0004323,32.8213682,-111.787048,362.388147,7.6217754,-0.545659987,-1.44735458,2.05774,17.3044,5649.3,27.183,11429.0,0.0739196,-1.0,13.0,-1243.0,80.0,,0.0,,2022-11-15 17:32:20.422114+00:00,1.1940019887870161,0.014897893788660925,1.2947029929025076,-1.2932028879562032,-0.062306744518117956,0.1104323,362.7583877635348,0.192969347704626,0.23916055989472837,1.2714826965015293,356.02760878007444,-1.2442745338059096,0.0834956051546382,0.16235511070000003,0.238512597713409,0.19160893520955438,0.04250117782324935,-0.9990964167104377,1.2466988896916718,0.19126330763698243,,,,,,,,,,,-0.04453006770629536,0.0,0.04453006770629536,0.1408999999999878,3.451563340695074e-11,0.004943999999966309,-23.022041563331257,-103.47016032291312,106.00041733405155,False,,
2022-11-15 10:32:21.421954-07:00,17.79459,1.32,-0.17,-1.31,-0.06,9.86,971.67,67.02,30.0,0.0,1.57873e-05,-0.000383125,-8.63269e-05,32.8213682,-111.787048,362.382898,7.62704216,-0.551004606,-1.4501613,2.05984,17.0827,5648.88,27.1858,11454.0,0.149542,-1.0,12.0,-1244.0,80.0,,0.0,,2022-11-15 17:32:21.421954+00:00,1.1960569597132147,0.014931903525934763,1.3213504285459248,-1.2762304510004086,-0.3423489315855869,-0.0600863269,375.01608400509303,0.19337790769878843,0.238942389579206,1.3516879174088774,373.673166594238,-1.3118541968772122,-0.3170105608408276,-0.05389672018,0.23944183187923102,0.19408804881297348,0.999152085418485,0.04117171606688818,-0.3707530514787806,0.2390361779990852,,,,,,,,,,,-0.04453006766965043,0.0,0.04453006766965043,0.13565099999999575,-3.664493014587933e-11,-0.005248999999992066,-23.022041563294614,-103.47016032291312,106.00041733404359,False,,
2022-11-15 10:32:22.422607-07:00,18.795243,1.18,0.73,-0.85,0.37,10.62,971.68,63.36,34.0,0.0,-4.87421e-05,-8.45061e-05,-0.000366559,32.8213683,-111.787048,362.38884900000005,7.62910254,-0.550842537,-1.45159204,2.0588,16.8131,5641.44,27.1882,11437.0,0.238111,-1.0,14.0,-1271.0,80.0,,0.0,,2022-11-15 17:32:22.422607+00:00,1.1928659260003494,0.014879193154103486,1.1204906269797206,-0.939475193471126,0.6106435998205479,0.369633441,326.97678737601865,0.18508058972373348,0.23501683375768492,1.1543292823850344,337.60890151009596,-1.023340547370719,0.4519373096868716,0.3075933763,0.2360050277139713,0.18682768633300645,0.8662362485694999,-0.49963462816766374,0.9027808536062105,0.18312843582552113,,,,,,,,,,,-0.033397550960435084,0.0,0.033397550960435084,0.14160200000003442,-0.011132516709215348,0.005951000000038675,-23.010909046585397,-103.47016032291312,105.99800003962136,False,,
2022-11-15 10:32:23.422087-07:00,19.794723,1.29,0.75,-1.0,0.33,10.93,971.67,62.13,32.0,0.0,-0.000159965,-3.46131e-05,-0.000749292,32.8213683,-111.787048,362.385217,7.62819068,-0.55263842,-1.45274575,2.05854,17.2742,5646.41,27.1915,11397.0,0.205341,-1.0,15.0,-1254.0,80.0,,0.0,,2022-11-15 17:32:23.422087+00:00,1.191551957788077,0.014857731345980962,1.2499520699402322,-1.0907430147733181,0.6104587233147579,0.329250708,330.76546621187094,0.18743612244597307,0.23664247022237575,1.2423184828597575,329.1336511400895,-1.0639652698500104,0.6342752175862291,0.4128760518,0.2363785619552979,0.1870099238989637,0.21148498022046947,-0.9773812475902879,1.174039384684298,0.17895829623813525,,,,,,,,,,,-0.03339755094141797,0.0,0.03339755094141797,0.1379699999999957,-1.9017114272212865e-11,-0.0036320000000387154,-23.010909046566383,-103.47016032291312,105.99800003961724,False,,
2022-11-15 10:32:24.422030-07:00,20.794666,1.24,0.57,-0.98,0.51,11.36,971.66,60.25,28.0,0.0,-0.000319592,0.000178006,0.000950061,32.8213683,-111.787048,362.39101600000004,7.63386713,-0.549038848,-1.45300549,2.06002,16.93,5640.82,27.1935,11381.0,0.201476,-1.0,17.0,-1238.0,80.0,,0.0,,2022-11-15 17:32:24.422030+00:00,1.1897388370031097,0.01482808324578994,1.1334237881542033,-1.0468565339923837,0.4344431847679024,0.510950061,337.4616562650133,0.18708303489905137,0.2361649768281731,1.2835029685123405,341.7253236161076,-1.202205133996984,0.3873916049330387,0.4443341914,0.238104065370278,0.19012692202558895,0.4865928454418568,0.8736288701529942,-0.861779129561259,0.1556767362016114,,,,,,,,,,,-0.033397550971781466,0.0,0.033397550971781466,0.14376900000002024,3.036349643936731e-11,0.0057990000000245345,-23.010909046596744,-103.47016032291312,105.99800003962382,False,,
2022-11-15 10:32:25.422469-07:00,21.795105,1.71,0.79,-1.37,0.66,11.5,971.66,59.69,28.0,0.0,0.000310739,-0.00035901,-0.000971035,32.8213683,-111.787048,362.376184,7.63633912,-0.542149731,-1.46490647,2.05677,17.5862,5639.85,27.1962,11381.0,0.0513202,-1.0,17.0,-1238.0,80.0,,0.0,,2022-11-15 17:32:25.422469+00:00,1.1891536852828202,0.014818471784493675,1.5819051924678447,-1.463188282060569,0.6012521011999616,0.6590289650000001,337.66130017166086,0.19465797520088268,0.24163235782672846,1.6094356264643501,341.3617334408792,-1.503840734496331,0.5270039943812687,0.5316366180000001,0.24236717105119907,0.19591760451815682,0.7561089969900096,0.6544457079626711,-0.5857096525492049,0.1619889087705067,,,,,,,,,,,-0.033397550894121296,0.0,0.033397550894121296,0.12893700000000763,-7.766016996146874e-11,-0.014832000000012613,-23.010909046519085,-103.47016032291312,105.99800003960696,False,,
2022-11-15 10:32:26.421849-07:00,22.794485,1.86,0.92,-1.55,0.45,10.75,971.67,62.69,33.0,0.0,0.000798528,-0.000677506,0.000583361,32.8213684,-111.787048,362.384607,7.63836425,-0.539711014,-1.46404462,2.05963,17.1832,5641.24,27.199,11410.0,0.141302,-1.0,14.0,-1243.0,80.0,,0.0,,2022-11-15 17:32:26.421849+00:00,1.1923074327877314,0.0148701571148332,1.8034066783806488,-1.6592104425456002,0.7066090538448814,0.450583361,336.9322678504094,0.19887064624378817,0.24477761158042177,1.6848067723409805,334.4897293120507,-1.513499310011813,0.7198288212526418,0.61192113132,0.2424808169622504,0.19553469685496558,0.6469591766979501,0.7625246380847708,-0.6883806520472431,0.15240264313897456,,,,,,,,,,,-0.022265034194866543,0.0,0.022265034194866543,0.13736000000000104,-0.011132516699254753,0.008422999999993408,-22.99977652981983,-103.47016032291312,105.9955838592863,False,,
2022-11-15 10:32:27.422616-07:00,23.795252,1.97,0.85,-1.75,0.25,10.47,971.67,63.84,34.0,0.0,0.000509443,4.97813e-05,-0.00122738,32.8213684,-111.787048,362.37804600000004,7.64683261,-0.541318157,-1.44979769,2.05828,17.5158,5651.0,27.2018,11447.0,0.126888,-1.0,14.0,-1259.0,80.0,,0.0,,2022-11-15 17:32:27.422616+00:00,1.1934845221367918,0.014889527615526147,1.9456200561081067,-1.8474942190346462,0.6100840215606987,0.24877262,341.72561832563815,0.2040221933116417,0.2481616474226113,1.9180962069428085,337.7660451679675,-1.772216703720685,0.7249252395692601,0.342409972,0.24682140970206548,0.20166688061992416,0.09725389676538862,-0.9952596041053545,1.8343174993456388,0.1997730914951846,,,,,,,,,,,-0.02226503417196433,0.0,0.02226503417196433,0.13079900000002453,-2.2902211377351378e-11,-0.006560999999976502,-22.99977652979693,-103.47016032291312,105.99558385928134,False,,
2022-11-15 10:32:28.421877-07:00,24.794513,1.63,0.81,-1.38,0.33,10.77,971.66,62.42,29.0,0.0,0.000606562,0.000365087,-0.000835159,32.8213684,-111.787048,362.35213600000003,7.65898869,-0.549197301,-1.44364685,2.05882,17.2279,5659.67,27.2045,11406.0,0.144457,-1.0,17.0,-1247.0,80.0,,0.0,,2022-11-15 17:32:28.421877+00:00,1.1922111739777217,0.014868726624647645,1.6000543019099527,-1.4752779535929588,0.6194584156366898,0.32916484100000004,337.22282135436717,0.1948119944550804,0.24189012627832956,1.6687326590285068,338.6207069036297,-1.5507499907048212,0.6112007343312091,0.3022614502,0.24309929678619618,0.1965812973454711,0.51568945156843,-0.8567755771151813,1.6438344897329682,0.1581230951308568,,,,,,,,,,,-0.02226503408152137,0.0,0.02226503408152137,0.10488900000001422,-9.044296214733016e-11,-0.025910000000010314,-22.999776529706484,-103.47016032291312,105.99558385926171,False,,
2022-11-15 10:32:29.422421-07:00,25.795057,1.44,0.55,-1.3,0.3,10.6,971.66,63.13,28.0,0.0,5.25694e-05,0.000296074,8.73526e-05,32.8213685,-111.787048,362.32927900000004,7.66658342,-0.555104143,-1.43487881,2.05594,17.0789,5654.51,27.2069,11378.0,0.0486505,-1.0,16.0,-1212.0,80.0,,0.0,,2022-11-15 17:32:29.422421+00:00,1.1929254502757876,0.014880478974960112,1.411287641002204,-1.3614579602921344,0.3717055662789388,0.30008735259999997,344.7292592648413,0.19304136372732766,0.24023569574368453,1.4805149278732874,340.1508298360539,-1.3910998540016595,0.5027746777616674,0.33755195332,0.24068003273767538,0.19332962501491452,0.984600296097949,-0.17482064215598564,0.7382250663743566,0.23339910885557894,,,,,,,,,,,-0.011132517354943479,0.0,0.011132517354943479,0.08203200000002653,-0.01113251672657789,-0.022856999999987693,-22.988644012979908,-103.47016032291312,105.99316879311073,False,,
2022-11-15 10:32:30.422561-07:00,26.795197,1.37,0.78,-1.07,0.35,10.64,971.66,61.6,30.0,0.0,-0.000179022,3.78339e-05,-0.000383812,32.8213685,-111.787048,362.30385700000005,7.66535459,-0.556379456,-1.43927372,2.05782,16.9846,5634.36,27.2093,11415.0,0.0485014,-1.0,14.0,-1216.0,80.0,,0.0,,2022-11-15 17:32:30.422561+00:00,1.1927573082763834,0.014877712038461905,1.3240038680307697,-1.16444249616506,0.6301269044290396,0.349616188,331.58038832783717,0.1885295748051237,0.23762498979705216,1.349708407568616,331.52907906098454,-1.1863975190089602,0.6433124432686694,0.351197995,0.23790131148563742,0.1888915524511297,0.20676954298339767,0.9783896749733395,-1.0277416631221572,0.18110159524524752,,,,,,,,,,,-0.011132517310573718,0.0,0.011132517310573718,0.05661000000003469,-4.436976133725956e-11,-0.02542199999999184,-22.988644012935538,-103.47016032291312,105.9931687931011,False,,
2022-11-15 10:32:31.421847-07:00,27.794483,1.44,0.8,-1.14,0.38,10.6,971.68,61.67,34.0,0.0,-0.000109279,-0.000247704,0.000996807,32.8213686,-111.787048,362.28826300000003,7.66968187,-0.545741476,-1.43808905,2.05964,17.4749,5617.61,27.2115,11455.0,0.0697864,-1.0,14.0,-1238.0,80.0,,0.0,,2022-11-15 17:32:31.421847+00:00,1.1929500046559263,0.014880576769962586,1.3928649076780943,-1.2368186477072483,0.6405874520506316,0.380996807,332.61893371264625,0.18980792869083576,0.23854600358654635,1.3749551617635771,331.47391167819035,-1.2080255448039303,0.6545415140031695,0.3754483764,0.2382217669169982,0.18930690219593266,0.9149207703401603,-0.40363347730356525,1.0864531775321389,0.2017816663841691,,,,,,,,,,,0.0,0.0,0.0,0.041016000000013264,-0.011132517310573718,-0.015594000000021424,-22.977511495624963,-103.47016032291312,105.99075484107527,False,,
2022-11-15 10:32:32.422529-07:00,28.795165,1.59,0.72,-1.39,0.28,10.75,971.67,60.97,32.0,0.0,-2.7897e-06,-0.000339689,-0.00135575,32.8213686,-111.787048,362.271204,7.68133336,-0.551106133,-1.44077897,2.05764,16.9441,5607.26,27.2146,11437.0,0.0773998,-1.0,15.0,-1253.0,80.0,,0.0,,2022-11-15 17:32:32.422529+00:00,1.1923074327877314,0.0148701571148332,1.5657261619754055,-1.474104531251932,0.5277444885896538,0.27864425000000004,340.30211353419094,0.19496872346861566,0.2419236898833882,1.5912351077681213,335.01916377002937,-1.4386442426114692,0.6716442726314459,0.3236691946,0.24139237871120942,0.19378953277097877,0.9999662790287859,-0.008212235099191478,0.683436108878686,0.24137609936860957,,,,,,,,,,,0.0,0.0,0.0,0.023956999999995787,0.0,-0.017059000000017477,-22.977511495624963,-103.47016032291312,105.99075484107527,False,,
2022-11-15 10:32:33.422348-07:00,29.794984,1.81,0.99,-1.46,0.39,11.12,971.67,59.42,28.0,0.0,6.15302e-05,0.000541445,0.0011192,32.8213686,-111.787048,362.26857900000005,7.67780062,-0.545007186,-1.4430188,2.05752,16.8475,5598.95,27.2169,11387.0,-0.00291223,-1.0,18.0,-1220.0,80.0,,0.0,,2022-11-15 17:32:33.422348+00:00,1.1907555498942446,0.014844637855652168,1.7635438625438637,-1.5786359058418917,0.7861269820473537,0.3911192,333.5276754344311,0.19659045930384086,0.24357105944740853,1.7456139850116237,331.96695238892255,-1.5371222706712941,0.8219319689849518,0.3947551814,0.24291593490552757,0.19552743746831197,0.9936047691017968,-0.11291396201606324,0.9902380899453016,0.23983181923216798,,,,,,,,,,,0.0,0.0,0.0,0.02133200000002944,0.0,-0.0026249999999663487,-22.977511495624963,-103.47016032291312,105.99075484107527,False,,
2022-11-15 10:32:34.422522-07:00,30.795158,1.67,0.73,-1.47,0.34,10.65,971.67,61.33,29.0,0.0,-0.000106838,0.000183844,-0.000584916,32.8213686,-111.787048,362.260461,7.67960928,-0.545754798,-1.44826286,2.05616,17.2361,5595.14,27.2211,11387.0,-0.0488516,-1.0,18.0,-1220.0,80.0,,0.0,,2022-11-15 17:32:34.422522+00:00,1.1927275552094325,0.014877069339972347,1.6410715746678566,-1.5541839178681316,0.526904415072509,0.33941508400000003,341.27214856844864,0.19682060268623602,0.24317676960597193,1.7189761097988197,337.4022752222253,-1.5843456221361816,0.6620958162340737,0.33128589360000005,0.2436675909256397,0.19710701082425863,0.8646053538210997,0.5024515719389193,-0.22360536087833838,0.18882656886887497,,,,,,,,,,,0.0,0.0,0.0,0.013214000000004944,0.0,-0.008118000000024495,-22.977511495624963,-103.47016032291312,105.99075484107527,False,,
2022-11-15 10:32:35.422277-07:00,31.794913,1.81,1.08,-1.4,0.36,10.66,971.67,62.53,33.0,0.0,0.000157085,-0.000551397,-0.000609479,32.8213687,-111.787048,362.25423600000005,7.68508877,-0.545971273,-1.43989172,2.05821,17.0221,5598.65,27.2264,11442.0,-0.0447094,-1.0,12.0,-1235.0,80.0,,0.0,,2022-11-15 17:32:35.422277+00:00,1.1926855296446104,0.014876377827167669,1.7687190514286346,-1.5324031871377217,0.8832369755262522,0.35939052099999996,330.04198045141527,0.1951834909290019,0.24283450240439364,1.7989913859788644,330.59601045175793,-1.5658576899770469,0.8806302281455075,0.37954494469999994,0.24339985172417444,0.19601102835380974,0.9617342170783226,0.27398411578182,0.4179120883724999,0.22560881236126934,,,,,,,,,,,0.011132516515817165,0.0,0.011132516515817165,0.0069890000000327746,0.011132516515817165,-0.0062249999999721695,-22.966378979109145,-103.47016032291312,105.98834200354966,False,,
2022-11-15 10:32:36.421888-07:00,32.794524,1.57,1.05,-1.12,0.35,10.71,971.67,60.76,35.0,0.0,0.000153746,0.000143058,0.00113794,32.8213687,-111.787048,362.259088,7.68642202,-0.546033268,-1.43701733,2.05631,17.127,5609.23,27.2294,11451.0,-0.0218679,-1.0,14.0,-1266.0,80.0,,0.0,,2022-11-15 17:32:36.421888+00:00,1.1924754462355984,0.014872921230955682,1.5351925594169795,-1.2502325617819154,0.8909179176273679,0.35113794,324.52626100347607,0.18937630567335254,0.23877303813850734,1.5595729849243658,325.0297710028336,-1.2709577043877403,0.8961798562665295,0.34851496812,0.23907332302472697,0.18978738258085534,0.6812021280150407,-0.7320953904975637,1.540941902072603,0.15051305858118308,,,,,,,,,,,0.011132516524285502,0.0,0.011132516524285502,0.011841000000003987,8.468337142630844e-12,0.004851999999971213,-22.96637897910068,-103.47016032291312,105.98834200354783,False,,
2022-11-15 10:32:37.422649-07:00,33.795285,1.38,0.74,-1.14,0.24,10.71,971.67,60.9,29.0,0.0,4.01437e-05,0.000289615,-0.000846435,32.8213687,-111.787048,362.248529,7.69106602,-0.542487362,-1.43828388,2.05656,18.0728,5616.64,27.2319,11410.0,-0.154233,-1.0,14.0,-1256.0,80.0,,0.0,,2022-11-15 17:32:37.422649+00:00,1.1924754462355984,0.014872921230955682,1.3588726828185944,-1.228490466118389,0.5808150676134592,0.23915356499999998,334.6957959586726,0.1897382330272387,0.2385057003384739,1.3935448729826638,334.9622872590659,-1.2600954060311627,0.590950483608777,0.263306472,0.23892934431432344,0.19033841213610683,0.9905298010572173,-0.13729789953801003,0.7583625174292428,0.23445281247213048,,,,,,,,,,,0.011132516505856572,0.0,0.011132516505856572,0.001282000000003336,-1.842893025683079e-11,-0.010559000000000651,-22.966378979119106,-103.47016032291312,105.98834200355184,False,,
2022-11-15 10:32:38.422036-07:00,34.794672,1.65,1.02,-1.26,0.28,10.52,971.68,61.6,28.0,0.0,0.000136102,-0.000478219,-0.00192971,32.8213687,-111.787048,362.24300500000004,7.69417797,-0.54840817,-1.4435781,2.05677,17.2915,5619.71,27.2345,11378.0,-0.182263,-1.0,15.0,-1219.0,80.0,,0.0,,2022-11-15 17:32:38.422036+00:00,1.1932864378366381,0.014886113817532402,1.6215900690956453,-1.3856973959754564,0.8422571335266084,0.27807029000000005,328.70785226604295,0.19211404762913645,0.24064805772124362,1.5810649172490192,327.19215180557524,-1.3266910256254125,0.8561523631549838,0.2970309056,0.23982841826463241,0.19091030152516472,0.9618060728375518,0.2737317633246203,0.4602950683252912,0.22231897998978925,,,,,,,,,,,0.011132516496215373,0.0,0.011132516496215373,-0.004241999999976542,-9.641199297250047e-12,-0.005523999999979878,-22.96637897912875,-103.47016032291312,105.98834200355391,False,,
2022-11-15 10:32:39.422537-07:00,35.795173,1.69,1.08,-1.27,0.32,10.41,971.67,61.97,31.0,0.0,0.000872897,0.000547095,0.000595757,32.8213687,-111.787048,362.245355,7.69863551,-0.541757431,-1.44254705,2.05638,17.2708,5620.31,27.2374,11416.0,-0.182039,-1.0,12.0,-1218.0,80.0,,0.0,,2022-11-15 17:32:39.422537+00:00,1.1937370580069013,0.014893685029878596,1.6671343991941787,-1.4026852127656741,0.9010057152233,0.320595757,327.2856028006037,0.1923082046856264,0.24092127381959053,1.5726461200304513,326.9576918258047,-1.3165435936309486,0.8579827834107687,0.25617612188600003,0.23971498619255968,0.19071778365505465,0.5310695682617673,-0.8473282207422694,1.5711930870829316,0.15270989886928577,,,,,,,,,,,0.011132516500316896,0.0,0.011132516500316896,-0.0018919999999980064,4.1015229407248555e-12,0.002349999999978536,-22.966378979124645,-103.47016032291312,105.98834200355303,False,,
2022-11-15 10:32:40.422153-07:00,36.794789,1.48,0.95,-1.09,0.3,10.45,971.67,62.92,35.0,0.0,-0.000772236,-0.000334119,0.000230904,32.8213688,-111.787048,362.25426600000003,7.69602171,-0.555199413,-1.44790715,2.05538,17.3138,5624.23,27.2398,11450.0,-0.169721,-1.0,11.0,-1244.0,80.0,,0.0,,2022-11-15 17:32:40.422153+00:00,1.1935686888872954,0.014890913161417996,1.4457451210702517,-1.2077374526732554,0.7947006986965299,0.30023090399999997,326.65477058061487,0.18879017741610638,0.23824660820769966,1.5189588254361917,323.68038562274774,-1.2217490507971316,0.9002323406823225,0.32961703511999996,0.238426763309242,0.18879684219681053,0.39709047338892595,-0.9177794702126207,1.478769882894928,0.1634107046536012,,,,,,,,,,,0.022265033739890618,0.0,0.022265033739890618,0.007019000000013875,0.011132517239573722,0.008911000000011882,-22.95524646188507,-103.47016032291312,105.98593028027462,False,,
2022-11-15 10:32:41.421945-07:00,37.794581,1.46,1.04,-0.98,0.31,10.5,971.66,61.46,31.0,0.0,3.37409e-05,0.000108239,0.00025312,32.8213688,-111.787048,362.249414,7.69986909,-0.554166455,-1.44613415,2.05911,16.9113,5626.32,27.2424,11445.0,-0.140396,-1.0,12.0,-1254.0,80.0,,0.0,,2022-11-15 17:32:41.421945+00:00,1.1933460127472406,0.014887400838359115,1.428922776126574,-1.1103988747858529,0.8993523441941913,0.31025312,320.9947317065328,0.18685962962346003,0.23707621897136344,1.4575326691721986,321.9675032918635,-1.1469074330075162,0.898335634584614,0.3419487412,0.23751507176890457,0.18746986177689123,0.9546901385567607,-0.29760164539611195,1.1989537106321284,0.21711493685891742,,,,,,,,,,,0.02226503372295394,0.0,0.02226503372295394,0.002166999999985819,-1.693667775470864e-11,-0.004852000000028056,-22.95524646190201,-103.47016032291312,105.98593028027828,False,,
2022-11-15 10:32:42.422410-07:00,38.795046,1.53,1.13,-0.97,0.32,10.5,971.67,61.37,28.0,0.0,-0.000524031,0.000167822,0.000362135,32.8213688,-111.787048,362.245813,7.70166635,-0.55472106,-1.44894439,2.06125,17.3294,5624.96,27.2445,11402.0,-0.0938768,-1.0,15.0,-1242.0,80.0,,0.0,,2022-11-15 17:32:42.422410+00:00,1.1933582942655983,0.014887449781913187,1.4887543288584129,-1.1125190587116431,0.9892880246409651,0.320362135,318.35546699237796,0.18668837264007349,0.23710687051069887,1.4948678155372386,319.3769030277014,-1.1347063710505656,0.9724558170165281,0.3280344576,0.23738656326103236,0.18711715057160425,0.3049934597764256,0.9523544453057411,-0.7840499924751702,0.1711418871222794,,,,,,,,,,,0.022265033710384078,0.0,0.022265033710384078,-0.0014340000000174769,-1.2569861818079175e-11,-0.003601000000003296,-22.95524646191458,-103.47016032291312,105.98593028028101,False,,
2022-11-15 10:32:43.422640-07:00,39.795276,1.42,1.07,-0.88,0.33,10.39,971.66,61.75,29.0,0.0,-0.000772724,-0.000254809,0.00168439,32.8213686,-111.787048,362.252496,7.70130633,-0.557737071,-1.44531095,2.05991,17.1043,5626.61,27.2477,11380.0,-0.0272875,-1.0,15.0,-1205.0,80.0,,0.0,,2022-11-15 17:32:43.422640+00:00,1.1938089740980278,0.014895022358121552,1.3850493463820333,-1.0157067303834706,0.941648304712018,0.33168439,317.1668077960327,0.18527330777530257,0.23601241427414127,1.4506377695655484,317.3159114131511,-1.065665102296632,0.9836338974027926,0.30706458160000005,0.2365811939998687,0.18596119774653536,0.31316695262172484,-0.9496980887553804,1.320101741049481,0.1693205922238618,,,,,,,,,,,0.0,0.0,0.0,0.005248999999992066,-0.022265033710384078,0.006683000000009542,-22.977511495624963,-103.47016032291312,105.99075484107527,False,,
2022-11-15 10:32:44.422806-07:00,40.795442,1.56,1.19,-0.98,0.25,10.67,971.67,61.93,33.0,0.0,7.88128e-05,-0.000606054,-0.000420228,32.8213686,-111.787048,362.246912,7.70257786,-0.552415166,-1.43947228,2.05998,17.7636,5625.36,27.2499,11422.0,-0.0271807,-1.0,13.0,-1225.0,80.0,,0.0,,2022-11-15 17:32:44.422806+00:00,1.1926435070412125,0.014875686378895461,1.5420882031950396,-1.131260299351404,1.047991489252025,0.249579772,317.18819669821346,0.1868504582184892,0.23732185392496324,1.566021825347272,317.9001213038058,-1.161418860601363,1.0496934238230486,0.2522132336,0.23770026623913343,0.18736062313561191,0.9916502239128652,0.1289567113940348,0.8911559619598295,0.23376811562551902,,,,,,,,,,,0.0,0.0,0.0,-0.0003350000000068576,0.0,-0.005583999999998923,-22.977511495624963,-103.47016032291312,105.99075484107527,False,,
2022-11-15 10:32:45.422767-07:00,41.795403,1.55,1.18,-0.97,0.28,10.72,971.66,61.48,34.0,0.0,-0.000272677,-0.000298606,-0.00016357,32.8213685,-111.787048,362.245966,7.6976398,-0.553146109,-1.43976789,2.05869,16.7437,5622.06,27.2522,11451.0,-0.0261498,-1.0,11.0,-1252.0,80.0,,0.0,,2022-11-15 17:32:45.422767+00:00,1.1924211664344762,0.014872181263277488,1.5275476323279205,-1.119613191556422,1.0391670079075253,0.27983643,317.1341195540347,0.18670203537961158,0.23717341836372643,1.5716917448774024,320.0265044186983,-1.2038737539386557,1.0075081311733012,0.1842330518,0.23831510100118303,0.18834139034624905,0.7384402524216084,-0.6743189109045595,1.5557793973229335,0.15563313246698932,,,,,,,,,,,-0.011132517209534856,0.0,0.011132517209534856,-0.0012810000000058608,0.011132517209534856,-0.0009459999999990032,-22.9886440128345,-103.47016032291312,105.99316879307919,False,,
2022-11-15 10:32:46.422000-07:00,42.794636,1.58,1.16,-1.07,0.12,10.18,971.67,63.85,29.0,1.0,-0.000204384,0.000322289,0.00049839,32.8213686,-111.787048,362.247247,7.74730032,-0.549344314,-1.44617834,2.05907,17.1238,5620.71,27.2549,11431.0,-0.035332,-1.0,11.0,-1258.0,80.0,,0.0,,2022-11-15 17:32:46.422000+00:00,1.1947061030192248,0.014909643396528473,1.5777531702339187,-1.2162839397057363,1.0049668871147315,0.12049839,320.4344361014406,0.18825777671774405,0.23850834244176108,1.4342340935632238,321.5553564824295,-1.117070357284021,0.8931573070477619,0.20818270584,0.23739495656716225,0.18672880621861263,0.8445019302965221,0.535552508840588,0.15602323746536895,0.1775751116843503,2.0610022090934117,,-0.0019322090934115188,0.005099019513592785,False,18.31680920599662,,-1.1930092059966206,0.7071067811865476,False,0.0,0.0,0.0,0.0,-0.011132517209534856,0.0012810000000058608,-22.977511495624963,-103.47016032291312,105.99075484107527,False,,
2022-11-15 10:32:47.422442-07:00,43.795078,1.54,1.11,-1.06,0.03,10.35,971.66,62.93,27.0,1.0,-0.00206988,0.00256242,-0.000648954,32.8213684,-111.787048,362.247278,7.76038472,-0.535683048,-1.47332873,2.05662,16.3059,5623.11,27.2578,11384.0,0.0391551,-1.0,15.0,-1228.0,80.0,,0.0,,2022-11-15 17:32:47.422442+00:00,1.1939774127539848,0.014897795762322075,1.53153505550018,-1.1976133833814766,0.9546317667936217,0.029351046,321.4412372533412,0.1880349620972731,0.23833707577969887,1.4700019708597092,319.1125923274479,-1.1006994020577627,0.9622147727368399,0.1584858432,0.23719720603135172,0.18634417298819728,0.777906591787159,0.6283799284303139,0.05685580293862469,0.1612977383790179,2.060931962513865,,-0.004311962513865009,0.005099019513592785,False,18.266572550556145,,-1.9606725505561435,0.7071067811865476,False,-0.022265033715497894,0.0,0.022265033715497894,3.099999997857594e-05,0.022265033715497894,3.099999997857594e-05,-22.999776529340462,-103.47016032291312,105.99558385918229,False,,
2022-11-15 10:32:48.422330-07:00,44.794966,1.46,1.26,-0.72,0.17,10.42,971.63,62.52,36.0,1.0,0.00016806,0.0203449,0.0144397,32.8213684,-111.787048,362.258478,7.91210389,-0.500771254,-1.07184299,2.05437,16.3799,5617.67,27.2602,11394.0,0.179686,-1.0,14.0,-1230.0,80.0,,0.0,,2022-11-15 17:32:48.422330+00:00,1.1936458213411443,0.014892796045416158,1.43900137364635,-0.8662447684398966,1.1490626416808583,0.1844397,307.0115735040634,0.18232369962256462,0.2353137771231318,1.353960835517843,313.7227273747763,-0.9106302327307356,0.9780653320801351,0.13815900399999997,0.23603932936474478,0.18280829234211576,0.9999658834287006,-0.008260265047705839,0.9855540109273077,0.23602322426385783,2.0608621887785024,,-0.006492188778502328,0.005099019513592785,False,18.21687228411867,,-1.8369722841186693,0.7071067811865476,False,-0.02226503375459327,0.0,0.02226503375459327,0.011231000000009317,3.90953762419155e-11,0.011200000000030741,-22.999776529379556,-103.47016032291312,105.99558385919077,False,,
2022-11-15 10:32:49.422690-07:00,45.795326,1.43,0.45,-1.34,-0.19,10.37,971.6,62.78,30.0,2.0,0.0896361,0.0941898,0.700155,32.8213687,-111.787048,362.58965500000005,9.2071196,0.519542896,0.105184792,2.0587,17.0026,5616.93,27.2628,11438.0,0.150414,-1.0,12.0,-1247.0,80.0,,0.0,,2022-11-15 17:32:49.422690+00:00,1.193819464586843,0.014896114915465995,1.339202177679319,-1.3005478951353353,0.3194333188007781,0.5101549999999999,346.2004937277979,0.1891338503533724,0.24494617124001453,1.5429751102923337,344.5281585278216,-1.418068261657274,0.30053577661597075,0.43750019999999995,0.2470111238916032,0.19313430791506858,0.7244008674971002,-0.6893789837015984,1.1952948343353078,0.15882746904280037,2.060792815534203,-0.002092815534203041,-0.002092815534203041,0.005099019513592785,True,18.167654970448204,-1.1650549704482032,-1.1650549704482032,0.7071067811865476,True,0.011132517101233745,0.0,0.011132517101233745,0.34240800000003446,-0.011132516653359525,0.33117700000002515,-22.96637897852373,-103.47016032291312,105.98834200342282,False,,
2022-11-15 10:32:50.422730-07:00,46.795366,2.72,-0.49,-2.63,-0.49,10.29,971.51,62.98,28.0,2.0,0.0308607,-0.0414913,1.00235,32.821369,-111.787047,363.33666400000004,9.09635688,-0.697675026,-0.225422971,2.05738,16.9519,5611.82,27.266,11413.0,0.159598,-1.0,15.0,-1245.0,80.0,,0.0,,2022-11-15 17:32:50.422730+00:00,1.1940458006122008,0.014901222241971813,2.7042963547727497,-2.5609493662531158,-0.8687675856780955,0.5123500000000001,378.73881345055133,0.22957040328388384,0.2661911657687019,2.350203258552426,379.1902089043508,-2.1944344317150586,-0.7784611834507689,0.7447916,0.25858233224789284,0.21673332054027053,0.8023864502467362,0.5968048126987935,-1.9342757356434248,0.1835080229655819,2.0607238970999915,-0.0033438970999912776,-0.0033438970999912776,0.005099019513592785,True,18.118957320502147,-1.167057320502149,-1.167057320502149,0.7071067811865476,True,0.04453007432819319,0.09355373492023662,0.10361094940787055,1.0894170000000258,0.0924784323066368,0.7470089999999914,-22.93298142129677,-103.37660658799288,105.88977489124338,False,,
2022-11-15 10:32:51.422100-07:00,47.794736,2.55,-1.51,-2.01,0.45,10.08,971.34,63.7,31.0,2.0,-0.0458076,-0.0181729,1.70197,32.821369,-111.787046,364.93856200000005,9.03394562,-0.541351594,-0.352787263,2.05686,17.0321,5606.85,27.2681,11377.0,0.173571,-1.0,14.0,-1216.0,80.0,,0.0,,2022-11-15 17:32:51.422100+00:00,1.194722026727131,0.014914971145094436,2.559628372385535,-1.766140220812917,-1.8526861917626318,2.15197,406.3699949232945,0.20815146084793565,0.250088429809868,2.486662615000239,394.9609605052182,-1.9900966699059304,-1.4242788009905887,1.758134,0.25407163040482705,0.21310153594795941,0.36876278802593065,-0.9295235371776996,1.3246206743570021,0.18733629695131018,2.0606554562514625,-0.0037954562514626033,-0.0037954562514626033,0.005099019513592785,True,18.070793266353476,-1.0386932663534765,-1.0386932663534765,0.7071067811865476,True,0.04453008551155088,0.187107518021169,0.1923334391511474,2.6913150000000314,0.08872248974327684,1.6018980000000056,-22.932981410113413,-103.28305280489195,105.79844343398774,False,,
2022-11-15 10:32:52.422798-07:00,48.795434,2.87,-0.67,-2.76,-0.46,10.08,971.18,63.77,26.0,2.0,-0.0328657,-0.0567525,1.33975,32.8213685,-111.787047,366.420648,8.95487286,-0.304751876,0.209224154,2.05556,17.2019,5603.62,27.2707,11414.0,0.179795,-1.0,11.0,-1226.0,80.0,,0.0,,2022-11-15 17:32:52.422798+00:00,1.1945252310384162,0.014914185154782473,2.9051955530476694,-2.678821682857793,-1.1243111637348866,0.87975,382.7679693234592,0.23473313111698857,0.26830739085536925,2.8910006678620883,384.7631072374983,-2.6009672734291285,-1.2140523417390685,1.187256,0.26674535190804316,0.2326355259755332,0.8653668435023705,-0.5011389290074598,0.25284531097232743,0.2081234864789549,2.060587355879908,-0.005027355879908324,-0.005027355879908324,0.005099019513592785,True,18.023064647010326,-0.8211646470103275,-0.8211646470103275,0.7071067811865476,True,-0.011132524495729778,0.093553780679995,0.09421381523517997,4.173401000000013,-0.09811962391596743,1.4820859999999811,-22.98864402012069,-103.37660654223312,105.90184386530532,False,,
2022-11-15 10:32:53.422106-07:00,49.794742,2.75,-1.12,-2.51,0.09,10.3,971.01,61.45,28.0,2.0,-0.0421191,-0.019208,1.68842,32.8213683,-111.787047,367.99376800000005,8.9400218,0.0138723874,0.256284146,2.05789,17.5782,5604.72,27.2735,11414.0,0.173454,-1.0,11.0,-1226.0,80.0,,0.0,,2022-11-15 17:32:53.422106+00:00,1.1933891659601823,0.014898077360934726,2.787699344405968,-2.324666905179624,-1.5385679753472232,1.7784200000000001,393.4983635117334,0.2253995713558109,0.2609000921347988,2.903255097077538,393.9234155998746,-2.3834320674493754,-1.6268209557953586,1.500626,0.2622153029957842,0.22810012101660151,0.41492970000690516,-0.9098534739463161,1.4935576153307495,0.19415044421046496,2.060519780210217,-0.002629780210217092,-0.002629780210217092,0.005099019513592785,True,17.975898696459033,-0.39769869645903455,-0.39769869645903455,0.7071067811865476,True,-0.03339758030772233,0.0935538039637755,0.09933636094856353,5.74652100000003,0.005122545713383567,1.5731200000000172,-23.010909075932684,-103.37660651894934,105.90667925997171,False,,
2022-11-15 10:32:54.421937-07:00,50.794573,2.1,-0.44,-2.02,-0.41,10.19,970.86,61.92,36.0,2.0,-0.0697521,-0.0291697,0.529398,32.8213684,-111.787047,369.242456,8.7857991,-0.358047327,-1.66387584,2.0553,17.3316,5596.23,27.2761,11448.0,0.180095,-1.0,11.0,-1257.0,80.0,,0.0,,2022-11-15 17:32:54.421937+00:00,1.1936680465207212,0.01490497388990393,2.120368376504802,-1.9582615688268856,-0.8131258697995501,0.11939800000000006,382.54961412022465,0.20905683628722324,0.2527437094933478,2.359444858353595,382.44010282568314,-2.1718208452864163,-0.8928762917706099,0.18986966,0.25724012606626234,0.21617714017804493,0.38581333541771706,-0.9225768641223647,1.659188084636504,0.18794073260595826,2.0604525986180016,-0.005152598618001658,-0.005152598618001658,0.005099019513592785,True,17.92920212576601,-0.5976021257660094,-0.5976021257660094,0.7071067811865476,True,-0.02226505813327572,0.09355382217312731,0.09616678458220008,6.9952089999999885,-0.003169576366363447,1.2486879999999587,-22.999776553758238,-103.37660650074,105.90426097722246,False,,
2022-11-15 10:32:55.422757-07:00,51.795393,1.78,-0.42,-1.66,-0.5,10.45,970.84,60.7,28.0,2.0,-0.134939,-0.622358,-0.0070833,32.8213654,-111.787048,369.29949300000004,8.93968562,0.123415613,-3.99225905,2.05177,16.8654,5594.99,27.2792,11440.0,0.251903,-1.0,12.0,-1279.0,80.0,,0.0,,2022-11-15 17:32:55.422757+00:00,1.1925491431446291,0.014886850093637341,2.340730214288216,-2.196927344472952,-0.8077921633618269,-0.5070833,380.1880610759675,0.19804913508547264,0.24693871910483564,2.2087736118489074,374.988910101434,-2.0984777717088674,-0.5723672919963226,-0.31830012800000007,0.2458104506675119,0.19552583094569045,0.9772923326995788,-0.21189548472446443,-0.1147122013362627,0.23493771921651277,2.0603857800617416,-0.008615780061741685,-0.008615780061741685,0.005099019513592785,True,17.882951939643323,-1.0175519396433224,-1.0175519396433224,0.7071067811865476,True,-0.3562409297771968,0.0,0.3562409297771968,7.052246000000025,0.2600741451949967,0.05703700000003664,-23.33375242540216,-103.47016032291312,106.06855367873791,False,,
2022-11-15 10:32:56.422603-07:00,52.795239,1.2,1.01,-0.31,0.58,10.97,970.84,58.49,38.0,2.0,-0.194333,-1.12458,-0.0731684,32.8213557,-111.78705,369.445245,8.84757934,-0.0159552434,-1.40122043,2.05404,17.3717,5588.6,27.282,11395.0,0.203225,-1.0,14.0,-1261.0,80.0,,0.0,,2022-11-15 17:32:56.422603+00:00,1.1903665246931465,0.0148509297335186,1.7571662307025018,-1.5862357981134485,0.7559690172914687,0.5068315999999999,334.51844256617676,0.1750861847494318,0.23492747328257846,1.7290085197753953,335.9251409220214,-1.569544016877103,0.6957978506449308,0.4664486,0.2351088109546362,0.17550695836704616,0.9853955058505318,-0.17028122929311526,0.9528999596294615,0.2283483799900114,2.0603194549048456,-0.006279454904845494,-0.006279454904845494,0.005099019513592785,True,17.837236517581374,-0.4655365175813735,-0.4655365175813735,0.7071067811865476,True,-1.4360962807365918,-0.18710767823499017,1.448234031778,7.197997999999984,1.0919931020008034,0.14575199999995903,-24.413607776361555,-103.65726800114811,106.49344324473627,False,,
2022-11-15 10:32:57.422565-07:00,53.795201,1.13,1.07,-0.11,0.36,10.49,970.83,60.07,31.0,2.0,-0.196058,-1.18326,-0.00147263,32.8213432,-111.787051,369.49669800000004,8.79914238,0.113859755,-0.0152014983,2.05426,16.8646,5594.5,27.2838,11414.0,0.217076,-1.0,11.0,-1223.0,80.0,,0.0,,2022-11-15 17:32:57.422565+00:00,1.1923686833420344,0.01488403187676648,1.6828897788011736,-1.455644391107455,0.8445220034024394,0.35852737,329.8789554672595,0.17448708150564132,0.23404943357107322,1.694660951248854,333.74694166474455,-1.5175541085469133,0.7511508795656558,0.376894076,0.23455967548969622,0.1749781954298835,0.9865492356324338,-0.16346438655884857,0.9891133775036096,0.22833997226984398,2.060253549587014,-0.005993549587013813,-0.005993549587013813,0.005099019513592785,True,17.792003050126162,-0.9274030501261628,-0.9274030501261628,0.7071067811865476,True,-2.827662466600714,-0.2806615608946966,2.841556956456492,7.249451000000022,1.393322924678492,0.05145300000003772,-25.805173962225677,-103.75082188380782,106.91183304380458,False,,
2022-11-15 10:32:58.422243-07:00,54.794879,0.22,0.04,-0.17,-0.13,10.63,970.82,59.58,29.0,2.0,-0.198497,-1.23777,-0.00368543,32.8213281,-111.787053,369.587305,8.85742456,-0.116042178,1.01303515,2.05207,16.334,5595.41,27.2869,11445.0,0.332233,-1.0,11.0,-1252.0,80.0,,0.0,,2022-11-15 17:32:58.422243+00:00,1.1917681643895006,0.014874298686932292,1.4239898129529194,-1.4119017227787873,-0.18514997328647562,-0.13368543,367.47086238918655,0.17442200634615038,0.23398077393374977,1.4494324409566026,355.94431471658174,-1.4045989275302746,0.12159388127836471,0.05020683800000002,0.2340127443234124,0.1743034106979764,0.9873840943004991,-0.15834345683476486,0.3424689139900676,0.22818727800638966,2.060188089660753,-0.008118089660753114,-0.008118089660753114,0.005099019513592785,True,17.747267172721635,-1.4132671727216355,-1.4132671727216355,0.7071067811865476,True,-4.508674469363749,-0.46776935312466095,4.532874765357537,7.340057999999999,1.691317808901045,0.09060699999997723,-27.486185964988714,-103.93792967603778,107.51085361135831,False,,
2022-11-15 10:32:59.422840-07:00,55.795476,0.25,0.06,0.08,-0.23,10.82,970.82,58.68,32.0,2.0,-0.169002,-1.1058,-0.048997,32.8213131,-111.787055,369.63418,8.84017151,-0.118501528,2.09410146,2.05572,16.7933,5611.84,27.2896,11426.0,0.341846,-1.0,14.0,-1255.0,80.0,,0.0,,2022-11-15 17:32:59.422840+00:00,1.1909707704703048,0.014861175967803309,1.040541571245832,-1.0359710501138921,-0.09742045379007626,-0.278997,365.3721715068491,0.1742773969982527,0.2337957193799682,1.0954501042326377,364.5276862194056,-1.0899387444421402,-0.08397302608005337,-0.30596518,0.23381893343549195,0.17421495051256475,0.9885218292106305,-0.1510781028940632,0.08165670843604937,0.2285167102686003,2.0601229960551155,-0.004402996055115516,-0.004402996055115516,0.005099019513592785,True,17.70297317748193,-0.9096731774819311,-0.9096731774819311,0.7071067811865476,True,-6.17855394805086,-0.6548772090530568,6.213162885995505,7.386932999999999,1.680288120637968,0.046875,-29.15606544367582,-104.12503753196617,108.13001245347783,False,,
2022-11-15 10:33:00.422325-07:00,56.794961,0.49,0.45,-0.11,-0.14,10.86,970.84,58.46,30.0,2.0,-0.192987,-1.2345,-0.0459995,32.8212995,-111.787058,369.595728,8.79754521,0.115803932,-0.492153892,2.05504,17.1594,5608.12,27.2929,11380.0,0.338324,-1.0,14.0,-1224.0,80.0,,0.0,,2022-11-15 17:33:00.422325+00:00,1.190827565916048,0.014858513749620671,1.4314347792814235,-1.412030416204348,0.23489493619538435,-0.1859995,350.55518683000565,0.17449316813471005,0.2338168537860962,1.3982709164963936,350.18939461384014,-1.3728669037412502,0.24394153800486745,-0.23427364,0.2333021220877966,0.1751481937615289,0.9880002663448366,-0.1544521728643917,0.45305658085782385,0.2277749149704276,2.0600584000699937,-0.005018400069993767,-0.005018400069993767,0.005099019513592785,True,17.659208504072602,-0.49980850407260036,-0.49980850407260036,0.7071067811865476,True,-7.692577931433608,-0.935539007493337,7.749257284780327,7.3484809999999925,1.5360943987848223,-0.03845200000000659,-30.67008942705857,-104.40569933040645,108.81729843244135,True,0.0,0.0
2022-11-15 10:33:01.421962-07:00,57.794598,0.6,0.49,0.23,-0.26,10.81,970.84,59.63,25.0,2.0,-0.185247,-1.30878,-0.0352497,32.8212851,-111.787061,369.60384500000004,8.19636663,0.167397253,-0.144255175,2.05289,17.92,5584.7,27.2961,11377.0,0.158587,-1.0,14.0,-1204.0,80.0,,0.0,,2022-11-15 17:33:01.421962+00:00,1.1910372481892408,0.014861963601360379,1.198061833950105,-1.1509868091319906,0.33253800259827143,-0.2952497,343.885171157268,0.1771462167798553,0.232058264612614,1.3204800566942945,351.1172999947914,-1.3011800831984246,0.19685365299473806,-0.3492968,0.23193046781289808,0.17685109116939993,0.9901310096296815,-0.14014486708298513,0.37726461599984173,0.2274017473323711,2.0599942186986246,-0.007104218698624543,-0.007104218698624543,0.005099019513592785,True,17.615914790626093,0.30408520937390904,0.30408520937390904,0.7071067811865476,True,-9.295662202066355,-1.2162009083182093,9.37488562193263,7.3565980000000195,1.6256283371523033,0.00811700000002702,-32.27317369769132,-104.68636123123133,109.54812626584358,True,0.0,0.0
2022-11-15 10:33:02.421887-07:00,58.794523,0.35,0.13,0.05,-0.32,10.71,970.85,59.97,29.0,2.0,-0.295118,-1.53545,-0.0342219,32.8212702,-111.787064,369.568323,8.17483713,0.232460296,-0.597483868,2.05408,16.7642,5564.81,27.2984,11377.0,0.190748,-1.0,14.0,-1204.0,80.0,,0.0,,2022-11-15 17:33:02.421887+00:00,1.1914691067727012,0.01486891695092072,1.5128567307067673,-1.5044433118320935,-0.1593292475613013,-0.3542219,366.0454197432973,0.17677120799901225,0.23186710186320084,1.5604598277030275,355.8167894069391,-1.5329426355967288,0.13042397477117867,-0.17974353999999998,0.2319959628532336,0.17676679088839897,0.9820255195422077,-0.18874818931014137,0.4174198183706249,0.22381951435690994,2.059930442786505,-0.005850442786504928,-0.005850442786504928,0.005099019513592785,True,17.573084142601616,-0.8088841426016167,-0.8088841426016167,0.7071067811865476,True,-10.954409048620716,-1.4968628990329633,11.05620532293991,7.321076000000005,1.6813197010072791,-0.035522000000014486,-33.93192054424568,-104.96702322194608,110.31523555655207,True,0.0,0.0
2022-11-15 10:33:03.422681-07:00,59.795317,0.23,-0.01,0.13,-0.19,10.83,970.85,59.26,36.0,2.0,-0.271392,-1.44045,-0.0434108,32.821255,-111.787067,369.62420000000003,8.19960325,0.129979708,0.810924954,2.05283,17.4315,5557.18,27.3008,11433.0,0.154747,-1.0,11.0,-1251.0,80.0,,0.0,,2022-11-15 17:33:03.422681+00:00,1.1909656336660999,0.014860632230842418,1.3364360406307247,-1.310352740791869,-0.2627489017978296,-0.2334108,371.33845013889015,0.1768079509563001,0.23202465404779102,1.4425193024657816,359.33064881851436,-1.4063659411149394,0.043144678815405665,-0.0059852600000000035,0.23196482145706687,0.17676292255219223,0.9827102223226889,-0.18515026044402785,0.3027877371877697,0.22409486403193457,2.059867035308864,-0.007037035308863793,-0.007037035308863793,0.005099019513592785,True,17.530690178999787,-0.09919017899978755,-0.09919017899978755,0.7071067811865476,True,-12.646553646282127,-1.7775250122460144,12.770861924609942,7.3769530000000145,1.7146566016700326,0.0558770000000095,-35.62406514190709,-105.24768533515913,111.11322732079881,True,0.0,0.0
2022-11-15 10:33:04.422521-07:00,60.795157,1.01,0.96,-0.23,0.18,10.61,970.84,60.15,33.0,2.0,-0.249143,-1.19416,-0.0638056,32.8212419,-111.787069,369.65426,8.23620212,0.165506587,2.23081608,2.05314,16.9419,5573.92,27.3042,11442.0,0.168659,-1.0,12.0,-1288.0,80.0,,0.0,,2022-11-15 17:33:04.422521+00:00,1.191876716224333,0.014875779107652625,1.6963746279010068,-1.5593118800443861,0.6680069901870197,0.11619439999999999,336.80977690983417,0.17699607226675415,0.23275626756853665,1.6882749211095773,336.8771859286378,-1.5504253739551275,0.6638119505054536,0.12425592,0.23304684698889191,0.1775572246508385,0.9789215091893367,-0.20423682049638195,0.9664737452002252,0.22344861782654882,2.0598041110082344,-0.006664111008234386,-0.006664111008234386,0.005099019513592785,True,17.488807748368366,-0.5469077483683655,-0.5469077483683655,0.7071067811865476,True,-14.104915093248444,-1.9646332080014577,14.24108189112505,7.407013000000006,1.4702199665151081,0.03005999999999176,-37.0824265888734,-105.43479353091458,111.7658357845803,True,0.0,0.0
2022-11-15 10:33:05.422212-07:00,61.794848,1.59,1.16,-1.09,0.0,10.49,970.86,60.4,25.0,2.0,-0.177126,-0.696889,-0.0558987,32.8212331,-111.787072,369.605585,8.23075052,0.134435904,3.57338553,2.05401,17.1188,5581.51,27.3072,11373.0,0.174404,-1.0,15.0,-1238.0,80.0,,0.0,,2022-11-15 17:33:05.422212+00:00,1.1924055291960975,0.014884178636935813,2.10578622232295,-1.9417272420047675,0.8148809310455846,-0.0558987,337.23376244121096,0.18702163529204166,0.24022676020607445,2.0316019355365595,341.62583730762486,-1.9033646651137848,0.6343829434486304,-0.10879829999999999,0.240167280751032,0.1877011706503778,0.9691848586042658,-0.24633454863707036,1.0836988190197716,0.22588110338038983,2.0597416178200127,-0.005731617820012858,-0.005731617820012858,0.005099019513592785,True,17.447400042395405,-0.3286000423954043,-0.3286000423954043,0.7071067811865476,True,-15.084577588626306,-2.245295298787682,15.250764964618826,7.358338000000003,1.0096830734937754,-0.04867500000000291,-38.06208908425127,-105.7154556217008,112.35871209105802,True,0.0,0.0
2022-11-15 10:33:06.422470-07:00,62.795106,2.03,-0.61,-1.9,-0.34,9.94,970.86,62.69,34.0,2.0,0.0776148,-0.216994,-0.0295794,32.8212305,-111.787073,369.57998000000003,8.1257694,3.69605935,1.14984785,2.05448,17.0793,5580.41,27.3098,11407.0,0.174851,-1.0,14.0,-1248.0,80.0,,0.0,,2022-11-15 17:33:06.422470+00:00,1.1947221883541672,0.014922347876182377,2.163021596646389,-2.011696993011777,-0.794819247292155,-0.3695794,381.5589209743598,0.2070181094216828,0.24848860941144338,2.190960266816525,371.845036297878,-2.051682351019697,-0.5045121304871895,-0.29653690000000005,0.24927900266983788,0.20721538132280606,0.9415810768329317,0.3367863948412062,-1.1660177774586582,0.2222507716366161,2.059679510546324,-0.00519951054632406,-0.00519951054632406,0.005099019513592785,True,17.40643539241269,-0.3271353924126892,-0.3271353924126892,0.7071067811865476,True,-15.374023296288831,-2.3388493302227693,15.550910214656735,7.332733000000019,0.30014525003790915,-0.025604999999984557,-38.35153479191379,-105.80900965313589,112.54504318126489,True,0.0,0.0
2022-11-15 10:33:07.422485-07:00,63.795121,2.83,0.36,-2.8,-0.22,9.5,970.87,64.26,21.0,2.0,0.828252,-0.0437645,-0.026595,32.821232,-111.787068,369.58098800000005,8.20772371,4.48779943,0.0178516335,2.05289,17.3351,5576.33,27.3125,11442.0,0.141122,-1.0,11.0,-1259.0,80.0,,0.0,,2022-11-15 17:33:07.422485+00:00,1.1965943320497552,0.014953074413997841,2.9719786650968993,-2.8664785348450597,0.7848299147354595,-0.246595,344.68791068031953,0.23734986465810698,0.2715203302357555,2.8183228706608454,350.169055239037,-2.6843788243771973,0.5574905902506682,-0.15115692,0.2673555222471057,0.23206431001822056,0.052765984142914536,0.9986069051020174,-2.6512226902877143,0.23141938237368803,2.059617838982356,-0.006727838982355738,-0.006727838982355738,0.005099019513592785,True,17.365944896540807,-0.030844896540806133,-0.030844896540806133,0.7071067811865476,True,-15.207035354918327,-1.8710794324036089,15.321712127830224,7.333741000000032,-0.22919808682651066,0.0010080000000129985,-38.18454685054329,-105.34123975531672,112.04836639312711,True,0.0,0.0
