Timestamp,Seconds,S,Um,Vm,Wm,T,P,H,MD,Sts,Vx,Vy,Vz,Lat,Lon,Alt,Yaw,Roll,Pitch,CH4,C2H6,H2O,T_a,Batt,R,C2C1,Power,Current,SOC,Lat_a,Lon_a,TS,Timestamp_UTC,Rho,Rho_err,Sc,V,U,W,WD,V_err,U_err,Sc_avg,WD_avg,V_avg,U_avg,W_avg,U_err_avg,V_err_avg,Nx,Ny,cross_wind,cross_wind_err,CH4_sub,CH4_res,CH4_adj,CH4_adj_err,BG_Samples_CH4,C2H6_sub,C2H6_res,C2H6_adj,C2H6_adj_err,BG_Samples_C2H6
2023-08-31 10:50:14.175957-07:00,0.0,1.62,0.18,1.6,-0.23,26.5,862.91,56.58,28.0,-1.0,,,,,,,,,,,,,,,,,,,,,,,2023-08-31 17:50:14.175957+00:00,1.0031966414054838,0.013416087424651085,,,,,,,,,,,,,,,,,,,,,,,,,,,,
2023-08-31 10:50:14.376592-07:00,0.200635,1.81,0.15,1.8,-0.16,26.16,862.91,57.84,26.0,-1.0,,,,,,,,,,,,,,,,,,,,,,,2023-08-31 17:50:14.376592+00:00,1.0043362186266855,0.013435129388341616,,,,,,,,,,,,,,,,,,,,,,,,,,,,
2023-08-31 10:50:14.576566-07:00,0.400609,2.27,0.32,2.25,-0.08,25.85,862.92,58.79,22.0,-1.0,,,,,,,,,,1.87018,14.6826,18291.1,34.9991,,-0.291028,-1.0,,,,,,,2023-08-31 17:50:14.576566+00:00,1.005389154681724,0.013452578259548223,,,,,,,,,,,,,,,,,,,,,,,,,,,,
2023-08-31 10:50:14.776302-07:00,0.600345,2.32,0.31,2.29,-0.16,25.8,862.91,59.17,19.0,-1.0,,,,,,,,,,,,,,,,,,,,,,,2023-08-31 17:50:14.776302+00:00,1.0055456551167528,0.013455351662277272,,,,,,,,,,,,,,,,,,,,,,,,,,,,
2023-08-31 10:50:14.976497-07:00,0.80054,2.26,-0.41,2.22,-0.13,25.19,862.91,61.2,19.0,-1.0,,,,,,,,,,,,,,,,,,,,,,,2023-08-31 17:50:14.976497+00:00,1.0076016410711044,0.013489759302479377,,,,,,,,,,,,,,,,,,,,,,,,,,,,
2023-08-31 10:50:15.175825-07:00,0.999868,2.18,-0.14,2.17,-0.01,25.4,862.91,60.57,21.0,-1.0,,,,,,,,,,,,,,,,,,,,,,,2023-08-31 17:50:15.175825+00:00,1.006892894313024,0.013477893808605406,,,,,,,,,,,,,,,,,,,,,,,,,,,,
2023-08-31 10:50:15.376188-07:00,1.200231,2.34,-0.21,2.32,-0.07,25.34,862.91,60.8,25.0,-1.0,,,,,,,,,,,,,,,,,,,,,,,2023-08-31 17:50:15.376188+00:00,1.0070952916250238,0.013481281776855559,,,,,,,,,,,,,,,,,,,,,,,,,,,,
2023-08-31 10:50:15.576102-07:00,1.400145,2.4,-0.69,2.28,0.23,24.64,862.9,63.38,28.0,-1.0,,,,,,,,,,1.87145,14.2195,18429.6,35.0026,,-0.301284,-1.0,,,,,,,2023-08-31 17:50:15.576102+00:00,1.0094509216040537,0.013520897416701073,,,,,,,,,,,,,,,,,,,,,,,,,,,,
2023-08-31 10:50:15.775695-07:00,1.599738,2.24,-0.53,2.17,0.09,24.87,862.89,62.57,26.0,-1.0,,,,,,,,,,,,,,,,,,,,,,,2023-08-31 17:50:15.775695+00:00,1.0086601781484095,0.013507802459192433,,,,,,,,,,,,,,,,,,,,,,,,,,,,
2023-08-31 10:50:15.975905-07:00,1.799948,2.42,-0.24,2.41,-0.08,24.75,862.91,63.04,21.0,-1.0,,,,,,,,,,,,,,,,,,,,,,,2023-08-31 17:50:15.975905+00:00,1.009089874444959,0.013514689558214157,,,,,,,,,,,,,,,,,,,,,,,,,,,,
2023-08-31 10:50:16.175942-07:00,1.999985,2.36,-0.37,2.33,-0.08,25.06,862.9,61.82,19.0,-1.0,,,,,,,,,,,,,,,,,,,,,,,2023-08-31 17:50:16.175942+00:00,1.0080292074191715,0.013497076048858426,,,,,,,,,,,,,,,,,,,,,,,,,,,,
2023-08-31 10:50:16.376289-07:00,2.200332,2.5,-0.91,2.32,0.23,25.32,862.9,60.97,19.0,-1.0,,,,,,,,,,,,,,,,,,,,,,,2023-08-31 17:50:16.376289+00:00,1.0071511037775023,0.013482372336470707,,,,,,,,,,,,,,,,,,,,,,,,,,,,
2023-08-31 10:50:16.576686-07:00,2.400729,2.39,-0.81,2.24,0.22,25.17,862.9,61.53,21.0,-1.0,,,,,,,,,,1.87224,14.1055,18159.3,35.0059,,-0.338351,-1.0,,,,,,,2023-08-31 17:50:16.576686+00:00,1.0076575152335447,0.013490851257531062,,,,,,,,,,,,,,,,,,,,,,,,,,,,
2023-08-31 10:50:16.776548-07:00,2.600591,1.86,-0.81,1.66,0.18,25.44,862.9,60.59,24.0,-1.0,,,,,,,,,,,,,,,,,,,,,,,2023-08-31 17:50:16.776548+00:00,1.0067463409507054,0.013475597021836698,,,,,,,,,,,,,,,,,,,,,,,,,,,,
2023-08-31 10:50:16.975750-07:00,2.799793,1.97,-0.74,1.81,0.27,25.35,862.89,60.83,28.0,-1.0,,,,,,,,,,,,,,,,,,,,,,,2023-08-31 17:50:16.975750+00:00,1.0070382120327936,0.013480638718404745,,,,,,,,,,,,,,,,,,,,,,,,,,,,
2023-08-31 10:50:17.175814-07:00,2.999857,1.86,-0.76,1.69,0.19,25.79,862.9,59.42,24.0,-1.0,,,,,,,,,,,,,,,,,,,,,,,2023-08-31 17:50:17.175814+00:00,1.0055676388053492,0.013455875298373228,,,,,,,,,,,,,,,,,,,,,,,,,,,,
2023-08-31 10:50:17.376665-07:00,3.200708,1.58,-0.79,1.36,-0.17,25.62,862.9,60.05,21.0,-1.0,,,,,,,,,,,,,,,,,,,,,,,2023-08-31 17:50:17.376665+00:00,1.0061398063542897,0.013465447062172464,,,,,,,,,,,,,,,,,,,,,,,,,,,,
2023-08-31 10:50:17.576424-07:00,3.400467,0.92,-0.8,0.37,0.25,25.71,862.91,59.72,20.0,-1.0,,,,,,,,,,1.88069,14.2746,17988.9,35.0089,,-0.509631,-1.0,,,,,,,2023-08-31 17:50:17.576424+00:00,1.0058484695079746,0.01346041693713627,,,,,,,,,,,,,,,,,,,,,,,,,,,,
2023-08-31 10:50:17.775905-07:00,3.599948,1.05,-1.03,0.03,0.16,25.97,862.9,58.8,20.0,-1.0,,,,,,,,,,,,,,,,,,,,,,,2023-08-31 17:50:17.775905+00:00,1.0049625232163382,0.013445755606767102,,,,,,,,,,,,,,,,,,,,,,,,,,,,
2023-08-31 10:50:17.976120-07:00,3.800163,1.1,-1.05,-0.1,0.31,26.45,862.91,56.54,22.0,-1.0,,,,,,,,,,,,,,,,,,,,,,,2023-08-31 17:50:17.976120+00:00,1.0033640640759456,0.013418884259306088,,,,,,,,,,,,,,,,,,,,,,,,,,,,
2023-08-31 10:50:18.176211-07:00,4.000254,1.01,-0.96,0.05,0.31,26.6,862.91,56.72,26.0,-1.0,,,,,,,,,,,,,,,,,,,,,,,2023-08-31 17:50:18.176211+00:00,1.0028619636268665,0.013410497321967014,,,,,,,,,,,,,,,,,,,,,,,,,,,,
2023-08-31 10:50:18.376564-07:00,4.200607,1.21,-0.2,1.19,-0.11,26.29,862.91,57.7,28.0,-1.0,,,,,,,,,,,,,,,,,,,,,,,2023-08-31 17:50:18.376564+00:00,1.0039001923495634,0.013427842129862162,,,,,,,,,,,,,,,,,,,,,,,,,,,,
2023-08-31 10:50:18.577578-07:00,4.401621,1.56,-0.32,1.52,0.06,25.95,862.91,58.92,23.0,-1.0,,,,,,,,,,1.87279,14.3926,18105.5,35.0129,,-0.543257,-1.0,,,,,,,2023-08-31 17:50:18.577578+00:00,1.0050413694321407,0.013446918173031966,,,,,,,,,,,,,,,,,,,,,,,,,,,,
2023-08-31 10:50:18.775930-07:00,4.599973,2.1,0.19,2.09,-0.15,26.0,862.91,58.74,21.0,-1.0,,,,,,,,,,,,,,,,,,,,,,,2023-08-31 17:50:18.775930+00:00,1.0048733865858375,0.013444109405776608,,,,,,,,,,,,,,,,,,,,,,,,,,,,
2023-08-31 10:50:18.976319-07:00,4.800362,1.69,0.43,1.62,-0.13,26.14,862.9,57.04,19.0,-1.0,,,,,,,,,,,,,,,,,,,,,,,2023-08-31 17:50:18.976319+00:00,1.0043916934894954,0.013436212366290582,,,,,,,,,,,,,,,,,,,,,,,,,,,,
2023-08-31 10:50:19.176064-07:00,5.000107,1.66,0.25,1.64,-0.06,26.21,862.91,57.5,20.0,-1.0,,,,,,,,,,,,,,,,,,,,,,,2023-08-31 17:50:19.176064+00:00,1.004168471396156,0.013432325641952491,,,,,,,,,,,,,,,,,,,,,,,,,,,,
2023-08-31 10:50:19.376385-07:00,5.200428,1.8,0.32,1.77,0.04,26.04,862.9,57.43,22.0,-1.0,,,,,,,,,,,,,,,,,,,,,,,2023-08-31 17:50:19.376385+00:00,1.0047273971204622,0.013441824362918403,,,,,,,,,,,,,,,,,,,,,,,,,,,,
2023-08-31 10:50:19.578096-07:00,5.402139,2.47,0.64,2.37,-0.18,25.61,862.9,59.63,28.0,-1.0,,,,,,,,,,1.87447,13.35,18450.1,35.0166,,-0.559665,-1.0,,,,,,,2023-08-31 17:50:19.578096+00:00,1.0061734835468976,0.013466010539675367,,,,,,,,,,,,,,,,,,,,,,,,,,,,
2023-08-31 10:50:19.776488-07:00,5.600531,2.63,0.46,2.58,-0.14,25.61,862.9,59.66,29.0,-1.0,,,,,,,,,,,,,,,,,,,,,,,2023-08-31 17:50:19.776488+00:00,1.0061734835468976,0.013466010539675367,,,,,,,,,,,,,,,,,,,,,,,,,,,,
2023-08-31 10:50:19.976592-07:00,5.800635,2.09,0.27,2.07,-0.0,25.85,862.91,58.81,22.0,-1.0,,,,,,,,,,,,,,,,,,,,,,,2023-08-31 17:50:19.976592+00:00,1.0053775036694088,0.013452539300525217,,,,,,,,,,,,,,,,,,,,,,,,,,,,
2023-08-31 10:50:20.175773-07:00,5.999816,1.82,-0.18,1.81,0.07,25.97,862.9,58.48,21.0,-1.0,,,,,,,,,,,,,,,,,,,,,,,2023-08-31 17:50:20.175773+00:00,1.0049625232163382,0.013445755606767102,,,,,,,,,,,,,,,,,,,,,,,,,,,,
2023-08-31 10:50:20.376639-07:00,6.200682,1.74,-0.17,1.73,0.13,25.43,862.9,60.34,18.0,-1.0,,,,,,,,,,,,,,,,,,,,,,,2023-08-31 17:50:20.376639+00:00,1.0067800587596996,0.0134761613661119,,,,,,,,,,,,,,,,,,,,,,,,,,,,
2023-08-31 10:50:20.577171-07:00,6.401214,2.52,0.33,2.49,-0.18,25.66,862.91,59.53,22.0,-1.0,,,,,,,,,,1.86738,15.3434,18726.6,35.0207,,-0.610549,-1.0,,,,,,,2023-08-31 17:50:20.577171+00:00,1.0060167785454075,0.013463232659906635,,,,,,,,,,,,,,,,,,,,,,,,,,,,
2023-08-31 10:50:20.776592-07:00,6.600635,2.7,0.47,2.63,-0.41,25.69,862.89,59.54,23.0,-1.0,,,,,,,,,,,,,,,,,,,,,,,2023-08-31 17:50:20.776592+00:00,1.0058924718638367,0.013461465050270445,,,,,,,,,,,,,,,,,,,,,,,,,,,,
2023-08-31 10:50:20.975741-07:00,6.799784,2.45,0.52,2.39,-0.07,25.45,862.9,60.32,26.0,-1.0,,,,,,,,,,,,,,,,,,,,,,,2023-08-31 17:50:20.975741+00:00,1.0067126254001042,0.013475032725767335,,,,,,,,,,,,,,,,,,,,,,,,,,,,
2023-08-31 10:50:21.175916-07:00,6.999959,2.56,0.52,2.51,-0.08,25.02,862.89,61.89,26.0,-1.0,,,,,,,,,,,,,,,,,,,,,,,2023-08-31 17:50:21.175916+00:00,1.0081527527644931,0.013499301804810977,,,,,,,,,,,,,,,,,,,,,,,,,,,,
2023-08-31 10:50:21.376462-07:00,7.200505,2.11,0.11,2.1,-0.21,25.3,862.91,61.04,23.0,-1.0,,,,,,,,,,,,,,,,,,,,,,,2023-08-31 17:50:21.376462+00:00,1.0072302683771261,0.013483541387621237,,,,,,,,,,,,,,,,,,,,,,,,,,,,
2023-08-31 10:50:21.577461-07:00,7.401504,2.33,0.43,2.27,-0.3,25.13,862.91,61.62,20.0,-1.0,,,,,,,,,,1.86853,14.1539,18812.6,35.0246,,-0.583133,-1.0,,,,,,,2023-08-31 17:50:21.577461+00:00,1.0078043234449285,0.0134931533581985,,,,,,,,,,,,,,,,,,,,,,,,,,,,
2023-08-31 10:50:21.776204-07:00,7.600247,2.13,0.36,2.09,-0.25,24.88,862.92,62.71,19.0,-1.0,,,,,,,,,,,,,,,,,,,,,,,2023-08-31 17:50:21.776204+00:00,1.0086614006973642,0.013507353334178037,,,,,,,,,,,,,,,,,,,,,,,,,,,,
2023-08-31 10:50:21.976539-07:00,7.800582,2.3,0.63,2.19,-0.32,25.09,862.91,61.82,20.0,-1.0,,,,,,,,,,,,,,,,,,,,,,,2023-08-31 17:50:21.976539+00:00,1.0079394903338026,0.013495417029848354,,,,,,,,,,,,,,,,,,,,,,,,,,,,
2023-08-31 10:50:22.176299-07:00,8.000342,2.12,0.08,2.11,-0.09,24.93,862.89,62.27,23.0,-1.0,,,,,,,,,,,,,,,,,,,,,,,2023-08-31 17:50:22.176299+00:00,1.0084571467115837,0.013504400887621332,,,,,,,,,,,,,,,,,,,,,,,,,,,,
2023-08-31 10:50:22.376581-07:00,8.200624,2.97,-0.3,2.96,0.13,24.77,862.9,63.07,26.0,-1.0,,,,,,,,,,,,,,,,,,,,,,,2023-08-31 17:50:22.376581+00:00,1.0090104388576502,0.013513514978070495,,,,,,,,,,,,,,,,,,,,,,,,,,,,
2023-08-31 10:50:22.577314-07:00,8.401357,2.7,-0.32,2.68,0.07,24.42,862.89,64.41,26.0,-1.0,,,,,,,,,,1.87014,13.5738,18533.5,35.0285,,-0.52473,-1.0,,,,,,,2023-08-31 17:50:22.577314+00:00,1.010185523714719,0.013533370054780164,,,,,,,,,,,,,,,,,,,,,,,,,,,,
2023-08-31 10:50:22.776206-07:00,8.600249,2.14,0.16,2.13,-0.08,24.71,862.9,63.31,22.0,-1.0,,,,,,,,,,,,,,,,,,,,,,,2023-08-31 17:50:22.776206+00:00,1.0092136908093436,0.013516921235660655,,,,,,,,,,,,,,,,,,,,,,,,,,,,
2023-08-31 10:50:22.975850-07:00,8.799893,2.28,0.52,2.22,-0.11,24.7,862.91,63.38,20.0,-1.0,,,,,,,,,,,,,,,,,,,,,,,2023-08-31 17:50:22.975850+00:00,1.009259270092843,0.013517528489154896,,,,,,,,,,,,,,,,,,,,,,,,,,,,
2023-08-31 10:50:23.176023-07:00,9.000066,2.1,0.26,2.08,-0.09,25.0,862.91,62.22,19.0,-1.0,,,,,,,,,,,,,,,,,,,,,,,2023-08-31 17:50:23.176023+00:00,1.0082437484392195,0.013500513124257704,,,,,,,,,,,,,,,,,,,,,,,,,,,,
2023-08-31 10:50:23.376650-07:00,9.200693,1.8,0.35,1.77,-0.03,26.05,862.91,58.57,21.0,-1.0,,,,,,,,,,,,,,,,,,,,,,,2023-08-31 17:50:23.376650+00:00,1.0047054598835337,0.013441301835173699,,,,,,,,,,,,,,,,,,,,,,,,,,,,
2023-08-31 10:50:23.577423-07:00,9.401466,2.11,0.32,2.08,-0.05,25.39,862.92,60.9,24.0,-1.0,,,,,,,,,,1.87264,13.8203,18409.4,35.032,,-0.553912,-1.0,,,,,,,2023-08-31 17:50:23.577423+00:00,1.0069382905132829,0.013478497473682786,,,,,,,,,,,,,,,,,,,,,,,,,,,,
2023-08-31 10:50:23.776140-07:00,9.600183,2.18,0.4,2.15,-0.05,25.04,862.91,62.07,26.0,-1.0,,,,,,,,,,,,,,,,,,,,,,,2023-08-31 17:50:23.776140+00:00,1.0081084999401497,0.013498247708917673,,,,,,,,,,,,,,,,,,,,,,,,,,,,
2023-08-31 10:50:23.975747-07:00,9.79979,1.67,-0.05,1.66,0.15,25.21,862.9,61.56,25.0,-1.0,,,,,,,,,,,,,,,,,,,,,,,2023-08-31 17:50:23.975747+00:00,1.0075224223906394,0.013488589148607013,,,,,,,,,,,,,,,,,,,,,,,,,,,,
2023-08-31 10:50:24.175724-07:00,9.999767,2.06,-0.33,2.03,0.08,25.17,862.91,61.83,22.0,-1.0,,,,,,,,,,,,,,,,,,,,,,,2023-08-31 17:50:24.175724+00:00,1.007669192803544,0.013490890460883743,,,,,,,,,,,,,,,,,,,,,,,,,,,,
2023-08-31 10:50:24.376540-07:00,10.200583,1.97,-0.26,1.95,0.04,25.32,862.91,61.22,21.0,-1.0,,,,,,,,,,,,,,,,,,,,,,,2023-08-31 17:50:24.376540+00:00,1.007162775478786,0.01348241148567924,,,,,,,,,,,,,,,,,,,,,,,,,,,,
2023-08-31 10:50:24.577230-07:00,10.401273,1.46,-0.71,1.26,0.24,25.51,862.91,60.65,20.0,-1.0,,,,,,,,,,1.87557,14.2246,18253.0,35.0356,,-0.593385,-1.0,,,,,,,2023-08-31 17:50:24.577230+00:00,1.006522043786089,0.013471687042099039,,,,,,,,,,,,,,,,,,,,,,,,,,,,
2023-08-31 10:50:24.775956-07:00,10.599999,1.83,-0.43,1.75,0.26,25.49,862.9,60.74,22.0,-1.0,,,,,,,,,,,,,,,,,,,,,,,2023-08-31 17:50:24.775956+00:00,1.006577785777093,0.013472776023426242,,,,,,,,,,,,,,,,,,,,,,,,,,,,
2023-08-31 10:50:24.975840-07:00,10.799883,2.13,-0.62,2.03,0.19,25.29,862.88,61.39,25.0,-1.0,,,,,,,,,,,,,,,,,,,,,,,2023-08-31 17:50:24.975840+00:00,1.007228999594916,0.013483988931958674,,,,,,,,,,,,,,,,,,,,,,,,,,,,
2023-08-31 10:50:25.176635-07:00,11.000678,2.41,-1.1,2.13,0.2,25.34,862.91,61.27,26.0,-1.0,,,,,,,,,,,,,,,,,,,,,,,2023-08-31 17:50:25.176635+00:00,1.0070952916250238,0.013481281776855559,,,,,,,,,,,,,,,,,,,,,,,,,,,,
2023-08-31 10:50:25.376076-07:00,11.200119,2.54,-1.46,2.08,0.04,25.08,862.91,62.22,25.0,-1.0,,,,,,,,,,,,,,,,,,,,,,,2023-08-31 17:50:25.376076+00:00,1.0079732877214005,0.013495983068796687,,,,,,,,,,,,,,,,,,,,,,,,,,,,
2023-08-31 10:50:25.578021-07:00,11.402064,2.56,-1.45,2.11,0.01,25.0,862.92,62.66,21.0,-1.0,,,,,,,,,,1.87519,14.2276,18387.3,35.04,,-0.603341,-1.0,,,,,,,2023-08-31 17:50:25.578021+00:00,1.0082554326675681,0.013500552389433597,,,,,,,,,,,,,,,,,,,,,,,,,,,,
2023-08-31 10:50:25.776467-07:00,11.60051,2.48,-0.56,2.42,0.05,25.45,862.93,60.86,19.0,-1.0,,,,,,,,,,,,,,,,,,,,,,,2023-08-31 17:50:25.776467+00:00,1.0067476252596037,0.013475150033875546,,,,,,,,,,,,,,,,,,,,,,,,,,,,
2023-08-31 10:50:25.976084-07:00,11.800127,2.2,-0.88,2.01,0.18,25.37,862.91,61.24,20.0,-1.0,,,,,,,,,,,,,,,,,,,,,,,2023-08-31 17:50:25.976084+00:00,1.006994082798986,0.013479587575609896,,,,,,,,,,,,,,,,,,,,,,,,,,,,
2023-08-31 10:50:26.176105-07:00,12.000148,2.4,-0.5,2.34,0.24,24.9,862.9,63.05,21.0,-1.0,,,,,,,,,,,,,,,,,,,,,,,2023-08-31 17:50:26.176105+00:00,1.0085703403605808,0.013506140755712296,,,,,,,,,,,,,,,,,,,,,,,,,,,,
2023-08-31 10:50:26.375887-07:00,12.19993,3.07,-0.5,3.03,0.1,24.33,862.91,65.34,24.0,-1.0,,,,,,,,,,,,,,,,,,,,,,,2023-08-31 17:50:26.375887+00:00,1.010514567692461,0.013538574438714904,,,,,,,,,,,,,,,,,,,,,,,,,,,,
2023-08-31 10:50:26.633991-07:00,12.458034,3.11,-0.58,3.05,0.19,23.66,862.9,68.03,26.0,-1.0,,,,,,,,,,1.87394,13.6411,18404.0,35.0439,,-0.616908,-1.0,,,,,,,2023-08-31 17:50:26.633991+00:00,1.012783901972545,0.013576815467804862,,,,,,,,,,,,,,,,,,,,,,,,,,,,
2023-08-31 10:50:26.776440-07:00,12.600483,2.4,-0.56,2.31,0.28,23.82,862.91,67.31,24.0,-1.0,,,,,,,,,,,,,,,,,,,,,,,2023-08-31 17:50:26.776440+00:00,1.012249970021057,0.013567693495001669,,,,,,,,,,,,,,,,,,,,,,,,,,,,
2023-08-31 10:50:26.976372-07:00,12.800415,1.87,-0.86,1.63,0.31,24.53,862.92,64.59,21.0,-1.0,,,,,,,,,,,,,,,,,,,,,,,2023-08-31 17:50:26.976372+00:00,1.009847343623473,0.013527229394336293,,,,,,,,,,,,,,,,,,,,,,,,,,,,
2023-08-31 10:50:27.175917-07:00,12.99996,1.12,-0.72,0.83,0.21,24.96,862.91,62.94,19.0,-1.0,,,,,,,,,,,,,,,,,,,,,,,2023-08-31 17:50:27.175917+00:00,1.0083790332332137,0.013502779315210059,,,,,,,,,,,,,,,,,,,,,,,,,,,,
2023-08-31 10:50:27.376534-07:00,13.200577,1.82,-0.99,1.49,0.31,24.74,862.9,63.76,20.0,-1.0,,,,,,,,,,,,,,,,,,,,,,,2023-08-31 17:50:27.376534+00:00,1.009112054598916,0.013515217888005832,,,,,,,,,,,,,,,,,,,,,,,,,,,,
2023-08-31 10:50:27.625745-07:00,13.449788,2.1,-1.03,1.82,0.22,24.7,862.92,64.0,22.0,-1.0,,,,,,,,,,1.8796,13.8655,18100.8,35.0477,,-0.63651,-1.0,,,,,,,2023-08-31 17:50:27.625745+00:00,1.0092709660897614,0.01351756786313932,,,,,,,,,,,,,,,,,,,,,,,,,,,,
2023-08-31 10:50:27.776442-07:00,13.600485,2.15,-0.97,1.91,0.18,24.79,862.9,63.69,27.0,-1.0,,,,,,,,,,,,,,,,,,,,,,,2023-08-31 17:50:27.776442+00:00,1.0089427063988423,0.013512379947875465,,,,,,,,,,,,,,,,,,,,,,,,,,,,
2023-08-31 10:50:27.976563-07:00,13.800606,1.92,-1.02,1.61,0.25,24.61,862.91,63.74,27.0,-1.0,,,,,,,,,,,,,,,,,,,,,,,2023-08-31 17:50:27.976563+00:00,1.0095643256218205,0.013522641630987852,,,,,,,,,,,,,,,,,,,,,,,,,,,,
2023-08-31 10:50:28.176522-07:00,14.000565,2.02,-0.68,1.87,0.33,24.8,862.91,62.97,21.0,-1.0,,,,,,,,,,,,,,,,,,,,,,,2023-08-31 17:50:28.176522+00:00,1.0089205356507913,0.013511851843017599,,,,,,,,,,,,,,,,,,,,,,,,,,,,
2023-08-31 10:50:28.376698-07:00,14.200741,2.46,-0.04,2.46,0.2,25.12,862.89,62.46,20.0,-1.0,,,,,,,,,,,,,,,,,,,,,,,2023-08-31 17:50:28.376698+00:00,1.0078147527132764,0.013493640760997046,,,,,,,,,,,,,,,,,,,,,,,,,,,,
2023-08-31 10:50:28.633354-07:00,14.457397,2.54,-0.19,2.53,0.19,24.35,862.9,64.82,20.0,-1.0,,,,,,,,,,1.87984,13.3058,17874.8,35.0513,,-0.669551,-1.0,,,,,,,2023-08-31 17:50:28.633354+00:00,1.010434924183096,0.013537395610409977,,,,,,,,,,,,,,,,,,,,,,,,,,,,
2023-08-31 10:50:28.776174-07:00,14.600217,2.68,-0.46,2.63,0.24,24.37,862.89,64.78,20.0,-1.0,,,,,,,,,,,,,,,,,,,,,,,2023-08-31 17:50:28.776174+00:00,1.0103552913813825,0.013536216992551626,,,,,,,,,,,,,,,,,,,,,,,,,,,,
2023-08-31 10:50:28.976354-07:00,14.800397,2.92,-0.29,2.9,0.17,24.39,862.9,64.79,23.0,-1.0,,,,,,,,,,,,,,,,,,,,,,,2023-08-31 17:50:28.976354+00:00,1.0102990856505716,0.01353511755704569,,,,,,,,,,,,,,,,,,,,,,,,,,,,
2023-08-31 10:50:29.176211-07:00,15.000254,2.4,-0.27,2.35,0.4,24.43,862.89,64.57,26.0,-1.0,,,,,,,,,,,,,,,,,,,,,,,2023-08-31 17:50:29.176211+00:00,1.0101515770273166,0.013532800813750094,,,,,,,,,,,,,,,,,,,,,,,,,,,,
2023-08-31 10:50:29.376449-07:00,15.200492,2.73,-0.56,2.65,0.33,24.34,862.88,64.97,25.0,-1.0,,,,,,,,,,,,,,,,,,,,,,,2023-08-31 17:50:29.376449+00:00,1.010445469222854,0.013537886237484295,,,,,,,,,,,,,,,,,,,,,,,,,,,,
2023-08-31 10:50:29.657479-07:00,15.481522,3.57,-0.12,3.56,0.11,24.44,862.88,64.53,22.0,-1.0,,,,,,,,,,1.88096,13.2276,17760.6,35.0551,,-0.720049,-1.0,,,,,,,2023-08-31 17:50:29.657479+00:00,1.0101059264058159,0.013532192153967943,,,,,,,,,,,,,,,,,,,,,,,,,,,,
2023-08-31 10:50:29.775780-07:00,15.599823,4.19,-0.24,4.18,-0.01,23.95,862.89,66.5,21.0,-1.0,,,,,,,,,,,,,,,,,,,,,,,2023-08-31 17:50:29.775780+00:00,1.0117835957313663,0.013560179574517685,,,,,,,,,,,,,,,,,,,,,,,,,,,,
2023-08-31 10:50:29.976491-07:00,15.800534,3.53,0.15,3.52,0.14,24.18,862.89,65.67,20.0,-1.0,,,,,,,,,,,,,,,,,,,,,,,2023-08-31 17:50:29.976491+00:00,1.0110009292428914,0.013547046503729792,,,,,,,,,,,,,,,,,,,,,,,,,,,,
2023-08-31 10:50:30.176531-07:00,16.000574,2.99,-0.23,2.98,0.22,24.24,862.89,65.42,18.0,-1.0,,,,,,,,,,,,,,,,,,,,,,,2023-08-31 17:50:30.176531+00:00,1.010796954476576,0.013543624749805215,,,,,,,,,,,,,,,,,,,,,,,,,,,,
2023-08-31 10:50:30.376655-07:00,16.200698,3.26,-0.45,3.23,0.07,24.16,862.89,65.75,23.0,-1.0,,,,,,,,,,,,,,,,,,,,,,,2023-08-31 17:50:30.376655+00:00,1.0110689391268,0.01354818748016389,,,,,,,,,,,,,,,,,,,,,,,,,,,,
2023-08-31 10:50:30.697221-07:00,16.521264,3.13,-0.31,3.12,0.06,24.16,862.89,65.75,27.0,-1.0,,,,,,,,,,,,,,,,,,,,,,,2023-08-31 17:50:30.697221+00:00,1.0110689391268,0.01354818748016389,,,,,,,,,,,,,,,,,,,,,,,,,,,,
2023-08-31 10:50:30.776068-07:00,16.600111,2.64,-0.72,2.53,0.19,24.55,862.9,64.29,29.0,-1.0,,,,,,,,,,,,,,,,,,,,,,,2023-08-31 17:50:30.776068+00:00,1.0097560965551597,0.013526013155969022,,,,,,,,,,,,,,,,,,,,,,,,,,,,
2023-08-31 10:50:30.976528-07:00,16.800571,2.88,-0.43,2.85,-0.03,24.55,862.89,64.31,22.0,-1.0,,,,,,,,,,,,,,,,,,,,,,,2023-08-31 17:50:30.976528+00:00,1.009744394665062,0.013525973728115726,,,,,,,,,,,,,,,,,,,,,,,,,,,,
2023-08-31 10:50:31.176386-07:00,17.000429,2.62,0.47,2.58,0.06,24.9,862.89,62.96,19.0,-1.0,,,,,,,,,,,,,,,,,,,,,,,2023-08-31 17:50:31.176386+00:00,1.0085586522120078,0.013506101454993024,,,,,,,,,,,,,,,,,,,,,,,,,,,,
2023-08-31 10:50:31.376323-07:00,17.200366,2.21,0.35,2.18,0.11,24.79,862.89,63.46,19.0,-1.0,,,,,,,,,,,,,,,,,,,,,,,2023-08-31 17:50:31.376323+00:00,1.0089310139349832,0.013512340607257901,,,,,,,,,,,,,,,,,,,,,,,,,,,,
2023-08-31 10:50:31.705176-07:00,17.529219,1.57,-0.04,1.53,0.36,25.01,862.9,62.63,20.0,-1.0,,,,,,,,,,,,,,,,,,,,,,,2023-08-31 17:50:31.705176+00:00,1.0081982490759027,0.013499907436509457,,,,,,,,,,,,,,,,,,,,,,,,,,,,
2023-08-31 10:50:31.776118-07:00,17.600161,1.8,-0.6,1.64,0.44,25.41,862.9,61.26,26.0,-1.0,,,,,,,,,,,,,,,,,,,,,,,2023-08-31 17:50:31.776118+00:00,1.006847501153775,0.013477290199304232,,,,,,,,,,,,,,,,,,,,,,,,,,,,
2023-08-31 10:50:31.976360-07:00,17.800403,2.19,-0.73,2.04,0.25,24.92,862.91,63.06,28.0,-1.0,,,,,,,,,,,,,,,,,,,,,,,2023-08-31 17:50:31.976360+00:00,1.0085143543367439,0.013505046282168287,,,,,,,,,,,,,,,,,,,,,,,,,,,,
2023-08-31 10:50:32.175773-07:00,17.999816,2.18,0.16,2.17,0.13,25.29,862.91,61.65,24.0,-1.0,,,,,,,,,,,,,,,,,,,,,,,2023-08-31 17:50:32.175773+00:00,1.0072640182185808,0.013484106411026894,,,,,,,,,,,,,,,,,,,,,,,,,,,,
2023-08-31 10:50:32.375875-07:00,18.199918,2.62,-0.29,2.6,0.23,25.05,862.9,62.73,24.0,-1.0,,,,,,,,,,,,,,,,,,,,,,,2023-08-31 17:50:32.375875+00:00,1.0080630112155302,0.013497642229487131,,,,,,,,,,,,,,,,,,,,,,,,,,,,
2023-08-31 10:50:32.776960-07:00,18.601003,4.01,-0.26,4.0,-0.13,24.18,862.9,66.08,20.0,-1.0,,,,,,,,,,,,,,,,,,,,,,,2023-08-31 17:50:32.776960+00:00,1.0110126456949218,0.013547086066570175,,,,,,,,,,,,,,,,,,,,,,,,,,,,
2023-08-31 10:50:32.805132-07:00,18.629175,4.98,-0.39,4.96,-0.17,24.43,862.88,65.03,19.0,-1.0,,,,,,,,,,,,,,,,,,,,,,,2023-08-31 17:50:32.805132+00:00,1.0101398704183975,0.01353276134252591,,,,,,,,,,,,,,,,,,,,,,,,,,,,
2023-08-31 10:50:32.976236-07:00,18.800279,4.71,-0.56,4.67,-0.11,24.3,862.87,65.58,20.0,-1.0,,,,,,,,,,,,,,,,,,,,,,,2023-08-31 17:50:32.976236+00:00,1.0105696385490823,0.013540125720940353,,,,,,,,,,,,,,,,,,,,,,,,,,,,
2023-08-31 10:50:33.176047-07:00,19.00009,4.73,-0.21,4.72,-0.27,24.17,862.87,65.43,18.0,-1.0,,,,,,,,,,,,,,,,,,,,,,,2023-08-31 17:50:33.176047+00:00,1.0110114993489323,0.013547537835487266,,,,,,,,,,,,,,,,,,,,,,,,,,,,
2023-08-31 10:50:33.376026-07:00,19.200069,4.4,-0.28,4.39,-0.01,24.68,862.88,63.53,26.0,-1.0,,,,,,,,,,,,,,,,,,,,,,,2023-08-31 17:50:33.376026+00:00,1.0092919539304528,0.01351854626040517,,,,,,,,,,,,,,,,,,,,,,,,,,,,
2023-08-31 10:50:33.768822-07:00,19.592865,4.08,-1.04,3.94,0.1,24.88,862.88,62.69,28.0,-1.0,,,,,,,,,,,,,,,,,,,,,,,2023-08-31 17:50:33.768822+00:00,1.0086146449656301,0.013507196101617547,,,,,,,,,,,,,,,,,,,,,,,,,,,,
2023-08-31 10:50:33.799366-07:00,19.623409,3.43,-1.18,3.21,0.31,24.99,862.89,62.29,20.0,-1.0,,,,,,,,,,,,,,,,,,,,,,,2023-08-31 17:50:33.799366+00:00,1.0082541969939924,0.013501001062696387,,,,,,,,,,,,,,,,,,,,,,,,,,,,
2023-08-31 10:50:33.976653-07:00,19.800696,3.0,0.04,3.0,-0.0,25.16,862.88,61.73,20.0,-1.0,,,,,,,,,,,,,,,,,,,,,,,2023-08-31 17:50:33.976653+00:00,1.0076679381821152,0.013491338492763889,,,,,,,,,,,,,,,,,,,,,,,,,,,,
2023-08-31 10:50:34.175999-07:00,20.000042,3.29,0.11,3.28,-0.24,25.19,862.89,61.56,20.0,-1.0,,,,,,,,,,,,,,,,,,,,,,,2023-08-31 17:50:34.175999+00:00,1.0075782874967787,0.013489680910564166,,,,,,,,,,,,,,,,,,,,,,,,,,,,
2023-08-31 10:50:34.376300-07:00,20.200343,3.06,0.92,2.91,-0.11,25.83,862.89,59.44,21.0,-1.0,,,,,,,,,,,,,,,,,,,,,,,2023-08-31 17:50:34.376300+00:00,1.005421453915944,0.013453586169948004,,,,,,,,,,,,,,,,,,,,,,,,,,,,
2023-08-31 10:50:34.699841-07:00,20.523884,2.47,0.37,2.44,0.1,25.42,862.9,60.78,25.0,-1.0,,,,,,,,,,,,,,,,,,,,,,,2023-08-31 17:50:34.699841+00:00,1.006813778827314,0.013476725758599043,,,,,,,,,,,,,,,,,,,,,,,,,,,,
2023-08-31 10:50:34.775941-07:00,20.599984,2.85,0.19,2.84,-0.07,25.04,862.9,62.37,26.0,-1.0,,,,,,,,,,,,,,,,,,,,,,,2023-08-31 17:50:34.775941+00:00,1.0080968172791545,0.01349820845856044,,,,,,,,,,,,,,,,,,,,,,,,,,,,
2023-08-31 10:50:34.976410-07:00,20.800453,3.03,0.32,3.01,-0.17,25.14,862.89,61.99,24.0,-1.0,,,,,,,,,,,,,,,,,,,,,,,2023-08-31 17:50:34.976410+00:00,1.0077471798980486,0.013492509133245071,,,,,,,,,,,,,,,,,,,,,,,,,,,,
2023-08-31 10:50:35.175829-07:00,20.999872,2.28,-0.49,2.2,0.36,25.74,862.9,59.78,20.0,-1.0,,,,,,,,,,,,,,,,,,,,,,,2023-08-31 17:50:35.175829+00:00,1.0057358558147516,0.013458689081898347,,,,,,,,,,,,,,,,,,,,,,,,,,,,
2023-08-31 10:50:35.376286-07:00,21.200329,1.84,-0.76,1.65,0.28,25.85,862.89,59.48,20.0,-1.0,,,,,,,,,,,,,,,,,,,,,,,2023-08-31 17:50:35.376286+00:00,1.005354201644779,0.01345246138349518,,,,,,,,,,,,,,,,,,,,,,,,,,,,
2023-08-31 10:50:35.577958-07:00,21.402001,2.09,-1.32,1.63,-0.05,26.06,862.9,58.82,19.0,-1.0,,,,,,,,,,1.87846,12.862,18073.3,35.0748,,-0.753661,-1.0,,,,,,,2023-08-31 17:50:35.577958+00:00,1.004660238442803,0.013440701581054239,,,,,,,,,,,,,,,,,,,,,,,,,,,,
2023-08-31 10:50:35.776124-07:00,21.600167,2.31,-1.43,1.82,-0.08,25.93,862.9,59.17,20.0,-1.0,,,,,,,,,,,,,,,,,,,,,,,2023-08-31 17:50:35.776124+00:00,1.0050969304014683,0.013448003085134259,,,,,,,,,,,,,,,,,,,,,,,,,,,,
2023-08-31 10:50:35.975878-07:00,21.799921,1.74,-0.84,1.46,0.44,25.65,862.91,60.18,27.0,-1.0,,,,,,,,,,,,,,,,,,,,,,,2023-08-31 17:50:35.975878+00:00,1.0060504471122935,0.01346379594865317,,,,,,,,,,,,,,,,,,,,,,,,,,,,
2023-08-31 10:50:36.176413-07:00,22.000456,2.6,-0.87,2.44,0.23,24.33,862.9,65.32,27.0,-1.0,,,,,,,,,,,,,,,,,,,,,,,2023-08-31 17:50:36.176413+00:00,1.0105028571482826,0.013538534930329534,,,,,,,,,,,,,,,,,,,,,,,,,,,,
2023-08-31 10:50:36.376151-07:00,22.200194,2.43,-0.88,2.25,0.23,24.62,862.9,64.14,24.0,-1.0,,,,,,,,,,,,,,,,,,,,,,,2023-08-31 17:50:36.376151+00:00,1.0095187223174635,0.01352203390660974,,,,,,,,,,,,,,,,,,,,,,,,,,,,
2023-08-31 10:50:36.577497-07:00,22.40154,3.3,-0.88,3.17,0.2,23.98,862.87,66.58,20.0,-1.0,,,,,,,,,,1.87494,12.8498,18216.0,35.0785,,-0.72847,-1.0,,,,,,,2023-08-31 17:50:36.577497+00:00,1.0116579914058648,0.013558385822042173,,,,,,,,,,,,,,,,,,,,,,,,,,,,
2023-08-31 10:50:36.776687-07:00,22.60073,3.41,-0.42,3.38,0.11,24.19,862.89,65.82,18.0,-1.0,,,,,,,,,,,,,,,,,,,,,,,2023-08-31 17:50:36.776687+00:00,1.0109669277318523,0.013546476088989423,,,,,,,,,,,,,,,,,,,,,,,,,,,,
2023-08-31 10:50:36.976685-07:00,22.800728,3.09,-0.58,3.02,0.22,24.0,862.88,66.65,19.0,-1.0,,,,,,,,,,,,,,,,,,,,,,,2023-08-31 17:50:36.976685+00:00,1.0116016242271808,0.013557282722699179,,,,,,,,,,,,,,,,,,,,,,,,,,,,
2023-08-31 10:50:37.176317-07:00,23.00036,2.92,-0.48,2.88,0.08,24.59,862.91,64.32,21.0,-1.0,,,,,,,,,,,,,,,,,,,,,,,2023-08-31 17:50:37.176317+00:00,1.0096321407844204,0.013523778420448872,,,,,,,,,,,,,,,,,,,,,,,,,,,,
2023-08-31 10:50:37.376280-07:00,23.200323,2.91,0.18,2.9,0.07,24.76,862.88,63.68,26.0,-1.0,,,,,,,,,,,,,,,,,,,,,,,2023-08-31 17:50:37.376280+00:00,1.0090209212148191,0.01351400386341555,,,,,,,,,,,,,,,,,,,,,,,,,,,,
2023-08-31 10:50:37.577109-07:00,23.401152,3.11,0.12,3.11,0.14,24.12,862.89,66.15,27.0,-1.0,,,,,,,,,,1.87652,11.9692,18167.9,35.0825,,-0.636285,-1.0,,,,,,,2023-08-31 17:50:37.577109+00:00,1.0112049863484003,0.01355047002102005,,,,,,,,,,,,,,,,,,,,,,,,,,,,
2023-08-31 10:50:37.776387-07:00,23.60043,3.12,0.12,3.12,0.07,24.26,862.9,65.72,24.0,-1.0,,,,,,,,,,,,,,,,,,,,,,,2023-08-31 17:50:37.776387+00:00,1.0107406944772237,0.013542524090392779,,,,,,,,,,,,,,,,,,,,,,,,,,,,
2023-08-31 10:50:37.976095-07:00,23.800138,2.23,-0.45,2.16,0.28,24.53,862.91,64.7,20.0,-1.0,,,,,,,,,,,,,,,,,,,,,,,2023-08-31 17:50:37.976095+00:00,1.0098356409471692,0.013527189958517797,,,,,,,,,,,,,,,,,,,,,,,,,,,,
2023-08-31 10:50:38.176572-07:00,24.000615,2.68,-0.06,2.68,0.02,24.56,862.91,64.51,19.0,-1.0,,,,,,,,,,,,,,,,,,,,,,,2023-08-31 17:50:38.176572+00:00,1.0097338806125198,0.013525483970120801,,,,,,,,,,,,,,,,,,,,,,,,,,,,
2023-08-31 10:50:38.376125-07:00,24.200168,2.52,0.54,2.46,-0.14,24.89,862.91,63.43,19.0,-1.0,,,,,,,,,,,,,,,,,,,,,,,2023-08-31 17:50:38.376125+00:00,1.0086158690013196,0.013506747016877707,,,,,,,,,,,,,,,,,,,,,,,,,,,,
2023-08-31 10:50:38.577837-07:00,24.40188,2.12,0.09,2.12,0.01,24.93,862.9,63.29,22.0,-1.0,,,,,,,,,,1.87639,12.2471,18068.7,35.0864,,-0.607043,-1.0,,,,,,,2023-08-31 17:50:38.577837+00:00,1.0084688336838135,0.013504440177468484,,,,,,,,,,,,,,,,,,,,,,,,,,,,
2023-08-31 10:50:38.776348-07:00,24.600391,2.0,-0.43,1.93,0.27,25.13,862.9,62.52,26.0,-1.0,,,,,,,,,,,,,,,,,,,,,,,2023-08-31 17:50:38.776348+00:00,1.0077926443089416,0.013493114140390762,,,,,,,,,,,,,,,,,,,,,,,,,,,,
2023-08-31 10:50:38.975946-07:00,24.799989,2.28,0.32,2.25,-0.18,25.51,862.91,61.13,27.0,-1.0,,,,,,,,,,,,,,,,,,,,,,,2023-08-31 17:50:38.975946+00:00,1.006522043786089,0.013471687042099039,,,,,,,,,,,,,,,,,,,,,,,,,,,,
2023-08-31 10:50:39.176429-07:00,25.000472,2.42,0.49,2.37,-0.07,25.36,862.91,61.67,24.0,-1.0,,,,,,,,,,,,,,,,,,,,,,,2023-08-31 17:50:39.176429+00:00,1.0070278168140205,0.013480152261101285,,,,,,,,,,,,,,,,,,,,,,,,,,,,
2023-08-31 10:50:39.376297-07:00,25.20034,2.68,0.55,2.62,0.17,23.81,862.9,67.72,20.0,-1.0,,,,,,,,,,,,,,,,,,,,,,,2023-08-31 17:50:39.376297+00:00,1.012272326052233,0.013568226034814394,,,,,,,,,,,,,,,,,,,,,,,,,,,,
2023-08-31 10:50:39.577297-07:00,25.40134,2.69,0.67,2.6,0.19,23.58,862.91,68.69,19.0,-1.0,,,,,,,,,,1.87955,12.3485,17920.6,35.0905,,-0.615646,-1.0,,,,,,,2023-08-31 17:50:39.577297+00:00,1.013068694089419,0.013581440817119147,,,,,,,,,,,,,,,,,,,,,,,,,,,,
2023-08-31 10:50:39.776493-07:00,25.600536,2.91,0.6,2.84,0.17,23.47,862.92,69.19,21.0,-1.0,,,,,,,,,,,,,,,,,,,,,,,2023-08-31 17:50:39.776493+00:00,1.013456129896283,0.013587790993717866,,,,,,,,,,,,,,,,,,,,,,,,,,,,
2023-08-31 10:50:39.976380-07:00,25.800423,2.84,0.42,2.81,0.03,23.56,862.91,68.75,23.0,-1.0,,,,,,,,,,,,,,,,,,,,,,,2023-08-31 17:50:39.976380+00:00,1.0131369808808375,0.013582587709430678,,,,,,,,,,,,,,,,,,,,,,,,,,,,
2023-08-31 10:50:40.176199-07:00,26.000242,2.97,0.37,2.95,-0.02,24.06,862.91,66.81,27.0,-1.0,,,,,,,,,,,,,,,,,,,,,,,2023-08-31 17:50:40.176199+00:00,1.0114325682081804,0.013553974516866525,,,,,,,,,,,,,,,,,,,,,,,,,,,,
2023-08-31 10:50:40.375790-07:00,26.199833,3.58,0.1,3.57,-0.09,24.29,862.89,66.0,26.0,-1.0,,,,,,,,,,,,,,,,,,,,,,,2023-08-31 17:50:40.375790+00:00,1.0106270383666922,0.01354077463424631,,,,,,,,,,,,,,,,,,,,,,,,,,,,
2023-08-31 10:50:40.577867-07:00,26.40191,2.87,-0.56,2.81,0.18,24.57,862.89,64.8,22.0,-1.0,,,,,,,,,,1.88433,12.611,17873.5,35.0944,,-0.610927,-1.0,,,,,,,2023-08-31 17:50:40.577867+00:00,1.009676562850292,0.013524836563334678,,,,,,,,,,,,,,,,,,,,,,,,,,,,
2023-08-31 10:50:40.776387-07:00,26.60043,4.04,-0.28,4.03,0.1,24.14,862.87,66.6,20.0,-1.0,,,,,,,,,,,,,,,,,,,,,,,2023-08-31 17:50:40.776387+00:00,1.0111135221044252,0.013549249498666658,,,,,,,,,,,,,,,,,,,,,,,,,,,,
2023-08-31 10:50:40.975760-07:00,26.799803,3.98,-0.07,3.98,0.1,23.91,862.87,67.62,19.0,-1.0,,,,,,,,,,,,,,,,,,,,,,,2023-08-31 17:50:40.975760+00:00,1.0118963811567514,0.01356238691506861,,,,,,,,,,,,,,,,,,,,,,,,,,,,
2023-08-31 10:50:41.175724-07:00,26.999767,3.35,0.15,3.35,0.11,24.05,862.89,66.97,21.0,-1.0,,,,,,,,,,,,,,,,,,,,,,,2023-08-31 17:50:41.175724+00:00,1.0114431571056155,0.01355446635502015,,,,,,,,,,,,,,,,,,,,,,,,,,,,
2023-08-31 10:50:41.375842-07:00,27.199885,3.49,0.23,3.48,-0.1,24.09,862.87,66.82,24.0,-1.0,,,,,,,,,,,,,,,,,,,,,,,2023-08-31 17:50:41.375842+00:00,1.0112836057947268,0.013552103250843878,,,,,,,,,,,,,,,,,,,,,,,,,,,,
2023-08-31 10:50:41.577875-07:00,27.401918,3.09,-0.31,3.07,-0.1,23.93,862.89,66.82,27.0,-1.0,,,,,,,,,,1.88666,12.4958,17674.8,35.0982,,-0.632374,-1.0,,,,,,,2023-08-31 17:50:41.577875+00:00,1.0118517109593004,0.01356132280772866,,,,,,,,,,,,,,,,,,,,,,,,,,,,
2023-08-31 10:50:41.776560-07:00,27.600603,3.22,0.19,3.22,0.01,24.15,862.9,66.61,26.0,-1.0,,,,,,,,,,,,,,,,,,,,,,,2023-08-31 17:50:41.776560+00:00,1.0111146651344471,0.013548797615681962,,,,,,,,,,,,,,,,,,,,,,,,,,,,
2023-08-31 10:50:41.976437-07:00,27.80048,3.3,-0.01,3.3,0.1,24.25,862.88,64.82,22.0,-1.0,,,,,,,,,,,,,,,,,,,,,,,2023-08-31 17:50:41.976437+00:00,1.010751252989599,0.013543015091915316,,,,,,,,,,,,,,,,,,,,,,,,,,,,
2023-08-31 10:50:42.176405-07:00,28.000448,2.96,0.17,2.95,0.18,24.43,862.88,64.79,20.0,-1.0,,,,,,,,,,,,,,,,,,,,,,,2023-08-31 17:50:42.176405+00:00,1.0101398704183975,0.01353276134252591,,,,,,,,,,,,,,,,,,,,,,,,,,,,
2023-08-31 10:50:42.376235-07:00,28.200278,2.9,0.25,2.89,0.15,24.56,862.88,63.67,19.0,-1.0,,,,,,,,,,,,,,,,,,,,,,,2023-08-31 17:50:42.376235+00:00,1.009698776121416,0.013525365697480595,,,,,,,,,,,,,,,,,,,,,,,,,,,,
2023-08-31 10:50:42.577300-07:00,28.401343,2.64,0.79,2.52,0.09,24.78,862.88,62.79,22.0,-1.0,,,,,,,,,,1.88339,12.302,17671.1,35.1023,,-0.652653,-1.0,,,,,,,2023-08-31 17:50:42.577300+00:00,1.0089531857788971,0.013512868750514342,,,,,,,,,,,,,,,,,,,,,,,,,,,,
2023-08-31 10:50:42.775978-07:00,28.600021,2.94,0.44,2.9,0.06,24.61,862.88,63.51,25.0,-1.0,,,,,,,,,,,,,,,,,,,,,,,2023-08-31 17:50:42.775978+00:00,1.0095292270254794,0.013522523412926195,,,,,,,,,,,,,,,,,,,,,,,,,,,,
2023-08-31 10:50:42.975884-07:00,28.799927,3.05,0.19,3.04,0.13,24.42,862.88,64.33,28.0,-1.0,,,,,,,,,,,,,,,,,,,,,,,2023-08-31 17:50:42.975884+00:00,1.0101738167123928,0.013533330579910362,,,,,,,,,,,,,,,,,,,,,,,,,,,,
2023-08-31 10:50:43.176483-07:00,29.000526,2.37,-0.46,2.3,0.36,24.56,862.88,63.88,25.0,-1.0,,,,,,,,,,,,,,,,,,,,,,,2023-08-31 17:50:43.176483+00:00,1.009698776121416,0.013525365697480595,,,,,,,,,,,,,,,,,,,,,,,,,,,,
2023-08-31 10:50:43.375925-07:00,29.199968,2.46,-1.1,2.19,0.26,24.54,862.89,63.87,21.0,-1.0,,,,,,,,,,,,,,,,,,,,,,,2023-08-31 17:50:43.375925+00:00,1.0097783139903556,0.013526542383631962,,,,,,,,,,,,,,,,,,,,,,,,,,,,
2023-08-31 10:50:43.577400-07:00,29.401443,3.04,-0.32,3.02,0.07,24.34,862.88,64.79,19.0,-1.0,,,,,,,,,,1.88371,12.4246,17764.7,35.1064,,-0.658573,-1.0,,,,,,,2023-08-31 17:50:43.577400+00:00,1.010445469222854,0.013537886237484295,,,,,,,,,,,,,,,,,,,,,,,,,,,,
2023-08-31 10:50:43.775977-07:00,29.60002,2.21,-0.81,2.05,0.09,24.52,862.89,64.1,19.0,-1.0,,,,,,,,,,,,,,,,,,,,,,,2023-08-31 17:50:43.775977+00:00,1.0098461594779082,0.013527679840946825,,,,,,,,,,,,,,,,,,,,,,,,,,,,
2023-08-31 10:50:43.975841-07:00,29.799884,2.48,-1.17,2.17,0.27,24.89,862.88,62.55,21.0,-1.0,,,,,,,,,,,,,,,,,,,,,,,2023-08-31 17:50:43.975841+00:00,1.0085808033790995,0.013506629103845128,,,,,,,,,,,,,,,,,,,,,,,,,,,,
2023-08-31 10:50:44.175823-07:00,29.999866,3.17,-0.36,3.14,0.0,24.69,862.88,63.51,25.0,-1.0,,,,,,,,,,,,,,,,,,,,,,,2023-08-31 17:50:44.175823+00:00,1.009258066878548,0.013517978290495466,,,,,,,,,,,,,,,,,,,,,,,,,,,,
2023-08-31 10:50:44.376694-07:00,30.200737,1.84,-0.61,1.7,0.36,25.14,862.9,61.81,27.0,-1.0,,,,,,,,,,,,,,,,,,,,,,,2023-08-31 17:50:44.376694+00:00,1.0077588586424995,0.013492548347097913,,,,,,,,,,,,,,,,,,,,,,,,,,,,
2023-08-31 10:50:44.577092-07:00,30.401135,1.88,-0.39,1.83,0.09,24.97,862.89,62.4,25.0,-1.0,,,,,,,,,,1.88682,12.1595,17832.1,35.1099,,-0.687135,-1.0,,,,,,,2023-08-31 17:50:44.577092+00:00,1.0083218378229872,0.013502134143681614,,,,,,,,,,,,,,,,,,,,,,,,,,,,
2023-08-31 10:50:44.776322-07:00,30.600365,1.86,-0.29,1.83,0.12,25.4,862.91,60.76,21.0,-1.0,,,,,,,,,,,,,,,,,,,,,,,2023-08-31 17:50:44.776322+00:00,1.006892894313024,0.013477893808605406,,,,,,,,,,,,,,,,,,,,,,,,,,,,
2023-08-31 10:50:44.976228-07:00,30.800271,2.31,-0.44,2.26,0.08,24.92,862.92,62.71,19.0,-1.0,,,,,,,,,,,,,,,,,,,,,,,2023-08-31 17:50:44.976228+00:00,1.0085260417010615,0.013505085576321118,,,,,,,,,,,,,,,,,,,,,,,,,,,,
2023-08-31 10:50:45.176113-07:00,31.000156,2.32,-0.23,2.3,-0.11,24.88,862.9,62.86,20.0,-1.0,,,,,,,,,,,,,,,,,,,,,,,2023-08-31 17:50:45.176113+00:00,1.0086380228314973,0.013507274717215505,,,,,,,,,,,,,,,,,,,,,,,,,,,,
2023-08-31 10:50:45.376670-07:00,31.200713,1.43,-0.46,1.35,0.13,25.52,862.91,60.5,23.0,-1.0,,,,,,,,,,,,,,,,,,,,,,,2023-08-31 17:50:45.376670+00:00,1.0064883436473475,0.013471123079701913,,,,,,,,,,,,,,,,,,,,,,,,,,,,
2023-08-31 10:50:45.577359-07:00,31.401402,1.15,-0.88,0.74,0.04,25.72,862.92,59.85,26.0,-1.0,,,,,,,,,,1.88274,12.8105,17953.0,35.1139,,-0.668245,-1.0,,,,,,,2023-08-31 17:50:45.577359+00:00,1.0058264705384796,0.013459892942374816,,,,,,,,,,,,,,,,,,,,,,,,,,,,
2023-08-31 10:50:45.775719-07:00,31.599762,1.59,-0.68,1.44,0.09,25.47,862.9,60.68,28.0,-1.0,,,,,,,,,,,,,,,,,,,,,,,2023-08-31 17:50:45.775719+00:00,1.0066452010731735,0.013473904278221715,,,,,,,,,,,,,,,,,,,,,,,,,,,,
2023-08-31 10:50:45.976362-07:00,31.800405,2.16,-0.06,2.16,-0.08,25.39,862.91,60.98,24.0,-1.0,,,,,,,,,,,,,,,,,,,,,,,2023-08-31 17:50:45.976362+00:00,1.0069266215487147,0.013478458349368064,,,,,,,,,,,,,,,,,,,,,,,,,,,,
2023-08-31 10:50:46.176671-07:00,32.000714,2.31,0.17,2.29,-0.17,25.53,862.9,60.53,21.0,-1.0,,,,,,,,,,,,,,,,,,,,,,,2023-08-31 17:50:46.176671+00:00,1.006442982270226,0.013470520091890589,,,,,,,,,,,,,,,,,,,,,,,,,,,,
2023-08-31 10:50:46.376194-07:00,32.200237,2.28,0.69,2.17,-0.19,25.65,862.91,60.24,20.0,-1.0,,,,,,,,,,,,,,,,,,,,,,,2023-08-31 17:50:46.376194+00:00,1.0060504471122935,0.01346379594865317,,,,,,,,,,,,,,,,,,,,,,,,,,,,
2023-08-31 10:50:46.577377-07:00,32.40142,2.56,0.37,2.52,-0.29,25.64,862.91,60.31,20.0,-1.0,,,,,,,,,,1.88108,12.1474,18130.0,35.1182,,-0.654576,-1.0,,,,,,,2023-08-31 17:50:46.577377+00:00,1.00608411793284,0.013464359285478044,,,,,,,,,,,,,,,,,,,,,,,,,,,,
2023-08-31 10:50:46.775984-07:00,32.600027,2.25,0.3,2.22,-0.24,25.51,862.91,60.79,23.0,-1.0,,,,,,,,,,,,,,,,,,,,,,,2023-08-31 17:50:46.775984+00:00,1.006522043786089,0.013471687042099039,,,,,,,,,,,,,,,,,,,,,,,,,,,,
2023-08-31 10:50:46.976658-07:00,32.800701,2.81,0.65,2.73,-0.23,25.43,862.91,61.01,27.0,-1.0,,,,,,,,,,,,,,,,,,,,,,,2023-08-31 17:50:46.976658+00:00,1.0067917261610064,0.01347620047567716,,,,,,,,,,,,,,,,,,,,,,,,,,,,
2023-08-31 10:50:47.176404-07:00,33.000447,3.33,0.66,3.26,-0.15,24.71,862.9,63.91,27.0,-1.0,,,,,,,,,,,,,,,,,,,,,,,2023-08-31 17:50:47.176404+00:00,1.0092136908093436,0.013516921235660655,,,,,,,,,,,,,,,,,,,,,,,,,,,,
2023-08-31 10:50:47.376632-07:00,33.200675,3.85,0.03,3.85,-0.04,24.34,862.9,65.3,23.0,-1.0,,,,,,,,,,,,,,,,,,,,,,,2023-08-31 17:50:47.376632+00:00,1.0104688895239204,0.013537965245928128,,,,,,,,,,,,,,,,,,,,,,,,,,,,
2023-08-31 10:50:47.577581-07:00,33.401624,3.88,0.58,3.83,-0.04,24.22,862.9,65.67,20.0,-1.0,,,,,,,,,,1.87484,12.0967,18316.5,35.1223,,-0.587727,-1.0,,,,,,,2023-08-31 17:50:47.577581+00:00,1.0108766517956453,0.013544804686818221,,,,,,,,,,,,,,,,,,,,,,,,,,,,
2023-08-31 10:50:47.776449-07:00,33.600492,3.69,0.44,3.66,0.0,24.22,862.9,66.54,19.0,-1.0,,,,,,,,,,,,,,,,,,,,,,,2023-08-31 17:50:47.776449+00:00,1.0108766517956453,0.013544804686818221,,,,,,,,,,,,,,,,,,,,,,,,,,,,
2023-08-31 10:50:47.976653-07:00,33.800696,3.08,1.06,2.89,0.09,24.34,862.9,65.27,21.0,-1.0,,,,,,,,,,,,,,,,,,,,,,,2023-08-31 17:50:47.976653+00:00,1.0104688895239204,0.013537965245928128,,,,,,,,,,,,,,,,,,,,,,,,,,,,
2023-08-31 10:50:48.175771-07:00,33.999814,2.9,0.4,2.86,0.18,24.41,862.92,65.04,24.0,-1.0,,,,,,,,,,,,,,,,,,,,,,,2023-08-31 17:50:48.175771+00:00,1.0102545948710695,0.013534057782245059,,,,,,,,,,,,,,,,,,,,,,,,,,,,
2023-08-31 10:50:48.376662-07:00,34.200705,2.95,0.54,2.9,0.09,24.39,862.9,65.19,28.0,-1.0,,,,,,,,,,,,,,,,,,,,,,,2023-08-31 17:50:48.376662+00:00,1.0102990856505716,0.01353511755704569,,,,,,,,,,,,,,,,,,,,,,,,,,,,
2023-08-31 10:50:48.577529-07:00,34.401572,3.37,0.49,3.34,0.05,24.44,862.89,64.91,27.0,-1.0,,,,,,,,,,1.88131,12.6184,18222.1,35.1263,,-0.634871,-1.0,,,,,,,2023-08-31 17:50:48.577529+00:00,1.0101176326213546,0.013532231621546955,,,,,,,,,,,,,,,,,,,,,,,,,,,,
2023-08-31 10:50:48.775872-07:00,34.599915,3.21,0.39,3.18,0.0,24.21,862.9,65.89,23.0,-1.0,,,,,,,,,,,,,,,,,,,,,,,2023-08-31 17:50:48.775872+00:00,1.010910646840433,0.013545374958303784,,,,,,,,,,,,,,,,,,,,,,,,,,,,
2023-08-31 10:50:48.976214-07:00,34.800257,2.9,1.91,2.19,0.01,24.01,862.9,66.62,20.0,-1.0,,,,,,,,,,,,,,,,,,,,,,,2023-08-31 17:50:48.976214+00:00,1.0115910282153422,0.013556790678772818,,,,,,,,,,,,,,,,,,,,,,,,,,,,
2023-08-31 10:50:49.176278-07:00,35.000321,1.76,-0.34,1.72,0.06,24.16,862.9,66.08,19.0,-1.0,,,,,,,,,,,,,,,,,,,,,,,2023-08-31 17:50:49.176278+00:00,1.0110806563669943,0.013548227050318157,,,,,,,,,,,,,,,,,,,,,,,,,,,,
2023-08-31 10:50:49.376686-07:00,35.200729,1.97,-0.21,1.96,0.08,24.49,862.92,64.87,22.0,-1.0,,,,,,,,,,,,,,,,,,,,,,,2023-08-31 17:50:49.376686+00:00,1.0099830575521955,0.013529504742850269,,,,,,,,,,,,,,,,,,,,,,,,,,,,
2023-08-31 10:50:49.577552-07:00,35.401595,1.52,0.0,1.52,0.01,24.74,862.91,64.02,25.0,-1.0,,,,,,,,,,1.87481,12.9248,18060.3,35.1304,,-0.605265,-1.0,,,,,,,2023-08-31 17:50:49.577552+00:00,1.0091237490253222,0.013515257247118077,,,,,,,,,,,,,,,,,,,,,,,,,,,,
2023-08-31 10:50:49.776492-07:00,35.600535,1.46,-0.92,1.08,0.33,24.86,862.91,63.44,28.0,-1.0,,,,,,,,,,,,,,,,,,,,,,,2023-08-31 17:50:49.776492+00:00,1.0087174041044036,0.013508448188478173,,,,,,,,,,,,,,,,,,,,,,,,,,,,
2023-08-31 10:50:49.976425-07:00,35.800468,1.0,-0.58,0.81,0.1,24.76,862.9,63.82,26.0,-1.0,,,,,,,,,,,,,,,,,,,,,,,2023-08-31 17:50:49.976425+00:00,1.0090443084974359,0.013514082566090397,,,,,,,,,,,,,,,,,,,,,,,,,,,,
2023-08-31 10:50:50.176331-07:00,36.000374,1.67,-0.1,1.67,-0.07,24.5,862.92,64.89,21.0,-1.0,,,,,,,,,,,,,,,,,,,,,,,2023-08-31 17:50:50.176331+00:00,1.0099491256503796,0.01352893583255071,,,,,,,,,,,,,,,,,,,,,,,,,,,,
2023-08-31 10:50:50.376671-07:00,36.200714,1.35,-0.05,1.35,0.06,24.89,862.92,63.57,20.0,-1.0,,,,,,,,,,,,,,,,,,,,,,,2023-08-31 17:50:50.376671+00:00,1.0086275575420596,0.013506786321904133,,,,,,,,,,,,,,,,,,,,,,,,,,,,
2023-08-31 10:50:50.577789-07:00,36.401832,1.58,0.1,1.58,0.05,25.13,862.93,62.57,19.0,-1.0,,,,,,,,,,1.88132,12.0784,18072.8,35.1353,,-0.607579,-1.0,,,,,,,2023-08-31 17:50:50.577789+00:00,1.0078276817169023,0.013493231794835464,,,,,,,,,,,,,,,,,,,,,,,,,,,,
2023-08-31 10:50:50.775741-07:00,36.599784,2.13,-0.03,2.12,-0.12,24.84,862.92,63.79,21.0,-1.0,,,,,,,,,,,,,,,,,,,,,,,2023-08-31 17:50:50.775741+00:00,1.0087967960328719,0.013509621868835734,,,,,,,,,,,,,,,,,,,,,,,,,,,,
2023-08-31 10:50:50.976390-07:00,36.800433,2.37,0.08,2.37,0.08,24.86,862.91,63.62,25.0,-1.0,,,,,,,,,,,,,,,,,,,,,,,2023-08-31 17:50:50.976390+00:00,1.0087174041044036,0.013508448188478173,,,,,,,,,,,,,,,,,,,,,,,,,,,,
2023-08-31 10:50:51.176088-07:00,37.000131,2.19,0.46,2.14,0.1,24.65,862.93,64.42,29.0,-1.0,,,,,,,,,,,,,,,,,,,,,,,2023-08-31 17:50:51.176088+00:00,1.0094521185443843,0.013520447421268806,,,,,,,,,,,,,,,,,,,,,,,,,,,,
2023-08-31 10:50:51.376686-07:00,37.200729,2.11,-0.51,2.03,0.24,24.61,862.92,64.61,25.0,-1.0,,,,,,,,,,,,,,,,,,,,,,,2023-08-31 17:50:51.376686+00:00,1.0095760251539343,0.013522681037692079,,,,,,,,,,,,,,,,,,,,,,,,,,,,
2023-08-31 10:50:51.577960-07:00,37.402003,2.62,-1.08,2.38,0.18,24.69,862.92,64.35,22.0,-1.0,,,,,,,,,,1.87811,11.8947,18389.8,35.1391,,-0.473703,-1.0,,,,,,,2023-08-31 17:50:51.577960+00:00,1.0093048524369979,0.013518135798918456,,,,,,,,,,,,,,,,,,,,,,,,,,,,
2023-08-31 10:50:51.776271-07:00,37.600314,2.16,-0.42,2.12,0.17,24.8,862.91,63.91,20.0,-1.0,,,,,,,,,,,,,,,,,,,,,,,2023-08-31 17:50:51.776271+00:00,1.0089205356507913,0.013511851843017599,,,,,,,,,,,,,,,,,,,,,,,,,,,,
2023-08-31 10:50:51.975901-07:00,37.799944,2.47,0.32,2.44,-0.02,24.81,862.91,63.89,20.0,-1.0,,,,,,,,,,,,,,,,,,,,,,,2023-08-31 17:50:51.975901+00:00,1.008886674711885,0.013511284445799708,,,,,,,,,,,,,,,,,,,,,,,,,,,,
2023-08-31 10:50:52.176179-07:00,38.000222,2.81,0.38,2.78,0.06,24.92,862.91,63.45,23.0,-1.0,,,,,,,,,,,,,,,,,,,,,,,2023-08-31 17:50:52.176179+00:00,1.0085143543367439,0.013505046282168287,,,,,,,,,,,,,,,,,,,,,,,,,,,,
2023-08-31 10:50:52.376699-07:00,38.200742,3.21,0.08,3.21,0.17,23.77,862.91,67.99,26.0,-1.0,,,,,,,,,,,,,,,,,,,,,,,2023-08-31 17:50:52.376699+00:00,1.0124204283886342,0.01357055518016963,,,,,,,,,,,,,,,,,,,,,,,,,,,,
2023-08-31 10:50:52.577698-07:00,38.401741,3.88,0.22,3.87,0.01,23.81,862.9,67.97,28.0,-1.0,,,,,,,,,,1.87629,12.4907,18464.9,35.1402,,-0.372447,-1.0,,,,,,,2023-08-31 17:50:52.577698+00:00,1.012272326052233,0.013568226034814394,,,,,,,,,,,,,,,,,,,,,,,,,,,,
2023-08-31 10:50:52.776364-07:00,38.600407,3.8,0.4,3.78,0.04,23.81,862.9,68.03,25.0,-1.0,,,,,,,,,,,,,,,,,,,,,,,2023-08-31 17:50:52.776364+00:00,1.012272326052233,0.013568226034814394,,,,,,,,,,,,,,,,,,,,,,,,,,,,
2023-08-31 10:50:52.976166-07:00,38.800209,3.41,-0.28,3.4,-0.04,24.0,862.9,67.22,22.0,-1.0,,,,,,,,,,,,,,,,,,,,,,,2023-08-31 17:50:52.976166+00:00,1.0116250713258323,0.013557361979814503,,,,,,,,,,,,,,,,,,,,,,,,,,,,
2023-08-31 10:50:53.176173-07:00,39.000216,2.48,0.08,2.47,0.21,24.29,862.91,66.12,21.0,-1.0,,,,,,,,,,,,,,,,,,,,,,,2023-08-31 17:50:53.176173+00:00,1.010650462604738,0.013540853679880453,,,,,,,,,,,,,,,,,,,,,,,,,,,,
2023-08-31 10:50:53.376579-07:00,39.200622,2.98,-0.03,2.98,-0.07,24.72,862.9,64.57,21.0,-1.0,,,,,,,,,,,,,,,,,,,,,,,2023-08-31 17:50:53.376579+00:00,1.0091798097978013,0.013516353404463256,,,,,,,,,,,,,,,,,,,,,,,,,,,,
2023-08-31 10:50:53.577851-07:00,39.401894,3.1,0.05,3.1,0.06,24.94,862.88,63.66,23.0,-1.0,,,,,,,,,,1.87784,12.5512,18131.3,35.1368,,-0.316853,-1.0,,,,,,,2023-08-31 17:50:53.577851+00:00,1.0084116295048704,0.013503794842991867,,,,,,,,,,,,,,,,,,,,,,,,,,,,
2023-08-31 10:50:53.776047-07:00,39.60009,3.7,-0.68,3.64,0.11,24.53,862.9,65.31,27.0,-1.0,,,,,,,,,,,,,,,,,,,,,,,2023-08-31 17:50:53.776047+00:00,1.0098239382708651,0.013527150523041341,,,,,,,,,,,,,,,,,,,,,,,,,,,,
2023-08-31 10:50:53.976093-07:00,39.800136,3.41,-0.55,3.37,0.13,23.81,862.87,68.19,29.0,-1.0,,,,,,,,,,,,,,,,,,,,,,,2023-08-31 17:50:53.976093+00:00,1.0122371329014836,0.013568106940540016,,,,,,,,,,,,,,,,,,,,,,,,,,,,
2023-08-31 10:50:54.175809-07:00,39.999852,3.39,-0.78,3.29,0.26,24.26,862.88,66.38,24.0,-1.0,,,,,,,,,,,,,,,,,,,,,,,2023-08-31 17:50:54.175809+00:00,1.0107172678763552,0.013542445023530341,,,,,,,,,,,,,,,,,,,,,,,,,,,,
2023-08-31 10:50:54.376482-07:00,40.200525,3.44,-0.47,3.4,0.11,24.02,862.88,67.33,21.0,-1.0,,,,,,,,,,,,,,,,,,,,,,,2023-08-31 17:50:54.376482+00:00,1.0115335418753804,0.013556140184360889,,,,,,,,,,,,,,,,,,,,,,,,,,,,
2023-08-31 10:50:54.576933-07:00,40.400976,3.53,-0.18,3.52,0.05,24.28,862.88,66.34,21.0,-1.0,,,,,,,,,,1.87754,11.4259,18064.8,35.141,,-0.189363,-1.0,,,,,,,2023-08-31 17:50:54.576933+00:00,1.0106493045056208,0.013541305033550523,,,,,,,,,,,,,,,,,,,,,,,,,,,,
2023-08-31 10:50:54.776054-07:00,40.600097,2.88,-0.23,2.87,0.19,24.36,862.89,65.98,20.0,-1.0,,,,,,,,,,,,,,,,,,,,,,,2023-08-31 17:50:54.776054+00:00,1.0103892517622566,0.013536786526673604,,,,,,,,,,,,,,,,,,,,,,,,,,,,
2023-08-31 10:50:54.976215-07:00,40.800258,2.98,-0.39,2.94,0.19,23.89,862.91,67.99,25.0,-1.0,,,,,,,,,,,,,,,,,,,,,,,2023-08-31 17:50:54.976215+00:00,1.0120114247143595,0.013563689202337768,,,,,,,,,,,,,,,,,,,,,,,,,,,,
2023-08-31 10:50:55.176664-07:00,41.000707,3.09,-0.42,3.05,0.1,23.78,862.9,68.42,21.0,-1.0,,,,,,,,,,,,,,,,,,,,,,,2023-08-31 17:50:55.176664+00:00,1.0123745998870817,0.01356994303488162,,,,,,,,,,,,,,,,,,,,,,,,,,,,
2023-08-31 10:50:55.376337-07:00,41.20038,2.79,-0.49,2.72,0.31,24.19,862.9,66.85,28.0,-1.0,,,,,,,,,,,,,,,,,,,,,,,2023-08-31 17:50:55.376337+00:00,1.0109786437898403,0.013546515648173529,,,,,,,,,,,,,,,,,,,,,,,,,,,,
2023-08-31 10:50:55.577717-07:00,41.40176,2.29,-0.4,2.23,0.35,24.4,862.89,66.0,25.0,-1.0,,,,,,,,,,1.88463,11.8222,18013.3,35.1454,,-0.166813,-1.0,,,,,,,2023-08-31 17:50:55.577717+00:00,1.0102534239347638,0.013534508683345901,,,,,,,,,,,,,,,,,,,,,,,,,,,,
2023-08-31 10:50:55.776252-07:00,41.600295,2.73,-0.16,2.72,0.23,24.5,862.89,65.68,21.0,-1.0,,,,,,,,,,,,,,,,,,,,,,,2023-08-31 17:50:55.776252+00:00,1.0099140140829463,0.013528817493346166,,,,,,,,,,,,,,,,,,,,,,,,,,,,
2023-08-31 10:50:55.976245-07:00,41.800288,2.43,-0.86,2.25,0.38,24.32,862.9,66.47,20.0,-1.0,,,,,,,,,,,,,,,,,,,,,,,2023-08-31 17:50:55.976245+00:00,1.0105368270564128,0.013539104663620414,,,,,,,,,,,,,,,,,,,,,,,,,,,,
2023-08-31 10:50:56.176171-07:00,42.000214,2.46,-0.18,2.44,0.17,24.28,862.92,66.56,21.0,-1.0,,,,,,,,,,,,,,,,,,,,,,,2023-08-31 17:50:56.176171+00:00,1.0106961545568216,0.013541463139426215,,,,,,,,,,,,,,,,,,,,,,,,,,,,
2023-08-31 10:50:56.375696-07:00,42.199739,2.59,0.19,2.57,0.21,24.29,862.92,66.53,22.0,-1.0,,,,,,,,,,,,,,,,,,,,,,,2023-08-31 17:50:56.375696+00:00,1.010662174723761,0.013540893203211519,,,,,,,,,,,,,,,,,,,,,,,,,,,,
2023-08-31 10:50:56.577439-07:00,42.401482,3.04,-0.07,3.04,0.11,24.1,862.92,67.33,26.0,-1.0,,,,,,,,,,1.88338,11.2537,17866.7,35.1493,,-0.121825,-1.0,,,,,,,2023-08-31 17:50:56.577439+00:00,1.0113081825057542,0.013551730362891113,,,,,,,,,,,,,,,,,,,,,,,,,,,,
2023-08-31 10:50:56.776098-07:00,42.600141,2.66,-0.36,2.63,0.18,24.06,862.92,67.55,27.0,-1.0,,,,,,,,,,,,,,,,,,,,,,,2023-08-31 17:50:56.776098+00:00,1.0114442893907858,0.013554014124303406,,,,,,,,,,,,,,,,,,,,,,,,,,,,
2023-08-31 10:50:56.976538-07:00,42.800581,2.42,-0.29,2.4,0.18,24.19,862.91,67.03,24.0,-1.0,,,,,,,,,,,,,,,,,,,,,,,2023-08-31 17:50:56.976538+00:00,1.0109903598478283,0.013546555207700556,,,,,,,,,,,,,,,,,,,,,,,,,,,,
2023-08-31 10:50:57.176411-07:00,43.000454,1.92,-0.17,1.9,0.21,24.5,862.91,65.07,21.0,-1.0,,,,,,,,,,,,,,,,,,,,,,,2023-08-31 17:50:57.176411+00:00,1.0099374217945685,0.013528896385807076,,,,,,,,,,,,,,,,,,,,,,,,,,,,
2023-08-31 10:50:57.376318-07:00,43.200361,2.16,0.46,2.11,0.15,24.4,862.92,66.09,20.0,-1.0,,,,,,,,,,,,,,,,,,,,,,,2023-08-31 17:50:57.376318+00:00,1.0102885473024215,0.013534627131887253,,,,,,,,,,,,,,,,,,,,,,,,,,,,
2023-08-31 10:50:57.578091-07:00,43.402134,2.19,0.33,2.16,0.08,24.42,862.92,65.38,20.0,-1.0,,,,,,,,,,1.88585,11.817,17776.0,35.1533,,-0.0730955,-1.0,,,,,,,2023-08-31 17:50:57.578091+00:00,1.010220644721697,0.013533488481443538,,,,,,,,,,,,,,,,,,,,,,,,,,,,
2023-08-31 10:50:57.776456-07:00,43.600499,2.01,1.0,1.74,0.18,24.74,862.92,64.27,23.0,-1.0,,,,,,,,,,,,,,,,,,,,,,,2023-08-31 17:50:57.776456+00:00,1.0091354434517286,0.013515296606571824,,,,,,,,,,,,,,,,,,,,,,,,,,,,
2023-08-31 10:50:57.976405-07:00,43.800448,1.14,0.8,0.76,0.29,25.27,862.92,62.99,27.0,-1.0,,,,,,,,,,,,,,,,,,,,,,,2023-08-31 17:50:57.976405+00:00,1.0073431983440635,0.013485275770323912,,,,,,,,,,,,,,,,,,,,,,,,,,,,
2023-08-31 10:50:58.175976-07:00,44.000019,1.72,1.04,1.32,0.38,25.34,862.92,61.99,27.0,-1.0,,,,,,,,,,,,,,,,,,,,,,,2023-08-31 17:50:58.175976+00:00,1.0071069625442577,0.013481320919192257,,,,,,,,,,,,,,,,,,,,,,,,,,,,
2023-08-31 10:50:58.376644-07:00,44.200687,1.55,-0.77,1.29,0.37,24.86,862.92,63.86,24.0,-1.0,,,,,,,,,,,,,,,,,,,,,,,2023-08-31 17:50:58.376644+00:00,1.0087290938218028,0.013508487504382148,,,,,,,,,,,,,,,,,,,,,,,,,,,,
2023-08-31 10:50:58.577219-07:00,44.401262,1.99,-0.88,1.74,0.4,24.53,862.9,65.17,21.0,-1.0,,,,,,,,,,1.8803,11.9935,17864.4,35.1577,,-0.051881,-1.0,,,,,,,2023-08-31 17:50:58.577219+00:00,1.0098239382708651,0.013527150523041341,,,,,,,,,,,,,,,,,,,,,,,,,,,,
2023-08-31 10:50:58.775698-07:00,44.599741,1.66,-0.64,1.52,0.24,24.57,862.94,64.99,20.0,-1.0,,,,,,,,,,,,,,,,,,,,,,,2023-08-31 17:50:58.775698+00:00,1.0097350683702802,0.01352503366962381,,,,,,,,,,,,,,,,,,,,,,,,,,,,
2023-08-31 10:50:58.975924-07:00,44.799967,2.28,0.01,2.28,-0.08,24.59,862.92,64.98,21.0,-1.0,,,,,,,,,,,,,,,,,,,,,,,2023-08-31 17:50:58.975924+00:00,1.0096438411024231,0.013523817834429018,,,,,,,,,,,,,,,,,,,,,,,,,,,,
2023-08-31 10:50:59.175784-07:00,44.999827,2.61,0.72,2.5,0.11,24.87,862.91,63.84,24.0,-1.0,,,,,,,,,,,,,,,,,,,,,,,2023-08-31 17:50:59.175784+00:00,1.0086835567987158,0.013507881082724304,,,,,,,,,,,,,,,,,,,,,,,,,,,,
2023-08-31 10:50:59.376296-07:00,45.200339,2.7,-0.1,2.7,0.15,24.36,862.91,65.87,27.0,-1.0,,,,,,,,,,,,,,,,,,,,,,,2023-08-31 17:50:59.376296+00:00,1.010412670488902,0.01353686552120662,,,,,,,,,,,,,,,,,,,,,,,,,,,,
2023-08-31 10:50:59.577851-07:00,45.401894,2.2,-0.26,2.18,0.11,24.3,862.91,66.12,27.0,-1.0,,,,,,,,,,1.88178,11.8098,17995.6,35.1619,,-0.0513105,-1.0,,,,,,,2023-08-31 17:50:59.577851+00:00,1.0106164854501707,0.013540283796232433,,,,,,,,,,,,,,,,,,,,,,,,,,,,
2023-08-31 10:50:59.776355-07:00,45.600398,2.31,0.05,2.31,0.03,24.56,862.92,65.16,23.0,-1.0,,,,,,,,,,,,,,,,,,,,,,,2023-08-31 17:50:59.776355+00:00,1.0097455821095545,0.013525523395018136,,,,,,,,,,,,,,,,,,,,,,,,,,,,
2023-08-31 10:50:59.975768-07:00,45.799811,2.51,-0.04,2.51,0.07,24.5,862.92,65.34,20.0,-1.0,,,,,,,,,,,,,,,,,,,,,,,2023-08-31 17:50:59.975768+00:00,1.0099491256503796,0.01352893583255071,,,,,,,,,,,,,,,,,,,,,,,,,,,,
2023-08-31 10:51:00.175999-07:00,46.000042,2.03,-0.09,2.02,0.07,24.61,862.91,64.88,20.0,-1.0,,,,,,,,,,,,,,,,,,,,,,,2023-08-31 17:51:00.175999+00:00,1.0095643256218205,0.013522641630987852,,,,,,,,,,,,,,,,,,,,,,,,,,,,
2023-08-31 10:51:00.376142-07:00,46.200185,2.26,0.51,2.2,0.04,24.67,862.91,64.87,21.0,-1.0,,,,,,,,,,,,,,,,,,,,,,,2023-08-31 17:51:00.376142+00:00,1.0093609347832693,0.013519232431597628,,,,,,,,,,,,,,,,,,,,,,,,,,,,
2023-08-31 10:51:00.578005-07:00,46.402048,2.31,0.65,2.22,0.09,24.7,862.91,64.69,24.0,-1.0,,,,,,,,,,1.88641,11.7091,18021.6,35.1665,,-0.116373,-1.0,,,,,,,2023-08-31 17:51:00.578005+00:00,1.009259270092843,0.013517528489154896,,,,,,,,,,,,,,,,,,,,,,,,,,,,
2023-08-31 10:51:00.776040-07:00,46.600083,2.48,0.32,2.46,-0.02,24.78,862.91,64.43,27.0,-1.0,,,,,,,,,,,,,,,,,,,,,,,2023-08-31 17:51:00.776040+00:00,1.0089882643478445,0.013512986783256296,,,,,,,,,,,,,,,,,,,,,,,,,,,,
2023-08-31 10:51:00.976138-07:00,46.800181,1.95,-0.21,1.92,0.28,25.17,862.9,63.64,27.0,-1.0,,,,,,,,,,,,,,,,,,,,,,,2023-08-31 17:51:00.976138+00:00,1.0076575152335447,0.013490851257531062,,,,,,,,,,,,,,,,,,,,,,,,,,,,
2023-08-31 10:51:01.176263-07:00,47.000306,1.75,0.07,1.72,0.3,25.21,862.91,63.6,23.0,-1.0,,,,,,,,,,,,,,,,,,,,,,,2023-08-31 17:51:01.176263+00:00,1.0075340983950707,0.01348862833751164,,,,,,,,,,,,,,,,,,,,,,,,,,,,
2023-08-31 10:51:01.376342-07:00,47.200385,2.42,0.27,2.41,-0.05,24.91,862.91,63.99,21.0,-1.0,,,,,,,,,,,,,,,,,,,,,,,2023-08-31 17:51:01.376342+00:00,1.0085481902877047,0.013505613145204907,,,,,,,,,,,,,,,,,,,,,,,,,,,,
2023-08-31 10:51:01.577470-07:00,47.401513,2.44,-0.22,2.43,0.1,24.92,862.91,64.78,21.0,-1.0,,,,,,,,,,1.88631,11.5323,18126.9,35.1705,,-0.204521,-1.0,,,,,,,2023-08-31 17:51:01.577470+00:00,1.0085143543367439,0.013505046282168287,,,,,,,,,,,,,,,,,,,,,,,,,,,,
2023-08-31 10:51:01.776328-07:00,47.600371,1.4,-0.47,1.3,0.23,25.22,862.9,63.62,21.0,-1.0,,,,,,,,,,,,,,,,,,,,,,,2023-08-31 17:51:01.776328+00:00,1.0074886548395316,0.01348802374225748,,,,,,,,,,,,,,,,,,,,,,,,,,,,
2023-08-31 10:51:01.976548-07:00,47.800591,1.8,0.17,1.8,-0.03,25.59,862.93,62.24,24.0,-1.0,,,,,,,,,,,,,,,,,,,,,,,2023-08-31 17:51:01.976548+00:00,1.0062758281533026,0.01346725479600123,,,,,,,,,,,,,,,,,,,,,,,,,,,,
2023-08-31 10:51:02.176242-07:00,48.000285,2.19,0.33,2.16,-0.09,25.26,862.92,63.4,27.0,-1.0,,,,,,,,,,,,,,,,,,,,,,,2023-08-31 17:51:02.176242+00:00,1.0073769553628746,0.013485840942250471,,,,,,,,,,,,,,,,,,,,,,,,,,,,
2023-08-31 10:51:02.375819-07:00,48.199862,1.65,-0.3,1.6,0.22,25.48,862.92,62.73,26.0,-1.0,,,,,,,,,,,,,,,,,,,,,,,2023-08-31 17:51:02.375819+00:00,1.0066348231920283,0.013473418310198916,,,,,,,,,,,,,,,,,,,,,,,,,,,,
2023-08-31 10:51:02.577876-07:00,48.401919,1.14,-0.43,1.01,0.29,25.84,862.93,60.65,22.0,-1.0,,,,,,,,,,1.88138,11.5766,18338.5,35.175,,-0.193771,-1.0,,,,,,,2023-08-31 17:51:02.577876+00:00,1.00543443226368,0.013453179602489313,,,,,,,,,,,,,,,,,,,,,,,,,,,,
2023-08-31 10:51:02.775977-07:00,48.60002,1.46,-0.58,1.32,0.22,25.84,862.94,60.69,20.0,-1.0,,,,,,,,,,,,,,,,,,,,,,,2023-08-31 17:51:02.775977+00:00,1.0054460836656738,0.013453218565773204,,,,,,,,,,,,,,,,,,,,,,,,,,,,
2023-08-31 10:51:02.975800-07:00,48.799843,2.17,-0.88,1.96,0.24,25.1,862.92,63.55,20.0,-1.0,,,,,,,,,,,,,,,,,,,,,,,2023-08-31 17:51:02.975800+00:00,1.0079173755233377,0.0134948902683147,,,,,,,,,,,,,,,,,,,,,,,,,,,,
2023-08-31 10:51:03.175982-07:00,49.000025,2.3,-0.92,2.09,0.24,25.61,862.9,62.32,22.0,-1.0,,,,,,,,,,,,,,,,,,,,,,,2023-08-31 17:51:03.175982+00:00,1.0061734835468976,0.013466010539675367,,,,,,,,,,,,,,,,,,,,,,,,,,,,
2023-08-31 10:51:03.376428-07:00,49.200471,1.87,-0.86,1.63,0.32,25.59,862.92,62.37,25.0,-1.0,,,,,,,,,,,,,,,,,,,,,,,2023-08-31 17:51:03.376428+00:00,1.0062641670008552,0.013467215743326164,,,,,,,,,,,,,,,,,,,,,,,,,,,,
2023-08-31 10:51:03.577401-07:00,49.401444,1.49,-0.21,1.47,0.15,25.77,862.93,61.67,27.0,-1.0,,,,,,,,,,1.87926,11.3892,18475.4,35.1788,,-0.271744,-1.0,,,,,,,2023-08-31 17:51:03.577401+00:00,1.00566988124755,0.013457117630872357,,,,,,,,,,,,,,,,,,,,,,,,,,,,
2023-08-31 10:51:03.776520-07:00,49.600563,1.76,-0.16,1.76,-0.05,24.89,862.94,65.18,25.0,-1.0,,,,,,,,,,,,,,,,,,,,,,,2023-08-31 17:51:03.776520+00:00,1.0086509346235397,0.013506864932980315,,,,,,,,,,,,,,,,,,,,,,,,,,,,
2023-08-31 10:51:03.976441-07:00,49.800484,1.9,0.08,1.9,-0.01,25.33,862.93,63.4,21.0,-1.0,,,,,,,,,,,,,,,,,,,,,,,2023-08-31 17:51:03.976441+00:00,1.007152375041938,0.013481924899355454,,,,,,,,,,,,,,,,,,,,,,,,,,,,
2023-08-31 10:51:04.175794-07:00,49.999837,1.46,-0.19,1.44,0.15,25.77,862.94,61.77,20.0,-1.0,,,,,,,,,,,,,,,,,,,,,,,2023-08-31 17:51:04.175794+00:00,1.0056815353780268,0.01345715661925345,,,,,,,,,,,,,,,,,,,,,,,,,,,,
2023-08-31 10:51:04.376453-07:00,50.200496,1.39,-0.5,1.27,0.26,25.94,862.93,60.44,20.0,-1.0,,,,,,,,,,,,,,,,,,,,,,,2023-08-31 17:51:04.376453+00:00,1.0050982677539124,0.013447557924067698,,,,,,,,,,,,,,,,,,,,,,,,,,,,
2023-08-31 10:51:04.577309-07:00,50.401352,2.3,-0.45,2.25,0.13,24.76,862.92,64.9,22.0,-1.0,,,,,,,,,,,,,,,,,,,,,,,2023-08-31 17:51:04.577309+00:00,1.0090676957800526,0.013514161270131051,,,,,,,,,,,,,,,,,,,,,,,,,,,,
2023-08-31 10:51:04.776314-07:00,50.600357,2.61,-0.65,2.51,0.29,23.93,862.91,69.07,25.0,-1.0,,,,,,,,,,,,,,,,,,,,,,,2023-08-31 17:51:04.776314+00:00,1.011875163582716,0.013561402116855865,,,,,,,,,,,,,,,,,,,,,,,,,,,,
2023-08-31 10:51:04.975922-07:00,50.799965,2.49,-0.83,2.33,0.31,24.09,862.91,68.27,27.0,-1.0,,,,,,,,,,,,,,,,,,,,,,,2023-08-31 17:51:04.975922+00:00,1.011330485793141,0.013552261633224974,,,,,,,,,,,,,,,,,,,,,,,,,,,,
2023-08-31 10:51:05.176477-07:00,51.00052,2.5,-0.8,2.34,0.37,24.23,862.92,67.06,25.0,-1.0,,,,,,,,,,,,,,,,,,,,,,,2023-08-31 17:51:05.176477+00:00,1.0108660880013298,0.01354431355444589,,,,,,,,,,,,,,,,,,,,,,,,,,,,
2023-08-31 10:51:05.375795-07:00,51.199838,2.49,-0.68,2.37,0.38,24.3,862.9,67.69,21.0,-1.0,,,,,,,,,,,,,,,,,,,,,,,2023-08-31 17:51:05.375795+00:00,1.0106047737248987,0.013540244276895453,,,,,,,,,,,,,,,,,,,,,,,,,,,,
2023-08-31 10:51:05.577806-07:00,51.401849,2.6,-1.04,2.36,0.31,24.17,862.92,68.16,20.0,-1.0,,,,,,,,,,1.87718,12.7305,18462.2,35.1832,,-0.299777,-1.0,,,,,,,2023-08-31 17:51:05.577806+00:00,1.0110700835794277,0.013547735667972766,,,,,,,,,,,,,,,,,,,,,,,,,,,,
2023-08-31 10:51:05.776484-07:00,51.600527,2.93,-1.07,2.72,0.2,24.07,862.91,68.7,21.0,-1.0,,,,,,,,,,,,,,,,,,,,,,,2023-08-31 17:51:05.776484+00:00,1.0113985384467845,0.013553403506602885,,,,,,,,,,,,,,,,,,,,,,,,,,,,
2023-08-31 10:51:05.976529-07:00,51.800572,2.61,-1.12,2.34,0.26,24.25,862.91,67.04,23.0,-1.0,,,,,,,,,,,,,,,,,,,,,,,2023-08-31 17:51:05.976529+00:00,1.0107863940724722,0.013543133703682599,,,,,,,,,,,,,,,,,,,,,,,,,,,,
2023-08-31 10:51:06.176159-07:00,52.000202,2.48,-1.11,2.18,0.41,24.32,862.91,67.61,27.0,-1.0,,,,,,,,,,,,,,,,,,,,,,,2023-08-31 17:51:06.176159+00:00,1.0105485379942625,0.013539144175655876,,,,,,,,,,,,,,,,,,,,,,,,,,,,
2023-08-31 10:51:06.375721-07:00,52.199764,2.83,-0.6,2.76,0.12,24.33,862.9,67.59,27.0,-1.0,,,,,,,,,,,,,,,,,,,,,,,2023-08-31 17:51:06.375721+00:00,1.0105028571482826,0.013538534930329534,,,,,,,,,,,,,,,,,,,,,,,,,,,,
2023-08-31 10:51:06.576627-07:00,52.40067,2.66,-0.47,2.61,0.23,24.52,862.91,66.2,24.0,-1.0,,,,,,,,,,1.88136,12.0009,18136.7,35.1873,,-0.281908,-1.0,,,,,,,2023-08-31 17:51:06.576627+00:00,1.0098695656168015,0.013527758718840155,,,,,,,,,,,,,,,,,,,,,,,,,,,,
2023-08-31 10:51:06.775804-07:00,52.599847,2.3,-0.62,2.2,0.19,24.45,862.92,66.38,21.0,-1.0,,,,,,,,,,,,,,,,,,,,,,,2023-08-31 17:51:06.775804+00:00,1.010118807963157,0.0135317808720209,,,,,,,,,,,,,,,,,,,,,,,,,,,,
2023-08-31 10:51:06.976558-07:00,52.800601,2.49,0.09,2.48,0.12,24.75,862.92,64.51,21.0,-1.0,,,,,,,,,,,,,,,,,,,,,,,2023-08-31 17:51:06.976558+00:00,1.0091015684788032,0.013514728914036336,,,,,,,,,,,,,,,,,,,,,,,,,,,,
2023-08-31 10:51:07.176337-07:00,53.00038,2.33,-0.18,2.32,0.11,24.62,862.91,65.71,21.0,-1.0,,,,,,,,,,,,,,,,,,,,,,,2023-08-31 17:51:07.176337+00:00,1.0095304214566723,0.01352207330933486,,,,,,,,,,,,,,,,,,,,,,,,,,,,
2023-08-31 10:51:07.376005-07:00,53.200048,1.92,-0.67,1.78,0.28,24.85,862.92,64.15,25.0,-1.0,,,,,,,,,,,,,,,,,,,,,,,2023-08-31 17:51:07.376005+00:00,1.008762943791394,0.013509054662324676,,,,,,,,,,,,,,,,,,,,,,,,,,,,
2023-08-31 10:51:07.577827-07:00,53.40187,1.7,-0.71,1.53,0.16,25.24,862.92,62.68,28.0,-1.0,,,,,,,,,,1.88415,11.1976,17943.3,35.1916,,-0.251936,-1.0,,,,,,,2023-08-31 17:51:07.577827+00:00,1.0074444761883288,0.01348697143105988,,,,,,,,,,,,,,,,,,,,,,,,,,,,
2023-08-31 10:51:07.776269-07:00,53.600312,1.45,-0.58,1.32,0.1,25.52,862.92,61.68,26.0,-1.0,,,,,,,,,,,,,,,,,,,,,,,2023-08-31 17:51:07.776269+00:00,1.0065000075328472,0.013471162157210495,,,,,,,,,,,,,,,,,,,,,,,,,,,,
