Timestamp,Seconds,S,Um,Vm,Wm,T,P,H,MD,Sts,Vx,Vy,Vz,Lat,Lon,Alt,Yaw,Roll,Pitch,CH4,C2H6,H2O,T_a,Batt,R,C2C1,Power,Current,SOC,Lat_a,Lon_a,TS,Timestamp_UTC
2023-08-31 10:50:14.175957-07:00,0.0,1.62,0.18,1.6,-0.23,26.5,862.91,56.58,28.0,-1.0,,,,,,,,,,,,,,,,,,,,,,,2023-08-31 17:50:14.175957+00:00
2023-08-31 10:50:14.376592-07:00,0.200635,1.81,0.15,1.8,-0.16,26.16,862.91,57.84,26.0,-1.0,,,,,,,,,,,,,,,,,,,,,,,2023-08-31 17:50:14.376592+00:00
2023-08-31 10:50:14.576566-07:00,0.400609,2.27,0.32,2.25,-0.08,25.85,862.92,58.79,22.0,-1.0,,,,,,,,,,1.87018,14.6826,18291.1,34.9991,,-0.291028,-1.0,,,,,,,2023-08-31 17:50:14.576566+00:00
2023-08-31 10:50:14.776302-07:00,0.600345,2.32,0.31,2.29,-0.16,25.8,862.91,59.17,19.0,-1.0,,,,,,,,,,,,,,,,,,,,,,,2023-08-31 17:50:14.776302+00:00
2023-08-31 10:50:14.976497-07:00,0.80054,2.26,-0.41,2.22,-0.13,25.19,862.91,61.2,19.0,-1.0,,,,,,,,,,,,,,,,,,,,,,,2023-08-31 17:50:14.976497+00:00
2023-08-31 10:50:15.175825-07:00,0.999868,2.18,-0.14,2.17,-0.01,25.4,862.91,60.57,21.0,-1.0,,,,,,,,,,,,,,,,,,,,,,,2023-08-31 17:50:15.175825+00:00
2023-08-31 10:50:15.376188-07:00,1.200231,2.34,-0.21,2.32,-0.07,25.34,862.91,60.8,25.0,-1.0,,,,,,,,,,,,,,,,,,,,,,,2023-08-31 17:50:15.376188+00:00
2023-08-31 10:50:15.576102-07:00,1.400145,2.4,-0.69,2.28,0.23,24.64,862.9,63.38,28.0,-1.0,,,,,,,,,,1.87145,14.2195,18429.6,35.0026,,-0.301284,-1.0,,,,,,,2023-08-31 17:50:15.576102+00:00
2023-08-31 10:50:15.775695-07:00,1.599738,2.24,-0.53,2.17,0.09,24.87,862.89,62.57,26.0,-1.0,,,,,,,,,,,,,,,,,,,,,,,2023-08-31 17:50:15.775695+00:00
2023-08-31 10:50:15.975905-07:00,1.799948,2.42,-0.24,2.41,-0.08,24.75,862.91,63.04,21.0,-1.0,,,,,,,,,,,,,,,,,,,,,,,2023-08-31 17:50:15.975905+00:00
2023-08-31 10:50:16.175942-07:00,1.999985,2.36,-0.37,2.33,-0.08,25.06,862.9,61.82,19.0,-1.0,,,,,,,,,,,,,,,,,,,,,,,2023-08-31 17:50:16.175942+00:00
2023-08-31 10:50:16.376289-07:00,2.200332,2.5,-0.91,2.32,0.23,25.32,862.9,60.97,19.0,-1.0,,,,,,,,,,,,,,,,,,,,,,,2023-08-31 17:50:16.376289+00:00
2023-08-31 10:50:16.576686-07:00,2.400729,2.39,-0.81,2.24,0.22,25.17,862.9,61.53,21.0,-1.0,,,,,,,,,,1.87224,14.1055,18159.3,35.0059,,-0.338351,-1.0,,,,,,,2023-08-31 17:50:16.576686+00:00
2023-08-31 10:50:16.776548-07:00,2.600591,1.86,-0.81,1.66,0.18,25.44,862.9,60.59,24.0,-1.0,,,,,,,,,,,,,,,,,,,,,,,2023-08-31 17:50:16.776548+00:00
2023-08-31 10:50:16.975750-07:00,2.799793,1.97,-0.74,1.81,0.27,25.35,862.89,60.83,28.0,-1.0,,,,,,,,,,,,,,,,,,,,,,,2023-08-31 17:50:16.975750+00:00
2023-08-31 10:50:17.175814-07:00,2.999857,1.86,-0.76,1.69,0.19,25.79,862.9,59.42,24.0,-1.0,,,,,,,,,,,,,,,,,,,,,,,2023-08-31 17:50:17.175814+00:00
2023-08-31 10:50:17.376665-07:00,3.200708,1.58,-0.79,1.36,-0.17,25.62,862.9,60.05,21.0,-1.0,,,,,,,,,,,,,,,,,,,,,,,2023-08-31 17:50:17.376665+00:00
2023-08-31 10:50:17.576424-07:00,3.400467,0.92,-0.8,0.37,0.25,25.71,862.91,59.72,20.0,-1.0,,,,,,,,,,1.88069,14.2746,17988.9,35.0089,,-0.509631,-1.0,,,,,,,2023-08-31 17:50:17.576424+00:00
2023-08-31 10:50:17.775905-07:00,3.599948,1.05,-1.03,0.03,0.16,25.97,862.9,58.8,20.0,-1.0,,,,,,,,,,,,,,,,,,,,,,,2023-08-31 17:50:17.775905+00:00
2023-08-31 10:50:17.976120-07:00,3.800163,1.1,-1.05,-0.1,0.31,26.45,862.91,56.54,22.0,-1.0,,,,,,,,,,,,,,,,,,,,,,,2023-08-31 17:50:17.976120+00:00
2023-08-31 10:50:18.176211-07:00,4.000254,1.01,-0.96,0.05,0.31,26.6,862.91,56.72,26.0,-1.0,,,,,,,,,,,,,,,,,,,,,,,2023-08-31 17:50:18.176211+00:00
2023-08-31 10:50:18.376564-07:00,4.200607,1.21,-0.2,1.19,-0.11,26.29,862.91,57.7,28.0,-1.0,,,,,,,,,,,,,,,,,,,,,,,2023-08-31 17:50:18.376564+00:00
2023-08-31 10:50:18.577578-07:00,4.401621,1.56,-0.32,1.52,0.06,25.95,862.91,58.92,23.0,-1.0,,,,,,,,,,1.87279,14.3926,18105.5,35.0129,,-0.543257,-1.0,,,,,,,2023-08-31 17:50:18.577578+00:00
2023-08-31 10:50:18.775930-07:00,4.599973,2.1,0.19,2.09,-0.15,26.0,862.91,58.74,21.0,-1.0,,,,,,,,,,,,,,,,,,,,,,,2023-08-31 17:50:18.775930+00:00
2023-08-31 10:50:18.976319-07:00,4.800362,1.69,0.43,1.62,-0.13,26.14,862.9,57.04,19.0,-1.0,,,,,,,,,,,,,,,,,,,,,,,2023-08-31 17:50:18.976319+00:00
2023-08-31 10:50:19.176064-07:00,5.000107,1.66,0.25,1.64,-0.06,26.21,862.91,57.5,20.0,-1.0,,,,,,,,,,,,,,,,,,,,,,,2023-08-31 17:50:19.176064+00:00
2023-08-31 10:50:19.376385-07:00,5.200428,1.8,0.32,1.77,0.04,26.04,862.9,57.43,22.0,-1.0,,,,,,,,,,,,,,,,,,,,,,,2023-08-31 17:50:19.376385+00:00
2023-08-31 10:50:19.578096-07:00,5.402139,2.47,0.64,2.37,-0.18,25.61,862.9,59.63,28.0,-1.0,,,,,,,,,,1.87447,13.35,18450.1,35.0166,,-0.559665,-1.0,,,,,,,2023-08-31 17:50:19.578096+00:00
2023-08-31 10:50:19.776488-07:00,5.600531,2.63,0.46,2.58,-0.14,25.61,862.9,59.66,29.0,-1.0,,,,,,,,,,,,,,,,,,,,,,,2023-08-31 17:50:19.776488+00:00
2023-08-31 10:50:19.976592-07:00,5.800635,2.09,0.27,2.07,-0.0,25.85,862.91,58.81,22.0,-1.0,,,,,,,,,,,,,,,,,,,,,,,2023-08-31 17:50:19.976592+00:00
2023-08-31 10:50:20.175773-07:00,5.999816,1.82,-0.18,1.81,0.07,25.97,862.9,58.48,21.0,-1.0,,,,,,,,,,,,,,,,,,,,,,,2023-08-31 17:50:20.175773+00:00
2023-08-31 10:50:20.376639-07:00,6.200682,1.74,-0.17,1.73,0.13,25.43,862.9,60.34,18.0,-1.0,,,,,,,,,,,,,,,,,,,,,,,2023-08-31 17:50:20.376639+00:00
2023-08-31 10:50:20.577171-07:00,6.401214,2.52,0.33,2.49,-0.18,25.66,862.91,59.53,22.0,-1.0,,,,,,,,,,1.86738,15.3434,18726.6,35.0207,,-0.610549,-1.0,,,,,,,2023-08-31 17:50:20.577171+00:00
2023-08-31 10:50:20.776592-07:00,6.600635,2.7,0.47,2.63,-0.41,25.69,862.89,59.54,23.0,-1.0,,,,,,,,,,,,,,,,,,,,,,,2023-08-31 17:50:20.776592+00:00
2023-08-31 10:50:20.975741-07:00,6.799784,2.45,0.52,2.39,-0.07,25.45,862.9,60.32,26.0,-1.0,,,,,,,,,,,,,,,,,,,,,,,2023-08-31 17:50:20.975741+00:00
2023-08-31 10:50:21.175916-07:00,6.999959,2.56,0.52,2.51,-0.08,25.02,862.89,61.89,26.0,-1.0,,,,,,,,,,,,,,,,,,,,,,,2023-08-31 17:50:21.175916+00:00
2023-08-31 10:50:21.376462-07:00,7.200505,2.11,0.11,2.1,-0.21,25.3,862.91,61.04,23.0,-1.0,,,,,,,,,,,,,,,,,,,,,,,2023-08-31 17:50:21.376462+00:00
2023-08-31 10:50:21.577461-07:00,7.401504,2.33,0.43,2.27,-0.3,25.13,862.91,61.62,20.0,-1.0,,,,,,,,,,1.86853,14.1539,18812.6,35.0246,,-0.583133,-1.0,,,,,,,2023-08-31 17:50:21.577461+00:00
2023-08-31 10:50:21.776204-07:00,7.600247,2.13,0.36,2.09,-0.25,24.88,862.92,62.71,19.0,-1.0,,,,,,,,,,,,,,,,,,,,,,,2023-08-31 17:50:21.776204+00:00
2023-08-31 10:50:21.976539-07:00,7.800582,2.3,0.63,2.19,-0.32,25.09,862.91,61.82,20.0,-1.0,,,,,,,,,,,,,,,,,,,,,,,2023-08-31 17:50:21.976539+00:00
2023-08-31 10:50:22.176299-07:00,8.000342,2.12,0.08,2.11,-0.09,24.93,862.89,62.27,23.0,-1.0,,,,,,,,,,,,,,,,,,,,,,,2023-08-31 17:50:22.176299+00:00
2023-08-31 10:50:22.376581-07:00,8.200624,2.97,-0.3,2.96,0.13,24.77,862.9,63.07,26.0,-1.0,,,,,,,,,,,,,,,,,,,,,,,2023-08-31 17:50:22.376581+00:00
2023-08-31 10:50:22.577314-07:00,8.401357,2.7,-0.32,2.68,0.07,24.42,862.89,64.41,26.0,-1.0,,,,,,,,,,1.87014,13.5738,18533.5,35.0285,,-0.52473,-1.0,,,,,,,2023-08-31 17:50:22.577314+00:00
2023-08-31 10:50:22.776206-07:00,8.600249,2.14,0.16,2.13,-0.08,24.71,862.9,63.31,22.0,-1.0,,,,,,,,,,,,,,,,,,,,,,,2023-08-31 17:50:22.776206+00:00
2023-08-31 10:50:22.975850-07:00,8.799893,2.28,0.52,2.22,-0.11,24.7,862.91,63.38,20.0,-1.0,,,,,,,,,,,,,,,,,,,,,,,2023-08-31 17:50:22.975850+00:00
2023-08-31 10:50:23.176023-07:00,9.000066,2.1,0.26,2.08,-0.09,25.0,862.91,62.22,19.0,-1.0,,,,,,,,,,,,,,,,,,,,,,,2023-08-31 17:50:23.176023+00:00
2023-08-31 10:50:23.376650-07:00,9.200693,1.8,0.35,1.77,-0.03,26.05,862.91,58.57,21.0,-1.0,,,,,,,,,,,,,,,,,,,,,,,2023-08-31 17:50:23.376650+00:00
2023-08-31 10:50:23.577423-07:00,9.401466,2.11,0.32,2.08,-0.05,25.39,862.92,60.9,24.0,-1.0,,,,,,,,,,1.87264,13.8203,18409.4,35.032,,-0.553912,-1.0,,,,,,,2023-08-31 17:50:23.577423+00:00
2023-08-31 10:50:23.776140-07:00,9.600183,2.18,0.4,2.15,-0.05,25.04,862.91,62.07,26.0,-1.0,,,,,,,,,,,,,,,,,,,,,,,2023-08-31 17:50:23.776140+00:00
2023-08-31 10:50:23.975747-07:00,9.79979,1.67,-0.05,1.66,0.15,25.21,862.9,61.56,25.0,-1.0,,,,,,,,,,,,,,,,,,,,,,,2023-08-31 17:50:23.975747+00:00
2023-08-31 10:50:24.175724-07:00,9.999767,2.06,-0.33,2.03,0.08,25.17,862.91,61.83,22.0,-1.0,,,,,,,,,,,,,,,,,,,,,,,2023-08-31 17:50:24.175724+00:00
2023-08-31 10:50:24.376540-07:00,10.200583,1.97,-0.26,1.95,0.04,25.32,862.91,61.22,21.0,-1.0,,,,,,,,,,,,,,,,,,,,,,,2023-08-31 17:50:24.376540+00:00
2023-08-31 10:50:24.577230-07:00,10.401273,1.46,-0.71,1.26,0.24,25.51,862.91,60.65,20.0,-1.0,,,,,,,,,,1.87557,14.2246,18253.0,35.0356,,-0.593385,-1.0,,,,,,,2023-08-31 17:50:24.577230+00:00
2023-08-31 10:50:24.775956-07:00,10.599999,1.83,-0.43,1.75,0.26,25.49,862.9,60.74,22.0,-1.0,,,,,,,,,,,,,,,,,,,,,,,2023-08-31 17:50:24.775956+00:00
2023-08-31 10:50:24.975840-07:00,10.799883,2.13,-0.62,2.03,0.19,25.29,862.88,61.39,25.0,-1.0,,,,,,,,,,,,,,,,,,,,,,,2023-08-31 17:50:24.975840+00:00
2023-08-31 10:50:25.176635-07:00,11.000678,2.41,-1.1,2.13,0.2,25.34,862.91,61.27,26.0,-1.0,,,,,,,,,,,,,,,,,,,,,,,2023-08-31 17:50:25.176635+00:00
2023-08-31 10:50:25.376076-07:00,11.200119,2.54,-1.46,2.08,0.04,25.08,862.91,62.22,25.0,-1.0,,,,,,,,,,,,,,,,,,,,,,,2023-08-31 17:50:25.376076+00:00
2023-08-31 10:50:25.578021-07:00,11.402064,2.56,-1.45,2.11,0.01,25.0,862.92,62.66,21.0,-1.0,,,,,,,,,,1.87519,14.2276,18387.3,35.04,,-0.603341,-1.0,,,,,,,2023-08-31 17:50:25.578021+00:00
2023-08-31 10:50:25.776467-07:00,11.60051,2.48,-0.56,2.42,0.05,25.45,862.93,60.86,19.0,-1.0,,,,,,,,,,,,,,,,,,,,,,,2023-08-31 17:50:25.776467+00:00
2023-08-31 10:50:25.976084-07:00,11.800127,2.2,-0.88,2.01,0.18,25.37,862.91,61.24,20.0,-1.0,,,,,,,,,,,,,,,,,,,,,,,2023-08-31 17:50:25.976084+00:00
2023-08-31 10:50:26.176105-07:00,12.000148,2.4,-0.5,2.34,0.24,24.9,862.9,63.05,21.0,-1.0,,,,,,,,,,,,,,,,,,,,,,,2023-08-31 17:50:26.176105+00:00
2023-08-31 10:50:26.375887-07:00,12.19993,3.07,-0.5,3.03,0.1,24.33,862.91,65.34,24.0,-1.0,,,,,,,,,,,,,,,,,,,,,,,2023-08-31 17:50:26.375887+00:00
2023-08-31 10:50:26.633991-07:00,12.458034,3.11,-0.58,3.05,0.19,23.66,862.9,68.03,26.0,-1.0,,,,,,,,,,1.87394,13.6411,18404.0,35.0439,,-0.616908,-1.0,,,,,,,2023-08-31 17:50:26.633991+00:00
2023-08-31 10:50:26.776440-07:00,12.600483,2.4,-0.56,2.31,0.28,23.82,862.91,67.31,24.0,-1.0,,,,,,,,,,,,,,,,,,,,,,,2023-08-31 17:50:26.776440+00:00
2023-08-31 10:50:26.976372-07:00,12.800415,1.87,-0.86,1.63,0.31,24.53,862.92,64.59,21.0,-1.0,,,,,,,,,,,,,,,,,,,,,,,2023-08-31 17:50:26.976372+00:00
2023-08-31 10:50:27.175917-07:00,12.99996,1.12,-0.72,0.83,0.21,24.96,862.91,62.94,19.0,-1.0,,,,,,,,,,,,,,,,,,,,,,,2023-08-31 17:50:27.175917+00:00
2023-08-31 10:50:27.376534-07:00,13.200577,1.82,-0.99,1.49,0.31,24.74,862.9,63.76,20.0,-1.0,,,,,,,,,,,,,,,,,,,,,,,2023-08-31 17:50:27.376534+00:00
2023-08-31 10:50:27.625745-07:00,13.449788,2.1,-1.03,1.82,0.22,24.7,862.92,64.0,22.0,-1.0,,,,,,,,,,1.8796,13.8655,18100.8,35.0477,,-0.63651,-1.0,,,,,,,2023-08-31 17:50:27.625745+00:00
2023-08-31 10:50:27.776442-07:00,13.600485,2.15,-0.97,1.91,0.18,24.79,862.9,63.69,27.0,-1.0,,,,,,,,,,,,,,,,,,,,,,,2023-08-31 17:50:27.776442+00:00
2023-08-31 10:50:27.976563-07:00,13.800606,1.92,-1.02,1.61,0.25,24.61,862.91,63.74,27.0,-1.0,,,,,,,,,,,,,,,,,,,,,,,2023-08-31 17:50:27.976563+00:00
2023-08-31 10:50:28.176522-07:00,14.000565,2.02,-0.68,1.87,0.33,24.8,862.91,62.97,21.0,-1.0,,,,,,,,,,,,,,,,,,,,,,,2023-08-31 17:50:28.176522+00:00
2023-08-31 10:50:28.376698-07:00,14.200741,2.46,-0.04,2.46,0.2,25.12,862.89,62.46,20.0,-1.0,,,,,,,,,,,,,,,,,,,,,,,2023-08-31 17:50:28.376698+00:00
2023-08-31 10:50:28.633354-07:00,14.457397,2.54,-0.19,2.53,0.19,24.35,862.9,64.82,20.0,-1.0,,,,,,,,,,1.87984,13.3058,17874.8,35.0513,,-0.669551,-1.0,,,,,,,2023-08-31 17:50:28.633354+00:00
2023-08-31 10:50:28.776174-07:00,14.600217,2.68,-0.46,2.63,0.24,24.37,862.89,64.78,20.0,-1.0,,,,,,,,,,,,,,,,,,,,,,,2023-08-31 17:50:28.776174+00:00
2023-08-31 10:50:28.976354-07:00,14.800397,2.92,-0.29,2.9,0.17,24.39,862.9,64.79,23.0,-1.0,,,,,,,,,,,,,,,,,,,,,,,2023-08-31 17:50:28.976354+00:00
2023-08-31 10:50:29.176211-07:00,15.000254,2.4,-0.27,2.35,0.4,24.43,862.89,64.57,26.0,-1.0,,,,,,,,,,,,,,,,,,,,,,,2023-08-31 17:50:29.176211+00:00
2023-08-31 10:50:29.376449-07:00,15.200492,2.73,-0.56,2.65,0.33,24.34,862.88,64.97,25.0,-1.0,,,,,,,,,,,,,,,,,,,,,,,2023-08-31 17:50:29.376449+00:00
2023-08-31 10:50:29.657479-07:00,15.481522,3.57,-0.12,3.56,0.11,24.44,862.88,64.53,22.0,-1.0,,,,,,,,,,1.88096,13.2276,17760.6,35.0551,,-0.720049,-1.0,,,,,,,2023-08-31 17:50:29.657479+00:00
2023-08-31 10:50:29.775780-07:00,15.599823,4.19,-0.24,4.18,-0.01,23.95,862.89,66.5,21.0,-1.0,,,,,,,,,,,,,,,,,,,,,,,2023-08-31 17:50:29.775780+00:00
2023-08-31 10:50:29.976491-07:00,15.800534,3.53,0.15,3.52,0.14,24.18,862.89,65.67,20.0,-1.0,,,,,,,,,,,,,,,,,,,,,,,2023-08-31 17:50:29.976491+00:00
2023-08-31 10:50:30.176531-07:00,16.000574,2.99,-0.23,2.98,0.22,24.24,862.89,65.42,18.0,-1.0,,,,,,,,,,,,,,,,,,,,,,,2023-08-31 17:50:30.176531+00:00
2023-08-31 10:50:30.376655-07:00,16.200698,3.26,-0.45,3.23,0.07,24.16,862.89,65.75,23.0,-1.0,,,,,,,,,,,,,,,,,,,,,,,2023-08-31 17:50:30.376655+00:00
2023-08-31 10:50:30.697221-07:00,16.521264,3.13,-0.31,3.12,0.06,24.16,862.89,65.75,27.0,-1.0,,,,,,,,,,,,,,,,,,,,,,,2023-08-31 17:50:30.697221+00:00
2023-08-31 10:50:30.776068-07:00,16.600111,2.64,-0.72,2.53,0.19,24.55,862.9,64.29,29.0,-1.0,,,,,,,,,,,,,,,,,,,,,,,2023-08-31 17:50:30.776068+00:00
2023-08-31 10:50:30.976528-07:00,16.800571,2.88,-0.43,2.85,-0.03,24.55,862.89,64.31,22.0,-1.0,,,,,,,,,,,,,,,,,,,,,,,2023-08-31 17:50:30.976528+00:00
2023-08-31 10:50:31.176386-07:00,17.000429,2.62,0.47,2.58,0.06,24.9,862.89,62.96,19.0,-1.0,,,,,,,,,,,,,,,,,,,,,,,2023-08-31 17:50:31.176386+00:00
2023-08-31 10:50:31.376323-07:00,17.200366,2.21,0.35,2.18,0.11,24.79,862.89,63.46,19.0,-1.0,,,,,,,,,,,,,,,,,,,,,,,2023-08-31 17:50:31.376323+00:00
2023-08-31 10:50:31.705176-07:00,17.529219,1.57,-0.04,1.53,0.36,25.01,862.9,62.63,20.0,-1.0,,,,,,,,,,,,,,,,,,,,,,,2023-08-31 17:50:31.705176+00:00
2023-08-31 10:50:31.776118-07:00,17.600161,1.8,-0.6,1.64,0.44,25.41,862.9,61.26,26.0,-1.0,,,,,,,,,,,,,,,,,,,,,,,2023-08-31 17:50:31.776118+00:00
2023-08-31 10:50:31.976360-07:00,17.800403,2.19,-0.73,2.04,0.25,24.92,862.91,63.06,28.0,-1.0,,,,,,,,,,,,,,,,,,,,,,,2023-08-31 17:50:31.976360+00:00
2023-08-31 10:50:32.175773-07:00,17.999816,2.18,0.16,2.17,0.13,25.29,862.91,61.65,24.0,-1.0,,,,,,,,,,,,,,,,,,,,,,,2023-08-31 17:50:32.175773+00:00
2023-08-31 10:50:32.375875-07:00,18.199918,2.62,-0.29,2.6,0.23,25.05,862.9,62.73,24.0,-1.0,,,,,,,,,,,,,,,,,,,,,,,2023-08-31 17:50:32.375875+00:00
2023-08-31 10:50:32.776960-07:00,18.601003,4.01,-0.26,4.0,-0.13,24.18,862.9,66.08,20.0,-1.0,,,,,,,,,,,,,,,,,,,,,,,2023-08-31 17:50:32.776960+00:00
2023-08-31 10:50:32.805132-07:00,18.629175,4.98,-0.39,4.96,-0.17,24.43,862.88,65.03,19.0,-1.0,,,,,,,,,,,,,,,,,,,,,,,2023-08-31 17:50:32.805132+00:00
2023-08-31 10:50:32.976236-07:00,18.800279,4.71,-0.56,4.67,-0.11,24.3,862.87,65.58,20.0,-1.0,,,,,,,,,,,,,,,,,,,,,,,2023-08-31 17:50:32.976236+00:00
2023-08-31 10:50:33.176047-07:00,19.00009,4.73,-0.21,4.72,-0.27,24.17,862.87,65.43,18.0,-1.0,,,,,,,,,,,,,,,,,,,,,,,2023-08-31 17:50:33.176047+00:00
2023-08-31 10:50:33.376026-07:00,19.200069,4.4,-0.28,4.39,-0.01,24.68,862.88,63.53,26.0,-1.0,,,,,,,,,,,,,,,,,,,,,,,2023-08-31 17:50:33.376026+00:00
2023-08-31 10:50:33.768822-07:00,19.592865,4.08,-1.04,3.94,0.1,24.88,862.88,62.69,28.0,-1.0,,,,,,,,,,,,,,,,,,,,,,,2023-08-31 17:50:33.768822+00:00
2023-08-31 10:50:33.799366-07:00,19.623409,3.43,-1.18,3.21,0.31,24.99,862.89,62.29,20.0,-1.0,,,,,,,,,,,,,,,,,,,,,,,2023-08-31 17:50:33.799366+00:00
2023-08-31 10:50:33.976653-07:00,19.800696,3.0,0.04,3.0,-0.0,25.16,862.88,61.73,20.0,-1.0,,,,,,,,,,,,,,,,,,,,,,,2023-08-31 17:50:33.976653+00:00
2023-08-31 10:50:34.175999-07:00,20.000042,3.29,0.11,3.28,-0.24,25.19,862.89,61.56,20.0,-1.0,,,,,,,,,,,,,,,,,,,,,,,2023-08-31 17:50:34.175999+00:00
2023-08-31 10:50:34.376300-07:00,20.200343,3.06,0.92,2.91,-0.11,25.83,862.89,59.44,21.0,-1.0,,,,,,,,,,,,,,,,,,,,,,,2023-08-31 17:50:34.376300+00:00
2023-08-31 10:50:34.699841-07:00,20.523884,2.47,0.37,2.44,0.1,25.42,862.9,60.78,25.0,-1.0,,,,,,,,,,,,,,,,,,,,,,,2023-08-31 17:50:34.699841+00:00
2023-08-31 10:50:34.775941-07:00,20.599984,2.85,0.19,2.84,-0.07,25.04,862.9,62.37,26.0,-1.0,,,,,,,,,,,,,,,,,,,,,,,2023-08-31 17:50:34.775941+00:00
2023-08-31 10:50:34.976410-07:00,20.800453,3.03,0.32,3.01,-0.17,25.14,862.89,61.99,24.0,-1.0,,,,,,,,,,,,,,,,,,,,,,,2023-08-31 17:50:34.976410+00:00
2023-08-31 10:50:35.175829-07:00,20.999872,2.28,-0.49,2.2,0.36,25.74,862.9,59.78,20.0,-1.0,,,,,,,,,,,,,,,,,,,,,,,2023-08-31 17:50:35.175829+00:00
2023-08-31 10:50:35.376286-07:00,21.200329,1.84,-0.76,1.65,0.28,25.85,862.89,59.48,20.0,-1.0,,,,,,,,,,,,,,,,,,,,,,,2023-08-31 17:50:35.376286+00:00
2023-08-31 10:50:35.577958-07:00,21.402001,2.09,-1.32,1.63,-0.05,26.06,862.9,58.82,19.0,-1.0,,,,,,,,,,1.87846,12.862,18073.3,35.0748,,-0.753661,-1.0,,,,,,,2023-08-31 17:50:35.577958+00:00
2023-08-31 10:50:35.776124-07:00,21.600167,2.31,-1.43,1.82,-0.08,25.93,862.9,59.17,20.0,-1.0,,,,,,,,,,,,,,,,,,,,,,,2023-08-31 17:50:35.776124+00:00
2023-08-31 10:50:35.975878-07:00,21.799921,1.74,-0.84,1.46,0.44,25.65,862.91,60.18,27.0,-1.0,,,,,,,,,,,,,,,,,,,,,,,2023-08-31 17:50:35.975878+00:00
2023-08-31 10:50:36.176413-07:00,22.000456,2.6,-0.87,2.44,0.23,24.33,862.9,65.32,27.0,-1.0,,,,,,,,,,,,,,,,,,,,,,,2023-08-31 17:50:36.176413+00:00
2023-08-31 10:50:36.376151-07:00,22.200194,2.43,-0.88,2.25,0.23,24.62,862.9,64.14,24.0,-1.0,,,,,,,,,,,,,,,,,,,,,,,2023-08-31 17:50:36.376151+00:00
2023-08-31 10:50:36.577497-07:00,22.40154,3.3,-0.88,3.17,0.2,23.98,862.87,66.58,20.0,-1.0,,,,,,,,,,1.87494,12.8498,18216.0,35.0785,,-0.72847,-1.0,,,,,,,2023-08-31 17:50:36.577497+00:00
2023-08-31 10:50:36.776687-07:00,22.60073,3.41,-0.42,3.38,0.11,24.19,862.89,65.82,18.0,-1.0,,,,,,,,,,,,,,,,,,,,,,,2023-08-31 17:50:36.776687+00:00
2023-08-31 10:50:36.976685-07:00,22.800728,3.09,-0.58,3.02,0.22,24.0,862.88,66.65,19.0,-1.0,,,,,,,,,,,,,,,,,,,,,,,2023-08-31 17:50:36.976685+00:00
2023-08-31 10:50:37.176317-07:00,23.00036,2.92,-0.48,2.88,0.08,24.59,862.91,64.32,21.0,-1.0,,,,,,,,,,,,,,,,,,,,,,,2023-08-31 17:50:37.176317+00:00
2023-08-31 10:50:37.376280-07:00,23.200323,2.91,0.18,2.9,0.07,24.76,862.88,63.68,26.0,-1.0,,,,,,,,,,,,,,,,,,,,,,,2023-08-31 17:50:37.376280+00:00
2023-08-31 10:50:37.577109-07:00,23.401152,3.11,0.12,3.11,0.14,24.12,862.89,66.15,27.0,-1.0,,,,,,,,,,1.87652,11.9692,18167.9,35.0825,,-0.636285,-1.0,,,,,,,2023-08-31 17:50:37.577109+00:00
2023-08-31 10:50:37.776387-07:00,23.60043,3.12,0.12,3.12,0.07,24.26,862.9,65.72,24.0,-1.0,,,,,,,,,,,,,,,,,,,,,,,2023-08-31 17:50:37.776387+00:00
2023-08-31 10:50:37.976095-07:00,23.800138,2.23,-0.45,2.16,0.28,24.53,862.91,64.7,20.0,-1.0,,,,,,,,,,,,,,,,,,,,,,,2023-08-31 17:50:37.976095+00:00
2023-08-31 10:50:38.176572-07:00,24.000615,2.68,-0.06,2.68,0.02,24.56,862.91,64.51,19.0,-1.0,,,,,,,,,,,,,,,,,,,,,,,2023-08-31 17:50:38.176572+00:00
2023-08-31 10:50:38.376125-07:00,24.200168,2.52,0.54,2.46,-0.14,24.89,862.91,63.43,19.0,-1.0,,,,,,,,,,,,,,,,,,,,,,,2023-08-31 17:50:38.376125+00:00
2023-08-31 10:50:38.577837-07:00,24.40188,2.12,0.09,2.12,0.01,24.93,862.9,63.29,22.0,-1.0,,,,,,,,,,1.87639,12.2471,18068.7,35.0864,,-0.607043,-1.0,,,,,,,2023-08-31 17:50:38.577837+00:00
2023-08-31 10:50:38.776348-07:00,24.600391,2.0,-0.43,1.93,0.27,25.13,862.9,62.52,26.0,-1.0,,,,,,,,,,,,,,,,,,,,,,,2023-08-31 17:50:38.776348+00:00
2023-08-31 10:50:38.975946-07:00,24.799989,2.28,0.32,2.25,-0.18,25.51,862.91,61.13,27.0,-1.0,,,,,,,,,,,,,,,,,,,,,,,2023-08-31 17:50:38.975946+00:00
2023-08-31 10:50:39.176429-07:00,25.000472,2.42,0.49,2.37,-0.07,25.36,862.91,61.67,24.0,-1.0,,,,,,,,,,,,,,,,,,,,,,,2023-08-31 17:50:39.176429+00:00
2023-08-31 10:50:39.376297-07:00,25.20034,2.68,0.55,2.62,0.17,23.81,862.9,67.72,20.0,-1.0,,,,,,,,,,,,,,,,,,,,,,,2023-08-31 17:50:39.376297+00:00
2023-08-31 10:50:39.577297-07:00,25.40134,2.69,0.67,2.6,0.19,23.58,862.91,68.69,19.0,-1.0,,,,,,,,,,1.87955,12.3485,17920.6,35.0905,,-0.615646,-1.0,,,,,,,2023-08-31 17:50:39.577297+00:00
2023-08-31 10:50:39.776493-07:00,25.600536,2.91,0.6,2.84,0.17,23.47,862.92,69.19,21.0,-1.0,,,,,,,,,,,,,,,,,,,,,,,2023-08-31 17:50:39.776493+00:00
2023-08-31 10:50:39.976380-07:00,25.800423,2.84,0.42,2.81,0.03,23.56,862.91,68.75,23.0,-1.0,,,,,,,,,,,,,,,,,,,,,,,2023-08-31 17:50:39.976380+00:00
2023-08-31 10:50:40.176199-07:00,26.000242,2.97,0.37,2.95,-0.02,24.06,862.91,66.81,27.0,-1.0,,,,,,,,,,,,,,,,,,,,,,,2023-08-31 17:50:40.176199+00:00
2023-08-31 10:50:40.375790-07:00,26.199833,3.58,0.1,3.57,-0.09,24.29,862.89,66.0,26.0,-1.0,,,,,,,,,,,,,,,,,,,,,,,2023-08-31 17:50:40.375790+00:00
2023-08-31 10:50:40.577867-07:00,26.40191,2.87,-0.56,2.81,0.18,24.57,862.89,64.8,22.0,-1.0,,,,,,,,,,1.88433,12.611,17873.5,35.0944,,-0.610927,-1.0,,,,,,,2023-08-31 17:50:40.577867+00:00
2023-08-31 10:50:40.776387-07:00,26.60043,4.04,-0.28,4.03,0.1,24.14,862.87,66.6,20.0,-1.0,,,,,,,,,,,,,,,,,,,,,,,2023-08-31 17:50:40.776387+00:00
2023-08-31 10:50:40.975760-07:00,26.799803,3.98,-0.07,3.98,0.1,23.91,862.87,67.62,19.0,-1.0,,,,,,,,,,,,,,,,,,,,,,,2023-08-31 17:50:40.975760+00:00
2023-08-31 10:50:41.175724-07:00,26.999767,3.35,0.15,3.35,0.11,24.05,862.89,66.97,21.0,-1.0,,,,,,,,,,,,,,,,,,,,,,,2023-08-31 17:50:41.175724+00:00
2023-08-31 10:50:41.375842-07:00,27.199885,3.49,0.23,3.48,-0.1,24.09,862.87,66.82,24.0,-1.0,,,,,,,,,,,,,,,,,,,,,,,2023-08-31 17:50:41.375842+00:00
2023-08-31 10:50:41.577875-07:00,27.401918,3.09,-0.31,3.07,-0.1,23.93,862.89,66.82,27.0,-1.0,,,,,,,,,,1.88666,12.4958,17674.8,35.0982,,-0.632374,-1.0,,,,,,,2023-08-31 17:50:41.577875+00:00
2023-08-31 10:50:41.776560-07:00,27.600603,3.22,0.19,3.22,0.01,24.15,862.9,66.61,26.0,-1.0,,,,,,,,,,,,,,,,,,,,,,,2023-08-31 17:50:41.776560+00:00
2023-08-31 10:50:41.976437-07:00,27.80048,3.3,-0.01,3.3,0.1,24.25,862.88,64.82,22.0,-1.0,,,,,,,,,,,,,,,,,,,,,,,2023-08-31 17:50:41.976437+00:00
2023-08-31 10:50:42.176405-07:00,28.000448,2.96,0.17,2.95,0.18,24.43,862.88,64.79,20.0,-1.0,,,,,,,,,,,,,,,,,,,,,,,2023-08-31 17:50:42.176405+00:00
2023-08-31 10:50:42.376235-07:00,28.200278,2.9,0.25,2.89,0.15,24.56,862.88,63.67,19.0,-1.0,,,,,,,,,,,,,,,,,,,,,,,2023-08-31 17:50:42.376235+00:00
2023-08-31 10:50:42.577300-07:00,28.401343,2.64,0.79,2.52,0.09,24.78,862.88,62.79,22.0,-1.0,,,,,,,,,,1.88339,12.302,17671.1,35.1023,,-0.652653,-1.0,,,,,,,2023-08-31 17:50:42.577300+00:00
2023-08-31 10:50:42.775978-07:00,28.600021,2.94,0.44,2.9,0.06,24.61,862.88,63.51,25.0,-1.0,,,,,,,,,,,,,,,,,,,,,,,2023-08-31 17:50:42.775978+00:00
2023-08-31 10:50:42.975884-07:00,28.799927,3.05,0.19,3.04,0.13,24.42,862.88,64.33,28.0,-1.0,,,,,,,,,,,,,,,,,,,,,,,2023-08-31 17:50:42.975884+00:00
2023-08-31 10:50:43.176483-07:00,29.000526,2.37,-0.46,2.3,0.36,24.56,862.88,63.88,25.0,-1.0,,,,,,,,,,,,,,,,,,,,,,,2023-08-31 17:50:43.176483+00:00
2023-08-31 10:50:43.375925-07:00,29.199968,2.46,-1.1,2.19,0.26,24.54,862.89,63.87,21.0,-1.0,,,,,,,,,,,,,,,,,,,,,,,2023-08-31 17:50:43.375925+00:00
2023-08-31 10:50:43.577400-07:00,29.401443,3.04,-0.32,3.02,0.07,24.34,862.88,64.79,19.0,-1.0,,,,,,,,,,1.88371,12.4246,17764.7,35.1064,,-0.658573,-1.0,,,,,,,2023-08-31 17:50:43.577400+00:00
2023-08-31 10:50:43.775977-07:00,29.60002,2.21,-0.81,2.05,0.09,24.52,862.89,64.1,19.0,-1.0,,,,,,,,,,,,,,,,,,,,,,,2023-08-31 17:50:43.775977+00:00
2023-08-31 10:50:43.975841-07:00,29.799884,2.48,-1.17,2.17,0.27,24.89,862.88,62.55,21.0,-1.0,,,,,,,,,,,,,,,,,,,,,,,2023-08-31 17:50:43.975841+00:00
2023-08-31 10:50:44.175823-07:00,29.999866,3.17,-0.36,3.14,0.0,24.69,862.88,63.51,25.0,-1.0,,,,,,,,,,,,,,,,,,,,,,,2023-08-31 17:50:44.175823+00:00
2023-08-31 10:50:44.376694-07:00,30.200737,1.84,-0.61,1.7,0.36,25.14,862.9,61.81,27.0,-1.0,,,,,,,,,,,,,,,,,,,,,,,2023-08-31 17:50:44.376694+00:00
2023-08-31 10:50:44.577092-07:00,30.401135,1.88,-0.39,1.83,0.09,24.97,862.89,62.4,25.0,-1.0,,,,,,,,,,1.88682,12.1595,17832.1,35.1099,,-0.687135,-1.0,,,,,,,2023-08-31 17:50:44.577092+00:00
2023-08-31 10:50:44.776322-07:00,30.600365,1.86,-0.29,1.83,0.12,25.4,862.91,60.76,21.0,-1.0,,,,,,,,,,,,,,,,,,,,,,,2023-08-31 17:50:44.776322+00:00
2023-08-31 10:50:44.976228-07:00,30.800271,2.31,-0.44,2.26,0.08,24.92,862.92,62.71,19.0,-1.0,,,,,,,,,,,,,,,,,,,,,,,2023-08-31 17:50:44.976228+00:00
2023-08-31 10:50:45.176113-07:00,31.000156,2.32,-0.23,2.3,-0.11,24.88,862.9,62.86,20.0,-1.0,,,,,,,,,,,,,,,,,,,,,,,2023-08-31 17:50:45.176113+00:00
2023-08-31 10:50:45.376670-07:00,31.200713,1.43,-0.46,1.35,0.13,25.52,862.91,60.5,23.0,-1.0,,,,,,,,,,,,,,,,,,,,,,,2023-08-31 17:50:45.376670+00:00
2023-08-31 10:50:45.577359-07:00,31.401402,1.15,-0.88,0.74,0.04,25.72,862.92,59.85,26.0,-1.0,,,,,,,,,,1.88274,12.8105,17953.0,35.1139,,-0.668245,-1.0,,,,,,,2023-08-31 17:50:45.577359+00:00
2023-08-31 10:50:45.775719-07:00,31.599762,1.59,-0.68,1.44,0.09,25.47,862.9,60.68,28.0,-1.0,,,,,,,,,,,,,,,,,,,,,,,2023-08-31 17:50:45.775719+00:00
2023-08-31 10:50:45.976362-07:00,31.800405,2.16,-0.06,2.16,-0.08,25.39,862.91,60.98,24.0,-1.0,,,,,,,,,,,,,,,,,,,,,,,2023-08-31 17:50:45.976362+00:00
2023-08-31 10:50:46.176671-07:00,32.000714,2.31,0.17,2.29,-0.17,25.53,862.9,60.53,21.0,-1.0,,,,,,,,,,,,,,,,,,,,,,,2023-08-31 17:50:46.176671+00:00
2023-08-31 10:50:46.376194-07:00,32.200237,2.28,0.69,2.17,-0.19,25.65,862.91,60.24,20.0,-1.0,,,,,,,,,,,,,,,,,,,,,,,2023-08-31 17:50:46.376194+00:00
2023-08-31 10:50:46.577377-07:00,32.40142,2.56,0.37,2.52,-0.29,25.64,862.91,60.31,20.0,-1.0,,,,,,,,,,1.88108,12.1474,18130.0,35.1182,,-0.654576,-1.0,,,,,,,2023-08-31 17:50:46.577377+00:00
2023-08-31 10:50:46.775984-07:00,32.600027,2.25,0.3,2.22,-0.24,25.51,862.91,60.79,23.0,-1.0,,,,,,,,,,,,,,,,,,,,,,,2023-08-31 17:50:46.775984+00:00
2023-08-31 10:50:46.976658-07:00,32.800701,2.81,0.65,2.73,-0.23,25.43,862.91,61.01,27.0,-1.0,,,,,,,,,,,,,,,,,,,,,,,2023-08-31 17:50:46.976658+00:00
2023-08-31 10:50:47.176404-07:00,33.000447,3.33,0.66,3.26,-0.15,24.71,862.9,63.91,27.0,-1.0,,,,,,,,,,,,,,,,,,,,,,,2023-08-31 17:50:47.176404+00:00
2023-08-31 10:50:47.376632-07:00,33.200675,3.85,0.03,3.85,-0.04,24.34,862.9,65.3,23.0,-1.0,,,,,,,,,,,,,,,,,,,,,,,2023-08-31 17:50:47.376632+00:00
2023-08-31 10:50:47.577581-07:00,33.401624,3.88,0.58,3.83,-0.04,24.22,862.9,65.67,20.0,-1.0,,,,,,,,,,1.87484,12.0967,18316.5,35.1223,,-0.587727,-1.0,,,,,,,2023-08-31 17:50:47.577581+00:00
2023-08-31 10:50:47.776449-07:00,33.600492,3.69,0.44,3.66,0.0,24.22,862.9,66.54,19.0,-1.0,,,,,,,,,,,,,,,,,,,,,,,2023-08-31 17:50:47.776449+00:00
2023-08-31 10:50:47.976653-07:00,33.800696,3.08,1.06,2.89,0.09,24.34,862.9,65.27,21.0,-1.0,,,,,,,,,,,,,,,,,,,,,,,2023-08-31 17:50:47.976653+00:00
2023-08-31 10:50:48.175771-07:00,33.999814,2.9,0.4,2.86,0.18,24.41,862.92,65.04,24.0,-1.0,,,,,,,,,,,,,,,,,,,,,,,2023-08-31 17:50:48.175771+00:00
2023-08-31 10:50:48.376662-07:00,34.200705,2.95,0.54,2.9,0.09,24.39,862.9,65.19,28.0,-1.0,,,,,,,,,,,,,,,,,,,,,,,2023-08-31 17:50:48.376662+00:00
2023-08-31 10:50:48.577529-07:00,34.401572,3.37,0.49,3.34,0.05,24.44,862.89,64.91,27.0,-1.0,,,,,,,,,,1.88131,12.6184,18222.1,35.1263,,-0.634871,-1.0,,,,,,,2023-08-31 17:50:48.577529+00:00
2023-08-31 10:50:48.775872-07:00,34.599915,3.21,0.39,3.18,0.0,24.21,862.9,65.89,23.0,-1.0,,,,,,,,,,,,,,,,,,,,,,,2023-08-31 17:50:48.775872+00:00
2023-08-31 10:50:48.976214-07:00,34.800257,2.9,1.91,2.19,0.01,24.01,862.9,66.62,20.0,-1.0,,,,,,,,,,,,,,,,,,,,,,,2023-08-31 17:50:48.976214+00:00
2023-08-31 10:50:49.176278-07:00,35.000321,1.76,-0.34,1.72,0.06,24.16,862.9,66.08,19.0,-1.0,,,,,,,,,,,,,,,,,,,,,,,2023-08-31 17:50:49.176278+00:00
2023-08-31 10:50:49.376686-07:00,35.200729,1.97,-0.21,1.96,0.08,24.49,862.92,64.87,22.0,-1.0,,,,,,,,,,,,,,,,,,,,,,,2023-08-31 17:50:49.376686+00:00
2023-08-31 10:50:49.577552-07:00,35.401595,1.52,0.0,1.52,0.01,24.74,862.91,64.02,25.0,-1.0,,,,,,,,,,1.87481,12.9248,18060.3,35.1304,,-0.605265,-1.0,,,,,,,2023-08-31 17:50:49.577552+00:00
2023-08-31 10:50:49.776492-07:00,35.600535,1.46,-0.92,1.08,0.33,24.86,862.91,63.44,28.0,-1.0,,,,,,,,,,,,,,,,,,,,,,,2023-08-31 17:50:49.776492+00:00
2023-08-31 10:50:49.976425-07:00,35.800468,1.0,-0.58,0.81,0.1,24.76,862.9,63.82,26.0,-1.0,,,,,,,,,,,,,,,,,,,,,,,2023-08-31 17:50:49.976425+00:00
2023-08-31 10:50:50.176331-07:00,36.000374,1.67,-0.1,1.67,-0.07,24.5,862.92,64.89,21.0,-1.0,,,,,,,,,,,,,,,,,,,,,,,2023-08-31 17:50:50.176331+00:00
2023-08-31 10:50:50.376671-07:00,36.200714,1.35,-0.05,1.35,0.06,24.89,862.92,63.57,20.0,-1.0,,,,,,,,,,,,,,,,,,,,,,,2023-08-31 17:50:50.376671+00:00
2023-08-31 10:50:50.577789-07:00,36.401832,1.58,0.1,1.58,0.05,25.13,862.93,62.57,19.0,-1.0,,,,,,,,,,1.88132,12.0784,18072.8,35.1353,,-0.607579,-1.0,,,,,,,2023-08-31 17:50:50.577789+00:00
2023-08-31 10:50:50.775741-07:00,36.599784,2.13,-0.03,2.12,-0.12,24.84,862.92,63.79,21.0,-1.0,,,,,,,,,,,,,,,,,,,,,,,2023-08-31 17:50:50.775741+00:00
2023-08-31 10:50:50.976390-07:00,36.800433,2.37,0.08,2.37,0.08,24.86,862.91,63.62,25.0,-1.0,,,,,,,,,,,,,,,,,,,,,,,2023-08-31 17:50:50.976390+00:00
2023-08-31 10:50:51.176088-07:00,37.000131,2.19,0.46,2.14,0.1,24.65,862.93,64.42,29.0,-1.0,,,,,,,,,,,,,,,,,,,,,,,2023-08-31 17:50:51.176088+00:00
2023-08-31 10:50:51.376686-07:00,37.200729,2.11,-0.51,2.03,0.24,24.61,862.92,64.61,25.0,-1.0,,,,,,,,,,,,,,,,,,,,,,,2023-08-31 17:50:51.376686+00:00
2023-08-31 10:50:51.577960-07:00,37.402003,2.62,-1.08,2.38,0.18,24.69,862.92,64.35,22.0,-1.0,,,,,,,,,,1.87811,11.8947,18389.8,35.1391,,-0.473703,-1.0,,,,,,,2023-08-31 17:50:51.577960+00:00
2023-08-31 10:50:51.776271-07:00,37.600314,2.16,-0.42,2.12,0.17,24.8,862.91,63.91,20.0,-1.0,,,,,,,,,,,,,,,,,,,,,,,2023-08-31 17:50:51.776271+00:00
2023-08-31 10:50:51.975901-07:00,37.799944,2.47,0.32,2.44,-0.02,24.81,862.91,63.89,20.0,-1.0,,,,,,,,,,,,,,,,,,,,,,,2023-08-31 17:50:51.975901+00:00
2023-08-31 10:50:52.176179-07:00,38.000222,2.81,0.38,2.78,0.06,24.92,862.91,63.45,23.0,-1.0,,,,,,,,,,,,,,,,,,,,,,,2023-08-31 17:50:52.176179+00:00
2023-08-31 10:50:52.376699-07:00,38.200742,3.21,0.08,3.21,0.17,23.77,862.91,67.99,26.0,-1.0,,,,,,,,,,,,,,,,,,,,,,,2023-08-31 17:50:52.376699+00:00
2023-08-31 10:50:52.577698-07:00,38.401741,3.88,0.22,3.87,0.01,23.81,862.9,67.97,28.0,-1.0,,,,,,,,,,1.87629,12.4907,18464.9,35.1402,,-0.372447,-1.0,,,,,,,2023-08-31 17:50:52.577698+00:00
2023-08-31 10:50:52.776364-07:00,38.600407,3.8,0.4,3.78,0.04,23.81,862.9,68.03,25.0,-1.0,,,,,,,,,,,,,,,,,,,,,,,2023-08-31 17:50:52.776364+00:00
2023-08-31 10:50:52.976166-07:00,38.800209,3.41,-0.28,3.4,-0.04,24.0,862.9,67.22,22.0,-1.0,,,,,,,,,,,,,,,,,,,,,,,2023-08-31 17:50:52.976166+00:00
2023-08-31 10:50:53.176173-07:00,39.000216,2.48,0.08,2.47,0.21,24.29,862.91,66.12,21.0,-1.0,,,,,,,,,,,,,,,,,,,,,,,2023-08-31 17:50:53.176173+00:00
2023-08-31 10:50:53.376579-07:00,39.200622,2.98,-0.03,2.98,-0.07,24.72,862.9,64.57,21.0,-1.0,,,,,,,,,,,,,,,,,,,,,,,2023-08-31 17:50:53.376579+00:00
2023-08-31 10:50:53.577851-07:00,39.401894,3.1,0.05,3.1,0.06,24.94,862.88,63.66,23.0,-1.0,,,,,,,,,,1.87784,12.5512,18131.3,35.1368,,-0.316853,-1.0,,,,,,,2023-08-31 17:50:53.577851+00:00
2023-08-31 10:50:53.776047-07:00,39.60009,3.7,-0.68,3.64,0.11,24.53,862.9,65.31,27.0,-1.0,,,,,,,,,,,,,,,,,,,,,,,2023-08-31 17:50:53.776047+00:00
2023-08-31 10:50:53.976093-07:00,39.800136,3.41,-0.55,3.37,0.13,23.81,862.87,68.19,29.0,-1.0,,,,,,,,,,,,,,,,,,,,,,,2023-08-31 17:50:53.976093+00:00
2023-08-31 10:50:54.175809-07:00,39.999852,3.39,-0.78,3.29,0.26,24.26,862.88,66.38,24.0,-1.0,,,,,,,,,,,,,,,,,,,,,,,2023-08-31 17:50:54.175809+00:00
2023-08-31 10:50:54.376482-07:00,40.200525,3.44,-0.47,3.4,0.11,24.02,862.88,67.33,21.0,-1.0,,,,,,,,,,,,,,,,,,,,,,,2023-08-31 17:50:54.376482+00:00
2023-08-31 10:50:54.576933-07:00,40.400976,3.53,-0.18,3.52,0.05,24.28,862.88,66.34,21.0,-1.0,,,,,,,,,,1.87754,11.4259,18064.8,35.141,,-0.189363,-1.0,,,,,,,2023-08-31 17:50:54.576933+00:00
2023-08-31 10:50:54.776054-07:00,40.600097,2.88,-0.23,2.87,0.19,24.36,862.89,65.98,20.0,-1.0,,,,,,,,,,,,,,,,,,,,,,,2023-08-31 17:50:54.776054+00:00
2023-08-31 10:50:54.976215-07:00,40.800258,2.98,-0.39,2.94,0.19,23.89,862.91,67.99,25.0,-1.0,,,,,,,,,,,,,,,,,,,,,,,2023-08-31 17:50:54.976215+00:00
2023-08-31 10:50:55.176664-07:00,41.000707,3.09,-0.42,3.05,0.1,23.78,862.9,68.42,21.0,-1.0,,,,,,,,,,,,,,,,,,,,,,,2023-08-31 17:50:55.176664+00:00
2023-08-31 10:50:55.376337-07:00,41.20038,2.79,-0.49,2.72,0.31,24.19,862.9,66.85,28.0,-1.0,,,,,,,,,,,,,,,,,,,,,,,2023-08-31 17:50:55.376337+00:00
2023-08-31 10:50:55.577717-07:00,41.40176,2.29,-0.4,2.23,0.35,24.4,862.89,66.0,25.0,-1.0,,,,,,,,,,1.88463,11.8222,18013.3,35.1454,,-0.166813,-1.0,,,,,,,2023-08-31 17:50:55.577717+00:00
2023-08-31 10:50:55.776252-07:00,41.600295,2.73,-0.16,2.72,0.23,24.5,862.89,65.68,21.0,-1.0,,,,,,,,,,,,,,,,,,,,,,,2023-08-31 17:50:55.776252+00:00
2023-08-31 10:50:55.976245-07:00,41.800288,2.43,-0.86,2.25,0.38,24.32,862.9,66.47,20.0,-1.0,,,,,,,,,,,,,,,,,,,,,,,2023-08-31 17:50:55.976245+00:00
2023-08-31 10:50:56.176171-07:00,42.000214,2.46,-0.18,2.44,0.17,24.28,862.92,66.56,21.0,-1.0,,,,,,,,,,,,,,,,,,,,,,,2023-08-31 17:50:56.176171+00:00
2023-08-31 10:50:56.375696-07:00,42.199739,2.59,0.19,2.57,0.21,24.29,862.92,66.53,22.0,-1.0,,,,,,,,,,,,,,,,,,,,,,,2023-08-31 17:50:56.375696+00:00
2023-08-31 10:50:56.577439-07:00,42.401482,3.04,-0.07,3.04,0.11,24.1,862.92,67.33,26.0,-1.0,,,,,,,,,,1.88338,11.2537,17866.7,35.1493,,-0.121825,-1.0,,,,,,,2023-08-31 17:50:56.577439+00:00
2023-08-31 10:50:56.776098-07:00,42.600141,2.66,-0.36,2.63,0.18,24.06,862.92,67.55,27.0,-1.0,,,,,,,,,,,,,,,,,,,,,,,2023-08-31 17:50:56.776098+00:00
2023-08-31 10:50:56.976538-07:00,42.800581,2.42,-0.29,2.4,0.18,24.19,862.91,67.03,24.0,-1.0,,,,,,,,,,,,,,,,,,,,,,,2023-08-31 17:50:56.976538+00:00
2023-08-31 10:50:57.176411-07:00,43.000454,1.92,-0.17,1.9,0.21,24.5,862.91,65.07,21.0,-1.0,,,,,,,,,,,,,,,,,,,,,,,2023-08-31 17:50:57.176411+00:00
2023-08-31 10:50:57.376318-07:00,43.200361,2.16,0.46,2.11,0.15,24.4,862.92,66.09,20.0,-1.0,,,,,,,,,,,,,,,,,,,,,,,2023-08-31 17:50:57.376318+00:00
2023-08-31 10:50:57.578091-07:00,43.402134,2.19,0.33,2.16,0.08,24.42,862.92,65.38,20.0,-1.0,,,,,,,,,,1.88585,11.817,17776.0,35.1533,,-0.0730955,-1.0,,,,,,,2023-08-31 17:50:57.578091+00:00
2023-08-31 10:50:57.776456-07:00,43.600499,2.01,1.0,1.74,0.18,24.74,862.92,64.27,23.0,-1.0,,,,,,,,,,,,,,,,,,,,,,,2023-08-31 17:50:57.776456+00:00
2023-08-31 10:50:57.976405-07:00,43.800448,1.14,0.8,0.76,0.29,25.27,862.92,62.99,27.0,-1.0,,,,,,,,,,,,,,,,,,,,,,,2023-08-31 17:50:57.976405+00:00
2023-08-31 10:50:58.175976-07:00,44.000019,1.72,1.04,1.32,0.38,25.34,862.92,61.99,27.0,-1.0,,,,,,,,,,,,,,,,,,,,,,,2023-08-31 17:50:58.175976+00:00
2023-08-31 10:50:58.376644-07:00,44.200687,1.55,-0.77,1.29,0.37,24.86,862.92,63.86,24.0,-1.0,,,,,,,,,,,,,,,,,,,,,,,2023-08-31 17:50:58.376644+00:00
2023-08-31 10:50:58.577219-07:00,44.401262,1.99,-0.88,1.74,0.4,24.53,862.9,65.17,21.0,-1.0,,,,,,,,,,1.8803,11.9935,17864.4,35.1577,,-0.051881,-1.0,,,,,,,2023-08-31 17:50:58.577219+00:00
2023-08-31 10:50:58.775698-07:00,44.599741,1.66,-0.64,1.52,0.24,24.57,862.94,64.99,20.0,-1.0,,,,,,,,,,,,,,,,,,,,,,,2023-08-31 17:50:58.775698+00:00
2023-08-31 10:50:58.975924-07:00,44.799967,2.28,0.01,2.28,-0.08,24.59,862.92,64.98,21.0,-1.0,,,,,,,,,,,,,,,,,,,,,,,2023-08-31 17:50:58.975924+00:00
2023-08-31 10:50:59.175784-07:00,44.999827,2.61,0.72,2.5,0.11,24.87,862.91,63.84,24.0,-1.0,,,,,,,,,,,,,,,,,,,,,,,2023-08-31 17:50:59.175784+00:00
2023-08-31 10:50:59.376296-07:00,45.200339,2.7,-0.1,2.7,0.15,24.36,862.91,65.87,27.0,-1.0,,,,,,,,,,,,,,,,,,,,,,,2023-08-31 17:50:59.376296+00:00
2023-08-31 10:50:59.577851-07:00,45.401894,2.2,-0.26,2.18,0.11,24.3,862.91,66.12,27.0,-1.0,,,,,,,,,,1.88178,11.8098,17995.6,35.1619,,-0.0513105,-1.0,,,,,,,2023-08-31 17:50:59.577851+00:00
2023-08-31 10:50:59.776355-07:00,45.600398,2.31,0.05,2.31,0.03,24.56,862.92,65.16,23.0,-1.0,,,,,,,,,,,,,,,,,,,,,,,2023-08-31 17:50:59.776355+00:00
2023-08-31 10:50:59.975768-07:00,45.799811,2.51,-0.04,2.51,0.07,24.5,862.92,65.34,20.0,-1.0,,,,,,,,,,,,,,,,,,,,,,,2023-08-31 17:50:59.975768+00:00
2023-08-31 10:51:00.175999-07:00,46.000042,2.03,-0.09,2.02,0.07,24.61,862.91,64.88,20.0,-1.0,,,,,,,,,,,,,,,,,,,,,,,2023-08-31 17:51:00.175999+00:00
2023-08-31 10:51:00.376142-07:00,46.200185,2.26,0.51,2.2,0.04,24.67,862.91,64.87,21.0,-1.0,,,,,,,,,,,,,,,,,,,,,,,2023-08-31 17:51:00.376142+00:00
2023-08-31 10:51:00.578005-07:00,46.402048,2.31,0.65,2.22,0.09,24.7,862.91,64.69,24.0,-1.0,,,,,,,,,,1.88641,11.7091,18021.6,35.1665,,-0.116373,-1.0,,,,,,,2023-08-31 17:51:00.578005+00:00
2023-08-31 10:51:00.776040-07:00,46.600083,2.48,0.32,2.46,-0.02,24.78,862.91,64.43,27.0,-1.0,,,,,,,,,,,,,,,,,,,,,,,2023-08-31 17:51:00.776040+00:00
2023-08-31 10:51:00.976138-07:00,46.800181,1.95,-0.21,1.92,0.28,25.17,862.9,63.64,27.0,-1.0,,,,,,,,,,,,,,,,,,,,,,,2023-08-31 17:51:00.976138+00:00
2023-08-31 10:51:01.176263-07:00,47.000306,1.75,0.07,1.72,0.3,25.21,862.91,63.6,23.0,-1.0,,,,,,,,,,,,,,,,,,,,,,,2023-08-31 17:51:01.176263+00:00
2023-08-31 10:51:01.376342-07:00,47.200385,2.42,0.27,2.41,-0.05,24.91,862.91,63.99,21.0,-1.0,,,,,,,,,,,,,,,,,,,,,,,2023-08-31 17:51:01.376342+00:00
2023-08-31 10:51:01.577470-07:00,47.401513,2.44,-0.22,2.43,0.1,24.92,862.91,64.78,21.0,-1.0,,,,,,,,,,1.88631,11.5323,18126.9,35.1705,,-0.204521,-1.0,,,,,,,2023-08-31 17:51:01.577470+00:00
2023-08-31 10:51:01.776328-07:00,47.600371,1.4,-0.47,1.3,0.23,25.22,862.9,63.62,21.0,-1.0,,,,,,,,,,,,,,,,,,,,,,,2023-08-31 17:51:01.776328+00:00
2023-08-31 10:51:01.976548-07:00,47.800591,1.8,0.17,1.8,-0.03,25.59,862.93,62.24,24.0,-1.0,,,,,,,,,,,,,,,,,,,,,,,2023-08-31 17:51:01.976548+00:00
2023-08-31 10:51:02.176242-07:00,48.000285,2.19,0.33,2.16,-0.09,25.26,862.92,63.4,27.0,-1.0,,,,,,,,,,,,,,,,,,,,,,,2023-08-31 17:51:02.176242+00:00
2023-08-31 10:51:02.375819-07:00,48.199862,1.65,-0.3,1.6,0.22,25.48,862.92,62.73,26.0,-1.0,,,,,,,,,,,,,,,,,,,,,,,2023-08-31 17:51:02.375819+00:00
2023-08-31 10:51:02.577876-07:00,48.401919,1.14,-0.43,1.01,0.29,25.84,862.93,60.65,22.0,-1.0,,,,,,,,,,1.88138,11.5766,18338.5,35.175,,-0.193771,-1.0,,,,,,,2023-08-31 17:51:02.577876+00:00
2023-08-31 10:51:02.775977-07:00,48.60002,1.46,-0.58,1.32,0.22,25.84,862.94,60.69,20.0,-1.0,,,,,,,,,,,,,,,,,,,,,,,2023-08-31 17:51:02.775977+00:00
2023-08-31 10:51:02.975800-07:00,48.799843,2.17,-0.88,1.96,0.24,25.1,862.92,63.55,20.0,-1.0,,,,,,,,,,,,,,,,,,,,,,,2023-08-31 17:51:02.975800+00:00
2023-08-31 10:51:03.175982-07:00,49.000025,2.3,-0.92,2.09,0.24,25.61,862.9,62.32,22.0,-1.0,,,,,,,,,,,,,,,,,,,,,,,2023-08-31 17:51:03.175982+00:00
2023-08-31 10:51:03.376428-07:00,49.200471,1.87,-0.86,1.63,0.32,25.59,862.92,62.37,25.0,-1.0,,,,,,,,,,,,,,,,,,,,,,,2023-08-31 17:51:03.376428+00:00
2023-08-31 10:51:03.577401-07:00,49.401444,1.49,-0.21,1.47,0.15,25.77,862.93,61.67,27.0,-1.0,,,,,,,,,,1.87926,11.3892,18475.4,35.1788,,-0.271744,-1.0,,,,,,,2023-08-31 17:51:03.577401+00:00
2023-08-31 10:51:03.776520-07:00,49.600563,1.76,-0.16,1.76,-0.05,24.89,862.94,65.18,25.0,-1.0,,,,,,,,,,,,,,,,,,,,,,,2023-08-31 17:51:03.776520+00:00
2023-08-31 10:51:03.976441-07:00,49.800484,1.9,0.08,1.9,-0.01,25.33,862.93,63.4,21.0,-1.0,,,,,,,,,,,,,,,,,,,,,,,2023-08-31 17:51:03.976441+00:00
2023-08-31 10:51:04.175794-07:00,49.999837,1.46,-0.19,1.44,0.15,25.77,862.94,61.77,20.0,-1.0,,,,,,,,,,,,,,,,,,,,,,,2023-08-31 17:51:04.175794+00:00
2023-08-31 10:51:04.376453-07:00,50.200496,1.39,-0.5,1.27,0.26,25.94,862.93,60.44,20.0,-1.0,,,,,,,,,,,,,,,,,,,,,,,2023-08-31 17:51:04.376453+00:00
2023-08-31 10:51:04.577309-07:00,50.401352,2.3,-0.45,2.25,0.13,24.76,862.92,64.9,22.0,-1.0,,,,,,,,,,,,,,,,,,,,,,,2023-08-31 17:51:04.577309+00:00
2023-08-31 10:51:04.776314-07:00,50.600357,2.61,-0.65,2.51,0.29,23.93,862.91,69.07,25.0,-1.0,,,,,,,,,,,,,,,,,,,,,,,2023-08-31 17:51:04.776314+00:00
2023-08-31 10:51:04.975922-07:00,50.799965,2.49,-0.83,2.33,0.31,24.09,862.91,68.27,27.0,-1.0,,,,,,,,,,,,,,,,,,,,,,,2023-08-31 17:51:04.975922+00:00
2023-08-31 10:51:05.176477-07:00,51.00052,2.5,-0.8,2.34,0.37,24.23,862.92,67.06,25.0,-1.0,,,,,,,,,,,,,,,,,,,,,,,2023-08-31 17:51:05.176477+00:00
2023-08-31 10:51:05.375795-07:00,51.199838,2.49,-0.68,2.37,0.38,24.3,862.9,67.69,21.0,-1.0,,,,,,,,,,,,,,,,,,,,,,,2023-08-31 17:51:05.375795+00:00
2023-08-31 10:51:05.577806-07:00,51.401849,2.6,-1.04,2.36,0.31,24.17,862.92,68.16,20.0,-1.0,,,,,,,,,,1.87718,12.7305,18462.2,35.1832,,-0.299777,-1.0,,,,,,,2023-08-31 17:51:05.577806+00:00
2023-08-31 10:51:05.776484-07:00,51.600527,2.93,-1.07,2.72,0.2,24.07,862.91,68.7,21.0,-1.0,,,,,,,,,,,,,,,,,,,,,,,2023-08-31 17:51:05.776484+00:00
2023-08-31 10:51:05.976529-07:00,51.800572,2.61,-1.12,2.34,0.26,24.25,862.91,67.04,23.0,-1.0,,,,,,,,,,,,,,,,,,,,,,,2023-08-31 17:51:05.976529+00:00
2023-08-31 10:51:06.176159-07:00,52.000202,2.48,-1.11,2.18,0.41,24.32,862.91,67.61,27.0,-1.0,,,,,,,,,,,,,,,,,,,,,,,2023-08-31 17:51:06.176159+00:00
2023-08-31 10:51:06.375721-07:00,52.199764,2.83,-0.6,2.76,0.12,24.33,862.9,67.59,27.0,-1.0,,,,,,,,,,,,,,,,,,,,,,,2023-08-31 17:51:06.375721+00:00
2023-08-31 10:51:06.576627-07:00,52.40067,2.66,-0.47,2.61,0.23,24.52,862.91,66.2,24.0,-1.0,,,,,,,,,,1.88136,12.0009,18136.7,35.1873,,-0.281908,-1.0,,,,,,,2023-08-31 17:51:06.576627+00:00
2023-08-31 10:51:06.775804-07:00,52.599847,2.3,-0.62,2.2,0.19,24.45,862.92,66.38,21.0,-1.0,,,,,,,,,,,,,,,,,,,,,,,2023-08-31 17:51:06.775804+00:00
2023-08-31 10:51:06.976558-07:00,52.800601,2.49,0.09,2.48,0.12,24.75,862.92,64.51,21.0,-1.0,,,,,,,,,,,,,,,,,,,,,,,2023-08-31 17:51:06.976558+00:00
2023-08-31 10:51:07.176337-07:00,53.00038,2.33,-0.18,2.32,0.11,24.62,862.91,65.71,21.0,-1.0,,,,,,,,,,,,,,,,,,,,,,,2023-08-31 17:51:07.176337+00:00
2023-08-31 10:51:07.376005-07:00,53.200048,1.92,-0.67,1.78,0.28,24.85,862.92,64.15,25.0,-1.0,,,,,,,,,,,,,,,,,,,,,,,2023-08-31 17:51:07.376005+00:00
2023-08-31 10:51:07.577827-07:00,53.40187,1.7,-0.71,1.53,0.16,25.24,862.92,62.68,28.0,-1.0,,,,,,,,,,1.88415,11.1976,17943.3,35.1916,,-0.251936,-1.0,,,,,,,2023-08-31 17:51:07.577827+00:00
2023-08-31 10:51:07.776269-07:00,53.600312,1.45,-0.58,1.32,0.1,25.52,862.92,61.68,26.0,-1.0,,,,,,,,,,,,,,,,,,,,,,,2023-08-31 17:51:07.776269+00:00
2023-08-31 10:51:07.975972-07:00,53.800015,1.64,-0.74,1.45,0.22,25.61,862.93,61.36,23.0,-1.0,,,,,,,,,,,,,,,,,,,,,,,2023-08-31 17:51:07.975972+00:00
2023-08-31 10:51:08.176370-07:00,54.000413,1.94,-0.79,1.75,0.26,25.53,862.91,61.7,21.0,-1.0,,,,,,,,,,,,,,,,,,,,,,,2023-08-31 17:51:08.176370+00:00
2023-08-31 10:51:08.376195-07:00,54.200238,1.99,-0.68,1.85,0.21,25.32,862.92,62.56,20.0,-1.0,,,,,,,,,,,,,,,,,,,,,,,2023-08-31 17:51:08.376195+00:00
2023-08-31 10:51:08.577942-07:00,54.401985,1.71,-0.65,1.56,0.19,25.61,862.92,61.37,23.0,-1.0,,,,,,,,,,1.88505,10.7923,17917.7,35.1959,,-0.321416,-1.0,,,,,,,2023-08-31 17:51:08.577942+00:00
2023-08-31 10:51:08.775983-07:00,54.600026,1.53,-0.6,1.4,0.14,25.43,862.91,62.17,25.0,-1.0,,,,,,,,,,,,,,,,,,,,,,,2023-08-31 17:51:08.775983+00:00
2023-08-31 10:51:08.975888-07:00,54.799931,1.68,-0.77,1.48,0.24,25.68,862.92,61.17,28.0,-1.0,,,,,,,,,,,,,,,,,,,,,,,2023-08-31 17:51:08.975888+00:00
2023-08-31 10:51:09.176293-07:00,55.000336,1.87,-0.5,1.8,0.13,25.56,862.92,61.68,26.0,-1.0,,,,,,,,,,,,,,,,,,,,,,,2023-08-31 17:51:09.176293+00:00
2023-08-31 10:51:09.375709-07:00,55.199752,1.75,-0.19,1.73,0.15,25.57,862.91,61.64,22.0,-1.0,,,,,,,,,,,,,,,,,,,,,,,2023-08-31 17:51:09.375709+00:00
2023-08-31 10:51:09.577286-07:00,55.401329,1.53,-0.2,1.51,0.17,25.54,862.93,61.79,20.0,-1.0,,,,,,,,,,1.88469,11.0248,18051.1,35.1998,,-0.344546,-1.0,,,,,,,2023-08-31 17:51:09.577286+00:00
2023-08-31 10:51:09.776054-07:00,55.600097,1.35,-0.56,1.2,0.23,25.62,862.92,61.51,20.0,-1.0,,,,,,,,,,,,,,,,,,,,,,,2023-08-31 17:51:09.776054+00:00
2023-08-31 10:51:09.975852-07:00,55.799895,1.08,-0.49,0.94,0.2,25.75,862.91,60.98,23.0,-1.0,,,,,,,,,,,,,,,,,,,,,,,2023-08-31 17:51:09.975852+00:00
2023-08-31 10:51:10.176619-07:00,56.000662,1.28,-0.41,1.2,0.13,25.87,862.93,60.62,26.0,-1.0,,,,,,,,,,,,,,,,,,,,,,,2023-08-31 17:51:10.176619+00:00
2023-08-31 10:51:10.375851-07:00,56.199894,1.68,-0.95,1.37,0.27,25.97,862.91,60.32,28.0,-1.0,,,,,,,,,,,,,,,,,,,,,,,2023-08-31 17:51:10.375851+00:00
2023-08-31 10:51:10.577496-07:00,56.401539,1.82,-0.82,1.61,0.23,25.76,862.92,61.13,25.0,-1.0,,,,,,,,,,1.88095,11.5385,18238.6,35.2038,,-0.324872,-1.0,,,,,,,2023-08-31 17:51:10.577496+00:00
2023-08-31 10:51:10.776300-07:00,56.600343,1.66,-0.77,1.46,0.23,25.08,862.91,63.66,21.0,-1.0,,,,,,,,,,,,,,,,,,,,,,,2023-08-31 17:51:10.776300+00:00
2023-08-31 10:51:10.976601-07:00,56.800644,1.14,-0.6,0.96,0.17,25.63,862.93,61.53,20.0,-1.0,,,,,,,,,,,,,,,,,,,,,,,2023-08-31 17:51:10.976601+00:00
2023-08-31 10:51:11.176370-07:00,57.000413,1.0,-0.01,1.0,0.08,25.96,862.93,60.42,21.0,-1.0,,,,,,,,,,,,,,,,,,,,,,,2023-08-31 17:51:11.176370+00:00
2023-08-31 10:51:11.376656-07:00,57.200699,0.94,-0.23,0.9,0.11,26.17,862.93,59.73,23.0,-1.0,,,,,,,,,,,,,,,,,,,,,,,2023-08-31 17:51:11.376656+00:00
2023-08-31 10:51:11.577549-07:00,57.401592,0.88,-0.5,0.68,0.23,26.06,862.93,60.17,27.0,-1.0,,,,,,,,,,1.87904,11.8844,18425.7,35.2079,,-0.359436,-1.0,,,,,,,2023-08-31 17:51:11.577549+00:00
2023-08-31 10:51:11.776018-07:00,57.600061,0.63,-0.4,0.46,0.17,25.92,862.92,60.63,27.0,-1.0,,,,,,,,,,,,,,,,,,,,,,,2023-08-31 17:51:11.776018+00:00
2023-08-31 10:51:11.976232-07:00,57.800275,0.91,-0.61,0.68,-0.03,25.57,862.91,61.87,24.0,-1.0,,,,,,,,,,,,,,,,,,,,,,,2023-08-31 17:51:11.976232+00:00
2023-08-31 10:51:12.176668-07:00,58.000711,1.02,-0.44,0.91,0.12,25.82,862.92,61.04,21.0,-1.0,,,,,,,,,,,,,,,,,,,,,,,2023-08-31 17:51:12.176668+00:00
2023-08-31 10:51:12.376080-07:00,58.200123,1.04,-0.41,0.91,0.31,26.13,862.92,59.95,20.0,-1.0,,,,,,,,,,,,,,,,,,,,,,,2023-08-31 17:51:12.376080+00:00
2023-08-31 10:51:12.577864-07:00,58.401907,0.89,-0.26,0.78,0.35,26.28,862.92,59.35,21.0,-1.0,,,,,,,,,,1.87399,10.683,18524.9,35.212,,-0.225707,-1.0,,,,,,,2023-08-31 17:51:12.577864+00:00
2023-08-31 10:51:12.776528-07:00,58.600571,1.53,0.24,1.51,-0.04,26.14,862.92,60.0,25.0,-1.0,,,,,,,,,,,,,,,,,,,,,,,2023-08-31 17:51:12.776528+00:00
2023-08-31 10:51:12.976299-07:00,58.800342,1.26,0.09,1.26,-0.02,26.0,862.91,60.52,27.0,-1.0,,,,,,,,,,,,,,,,,,,,,,,2023-08-31 17:51:12.976299+00:00
2023-08-31 10:51:13.176278-07:00,59.000321,1.91,0.04,1.91,-0.1,24.91,862.93,64.56,28.0,-1.0,,,,,,,,,,,,,,,,,,,,,,,2023-08-31 17:51:13.176278+00:00
2023-08-31 10:51:13.375822-07:00,59.199865,1.76,-0.4,1.71,-0.01,25.21,862.91,63.41,23.0,-1.0,,,,,,,,,,,,,,,,,,,,,,,2023-08-31 17:51:13.375822+00:00
2023-08-31 10:51:13.577677-07:00,59.40172,1.49,-0.41,1.43,0.06,24.84,862.92,64.88,21.0,-1.0,,,,,,,,,,1.87666,10.7933,18476.5,35.2166,,-0.155496,-1.0,,,,,,,2023-08-31 17:51:13.577677+00:00
2023-08-31 10:51:13.776594-07:00,59.600637,1.48,-0.25,1.45,-0.13,25.19,862.92,63.61,20.0,-1.0,,,,,,,,,,,,,,,,,,,,,,,2023-08-31 17:51:13.776594+00:00
2023-08-31 10:51:13.976016-07:00,59.800059,1.76,-0.05,1.75,-0.08,25.24,862.9,64.02,22.0,-1.0,,,,,,,,,,,,,,,,,,,,,,,2023-08-31 17:51:13.976016+00:00
2023-08-31 10:51:14.176548-07:00,60.000591,1.93,0.6,1.83,0.01,25.2,862.91,63.57,25.0,-1.0,,,,,,,,,,,,,,,,,,,,,,,2023-08-31 17:51:14.176548+00:00
2023-08-31 10:51:14.376646-07:00,60.200689,2.05,0.82,1.88,0.0,24.34,862.92,66.91,28.0,-1.0,,,,,,,,,,,,,,,,,,,,,,,2023-08-31 17:51:14.376646+00:00
2023-08-31 10:51:14.577645-07:00,60.401688,1.83,0.78,1.65,-0.15,24.84,862.91,64.95,27.0,-1.0,,,,,,,,,,1.88044,10.684,18478.0,35.2205,,-0.168623,-1.0,,,,,,,2023-08-31 17:51:14.577645+00:00
2023-08-31 10:51:14.776581-07:00,60.600624,1.99,0.94,1.75,-0.08,24.36,862.91,67.71,22.0,-1.0,,,,,,,,,,,,,,,,,,,,,,,2023-08-31 17:51:14.776581+00:00
2023-08-31 10:51:14.976063-07:00,60.800106,2.04,1.26,1.57,0.28,24.39,862.89,66.74,21.0,-1.0,,,,,,,,,,,,,,,,,,,,,,,2023-08-31 17:51:14.976063+00:00
2023-08-31 10:51:15.175772-07:00,60.999815,1.7,0.85,1.46,0.22,24.44,862.91,66.52,21.0,-1.0,,,,,,,,,,,,,,,,,,,,,,,2023-08-31 17:51:15.175772+00:00
2023-08-31 10:51:15.376088-07:00,61.200131,1.57,0.74,1.38,-0.01,24.4,862.91,67.52,23.0,-1.0,,,,,,,,,,,,,,,,,,,,,,,2023-08-31 17:51:15.376088+00:00
2023-08-31 10:51:15.577918-07:00,61.401961,1.13,0.59,0.93,0.26,24.83,862.91,65.89,26.0,-1.0,,,,,,,,,,1.87451,10.03,18477.1,35.2252,,-0.0461982,-1.0,,,,,,,2023-08-31 17:51:15.577918+00:00
2023-08-31 10:51:15.775975-07:00,61.600018,1.19,0.71,0.93,0.23,25.4,862.92,63.03,28.0,-1.0,,,,,,,,,,,,,,,,,,,,,,,2023-08-31 17:51:15.775975+00:00
2023-08-31 10:51:15.975863-07:00,61.799906,0.99,-0.98,0.18,0.03,26.41,862.93,59.37,25.0,-1.0,,,,,,,,,,,,,,,,,,,,,,,2023-08-31 17:51:15.975863+00:00
2023-08-31 10:51:16.176302-07:00,62.000345,1.27,-0.53,1.15,0.14,26.03,862.92,60.7,21.0,-1.0,,,,,,,,,,,,,,,,,,,,,,,2023-08-31 17:51:16.176302+00:00
2023-08-31 10:51:16.375763-07:00,62.199806,2.39,0.17,2.38,-0.11,25.23,862.93,63.73,19.0,-1.0,,,,,,,,,,,,,,,,,,,,,,,2023-08-31 17:51:16.375763+00:00
2023-08-31 10:51:16.577424-07:00,62.401467,3.33,-0.1,3.33,0.01,24.2,862.92,68.48,20.0,-1.0,,,,,,,,,,1.8768,10.5323,18400.0,35.2295,,-0.0286874,-1.0,,,,,,,2023-08-31 17:51:16.577424+00:00
2023-08-31 10:51:16.776145-07:00,62.600188,3.49,-0.24,3.48,-0.11,23.94,862.89,69.59,23.0,-1.0,,,,,,,,,,,,,,,,,,,,,,,2023-08-31 17:51:16.776145+00:00
2023-08-31 10:51:16.976685-07:00,62.800728,2.58,0.08,2.57,0.19,24.55,862.9,66.38,27.0,-1.0,,,,,,,,,,,,,,,,,,,,,,,2023-08-31 17:51:16.976685+00:00
2023-08-31 10:51:17.176416-07:00,63.000459,2.81,-0.14,2.8,0.11,24.49,862.9,67.39,27.0,-1.0,,,,,,,,,,,,,,,,,,,,,,,2023-08-31 17:51:17.176416+00:00
2023-08-31 10:51:17.375746-07:00,63.199789,2.99,-0.37,2.96,0.07,24.36,862.89,68.05,24.0,-1.0,,,,,,,,,,,,,,,,,,,,,,,2023-08-31 17:51:17.375746+00:00
2023-08-31 10:51:17.577491-07:00,63.401534,2.29,-0.28,2.27,0.14,24.81,862.9,66.11,21.0,-1.0,,,,,,,,,,1.87904,10.7256,18563.0,35.2339,,-0.0209267,-1.0,,,,,,,2023-08-31 17:51:17.577491+00:00
2023-08-31 10:51:17.776040-07:00,63.600083,2.11,-0.44,2.05,0.23,24.42,862.9,67.82,20.0,-1.0,,,,,,,,,,,,,,,,,,,,,,,2023-08-31 17:51:17.776040+00:00
2023-08-31 10:51:17.975923-07:00,63.799966,2.07,-0.71,1.92,0.31,24.82,862.9,65.35,22.0,-1.0,,,,,,,,,,,,,,,,,,,,,,,2023-08-31 17:51:17.975923+00:00
2023-08-31 10:51:18.176159-07:00,64.000202,2.31,-0.72,2.18,0.24,24.9,862.88,65.05,24.0,-1.0,,,,,,,,,,,,,,,,,,,,,,,2023-08-31 17:51:18.176159+00:00
2023-08-31 10:51:18.376444-07:00,64.200487,2.51,-0.17,2.49,0.22,24.76,862.88,65.73,27.0,-1.0,,,,,,,,,,,,,,,,,,,,,,,2023-08-31 17:51:18.376444+00:00
2023-08-31 10:51:18.577819-07:00,64.401862,2.6,-0.2,2.59,0.1,24.81,862.89,65.56,27.0,-1.0,,,,,,,,,,1.87444,9.95809,18360.5,35.2381,,0.124403,-1.0,,,,,,,2023-08-31 17:51:18.577819+00:00
2023-08-31 10:51:18.776565-07:00,64.600608,2.3,-0.84,2.11,0.36,25.29,862.88,63.78,23.0,-1.0,,,,,,,,,,,,,,,,,,,,,,,2023-08-31 17:51:18.776565+00:00
2023-08-31 10:51:18.976620-07:00,64.800663,2.06,-0.71,1.92,0.3,25.06,862.91,64.63,20.0,-1.0,,,,,,,,,,,,,,,,,,,,,,,2023-08-31 17:51:18.976620+00:00
2023-08-31 10:51:19.175995-07:00,65.000038,1.89,0.08,1.87,0.26,25.39,862.91,63.38,20.0,-1.0,,,,,,,,,,,,,,,,,,,,,,,2023-08-31 17:51:19.175995+00:00
2023-08-31 10:51:19.376102-07:00,65.200145,2.12,0.4,2.08,0.12,25.3,862.91,63.71,22.0,-1.0,,,,,,,,,,,,,,,,,,,,,,,2023-08-31 17:51:19.376102+00:00
2023-08-31 10:51:19.577640-07:00,65.401683,1.26,0.13,1.21,0.33,25.78,862.91,61.94,24.0,-1.0,,,,,,,,,,1.8817,10.0659,18168.7,35.2425,,0.081217,-1.0,,,,,,,2023-08-31 17:51:19.577640+00:00
2023-08-31 10:51:19.776669-07:00,65.600712,2.04,0.66,1.93,0.0,25.13,862.91,64.5,27.0,-1.0,,,,,,,,,,,,,,,,,,,,,,,2023-08-31 17:51:19.776669+00:00
2023-08-31 10:51:19.976497-07:00,65.80054,2.79,0.61,2.72,-0.02,25.02,862.9,64.92,26.0,-1.0,,,,,,,,,,,,,,,,,,,,,,,2023-08-31 17:51:19.976497+00:00
2023-08-31 10:51:20.176458-07:00,66.000501,2.7,0.13,2.69,-0.13,25.26,862.9,63.86,22.0,-1.0,,,,,,,,,,,,,,,,,,,,,,,2023-08-31 17:51:20.176458+00:00
2023-08-31 10:51:20.376082-07:00,66.200125,1.99,-0.57,1.89,0.23,25.75,862.9,62.18,20.0,-1.0,,,,,,,,,,,,,,,,,,,,,,,2023-08-31 17:51:20.376082+00:00
2023-08-31 10:51:20.577641-07:00,66.401684,1.53,-0.34,1.46,0.28,25.48,862.91,63.29,20.0,-1.0,,,,,,,,,,1.877,11.1392,18253.2,35.2472,,0.205442,-1.0,,,,,,,2023-08-31 17:51:20.577641+00:00
2023-08-31 10:51:20.775717-07:00,66.59976,1.99,0.4,1.95,0.12,25.29,862.91,63.87,23.0,-1.0,,,,,,,,,,,,,,,,,,,,,,,2023-08-31 17:51:20.775717+00:00
2023-08-31 10:51:20.976423-07:00,66.800466,3.14,0.28,3.12,-0.21,25.05,862.9,64.95,26.0,-1.0,,,,,,,,,,,,,,,,,,,,,,,2023-08-31 17:51:20.976423+00:00
2023-08-31 10:51:21.176644-07:00,67.000687,2.59,0.49,2.55,-0.1,25.14,862.89,64.61,27.0,-1.0,,,,,,,,,,,,,,,,,,,,,,,2023-08-31 17:51:21.176644+00:00
2023-08-31 10:51:21.375701-07:00,67.199744,2.75,0.54,2.7,-0.03,25.04,862.9,65.03,25.0,-1.0,,,,,,,,,,,,,,,,,,,,,,,2023-08-31 17:51:21.375701+00:00
2023-08-31 10:51:21.577623-07:00,67.401666,2.64,0.41,2.61,-0.07,25.08,862.9,64.77,22.0,-1.0,,,,,,,,,,1.8824,9.97992,18429.1,35.251,,0.151306,-1.0,,,,,,,2023-08-31 17:51:21.577623+00:00
2023-08-31 10:51:21.775771-07:00,67.599814,2.61,0.46,2.57,-0.04,24.92,862.9,65.46,21.0,-1.0,,,,,,,,,,,,,,,,,,,,,,,2023-08-31 17:51:21.775771+00:00
2023-08-31 10:51:21.976556-07:00,67.800599,2.85,0.49,2.81,-0.02,24.95,862.9,65.32,21.0,-1.0,,,,,,,,,,,,,,,,,,,,,,,2023-08-31 17:51:21.976556+00:00
2023-08-31 10:51:22.176032-07:00,68.000075,2.72,-0.06,2.72,0.05,24.85,862.91,65.73,22.0,-1.0,,,,,,,,,,,,,,,,,,,,,,,2023-08-31 17:51:22.176032+00:00
2023-08-31 10:51:22.376659-07:00,68.200702,2.84,-0.23,2.82,0.08,24.19,862.91,68.48,27.0,-1.0,,,,,,,,,,,,,,,,,,,,,,,2023-08-31 17:51:22.376659+00:00
2023-08-31 10:51:22.577453-07:00,68.401496,3.01,-0.33,2.99,0.1,24.44,862.9,67.4,27.0,-1.0,,,,,,,,,,1.87765,10.9949,18561.4,35.2553,,0.177905,-1.0,,,,,,,2023-08-31 17:51:22.577453+00:00
2023-08-31 10:51:22.776600-07:00,68.600643,2.61,-0.58,2.55,0.09,24.78,862.89,66.21,24.0,-1.0,,,,,,,,,,,,,,,,,,,,,,,2023-08-31 17:51:22.776600+00:00
2023-08-31 10:51:22.976185-07:00,68.800228,2.8,-1.03,2.6,0.13,24.97,862.9,65.38,21.0,-1.0,,,,,,,,,,,,,,,,,,,,,,,2023-08-31 17:51:22.976185+00:00
2023-08-31 10:51:23.176618-07:00,69.000661,2.65,-0.21,2.63,0.21,24.96,862.89,65.49,20.0,-1.0,,,,,,,,,,,,,,,,,,,,,,,2023-08-31 17:51:23.176618+00:00
2023-08-31 10:51:23.376601-07:00,69.200644,2.93,-1.38,2.54,0.47,24.69,862.88,66.56,22.0,-1.0,,,,,,,,,,,,,,,,,,,,,,,2023-08-31 17:51:23.376601+00:00
2023-08-31 10:51:23.577360-07:00,69.401403,2.61,-0.24,2.6,0.16,24.93,862.89,65.53,24.0,-1.0,,,,,,,,,,1.87693,10.172,18472.5,35.2595,,0.289611,-1.0,,,,,,,2023-08-31 17:51:23.577360+00:00
2023-08-31 10:51:23.775979-07:00,69.600022,2.78,0.49,2.73,-0.14,25.0,862.89,65.33,27.0,-1.0,,,,,,,,,,,,,,,,,,,,,,,2023-08-31 17:51:23.775979+00:00
2023-08-31 10:51:23.975903-07:00,69.799946,2.62,-0.46,2.57,0.09,25.1,862.9,65.03,27.0,-1.0,,,,,,,,,,,,,,,,,,,,,,,2023-08-31 17:51:23.975903+00:00
2023-08-31 10:51:24.176669-07:00,70.000712,2.32,-1.16,1.99,0.28,25.11,862.9,65.04,23.0,-1.0,,,,,,,,,,,,,,,,,,,,,,,2023-08-31 17:51:24.176669+00:00
2023-08-31 10:51:24.375930-07:00,70.199973,2.99,-0.86,2.86,0.15,24.44,862.89,67.61,21.0,-1.0,,,,,,,,,,,,,,,,,,,,,,,2023-08-31 17:51:24.375930+00:00
2023-08-31 10:51:24.577859-07:00,70.401902,2.55,-0.57,2.47,0.24,24.99,862.9,65.37,20.0,-1.0,,,,,,,,,,1.8794,10.6063,18390.5,35.2644,,0.360358,-1.0,,,,,,,2023-08-31 17:51:24.577859+00:00
2023-08-31 10:51:24.775967-07:00,70.60001,3.03,-0.68,2.95,0.19,24.42,862.89,67.82,22.0,-1.0,,,,,,,,,,,,,,,,,,,,,,,2023-08-31 17:51:24.775967+00:00
2023-08-31 10:51:24.975854-07:00,70.799897,2.99,-0.35,2.96,0.03,24.5,862.9,67.46,25.0,-1.0,,,,,,,,,,,,,,,,,,,,,,,2023-08-31 17:51:24.975854+00:00
2023-08-31 10:51:25.176700-07:00,71.000743,2.79,-0.45,2.74,0.21,24.41,862.9,67.94,28.0,-1.0,,,,,,,,,,,,,,,,,,,,,,,2023-08-31 17:51:25.176700+00:00
2023-08-31 10:51:25.376209-07:00,71.200252,2.32,-0.31,2.29,0.18,24.61,862.9,67.0,26.0,-1.0,,,,,,,,,,,,,,,,,,,,,,,2023-08-31 17:51:25.376209+00:00
2023-08-31 10:51:25.577739-07:00,71.401782,2.75,0.44,2.72,0.13,24.9,862.91,65.93,21.0,-1.0,,,,,,,,,,1.88444,10.5421,18281.7,35.2686,,0.336147,-1.0,,,,,,,2023-08-31 17:51:25.577739+00:00
2023-08-31 10:51:25.775784-07:00,71.599827,3.0,0.26,2.98,-0.09,25.05,862.9,64.57,20.0,-1.0,,,,,,,,,,,,,,,,,,,,,,,2023-08-31 17:51:25.775784+00:00
2023-08-31 10:51:25.976281-07:00,71.800324,2.7,0.13,2.7,-0.03,25.15,862.91,64.94,20.0,-1.0,,,,,,,,,,,,,,,,,,,,,,,2023-08-31 17:51:25.976281+00:00
2023-08-31 10:51:26.176396-07:00,72.000439,3.17,0.12,3.15,-0.24,25.16,862.9,64.27,22.0,-1.0,,,,,,,,,,,,,,,,,,,,,,,2023-08-31 17:51:26.176396+00:00
2023-08-31 10:51:26.376325-07:00,72.200368,2.91,0.19,2.91,0.0,24.41,862.91,67.14,25.0,-1.0,,,,,,,,,,,,,,,,,,,,,,,2023-08-31 17:51:26.376325+00:00
2023-08-31 10:51:26.577244-07:00,72.401287,3.43,-0.33,3.41,0.08,23.97,862.9,69.0,27.0,-1.0,,,,,,,,,,1.88388,11.0108,18282.7,35.2726,,0.301056,-1.0,,,,,,,2023-08-31 17:51:26.577244+00:00
2023-08-31 10:51:26.776139-07:00,72.600182,4.03,-0.39,4.01,0.15,23.85,862.88,69.64,25.0,-1.0,,,,,,,,,,,,,,,,,,,,,,,2023-08-31 17:51:26.776139+00:00
2023-08-31 10:51:26.975841-07:00,72.799884,3.1,-0.82,2.97,0.27,24.01,862.88,68.8,22.0,-1.0,,,,,,,,,,,,,,,,,,,,,,,2023-08-31 17:51:26.975841+00:00
2023-08-31 10:51:27.175961-07:00,73.000004,2.95,-0.53,2.89,0.31,24.21,862.89,68.12,20.0,-1.0,,,,,,,,,,,,,,,,,,,,,,,2023-08-31 17:51:27.175961+00:00
2023-08-31 10:51:27.376087-07:00,73.20013,3.28,0.26,3.27,0.01,24.56,862.88,66.76,20.0,-1.0,,,,,,,,,,,,,,,,,,,,,,,2023-08-31 17:51:27.376087+00:00
2023-08-31 10:51:27.577392-07:00,73.401435,3.54,0.53,3.5,-0.04,24.68,862.89,66.2,22.0,-1.0,,,,,,,,,,1.88408,10.4621,18268.7,35.2775,,0.260888,-1.0,,,,,,,2023-08-31 17:51:27.577392+00:00
2023-08-31 10:51:27.775939-07:00,73.599982,3.64,0.64,3.58,0.11,24.2,862.89,68.15,25.0,-1.0,,,,,,,,,,,,,,,,,,,,,,,2023-08-31 17:51:27.775939+00:00
2023-08-31 10:51:27.975899-07:00,73.799942,3.36,0.41,3.33,-0.0,24.48,862.89,67.08,27.0,-1.0,,,,,,,,,,,,,,,,,,,,,,,2023-08-31 17:51:27.975899+00:00
2023-08-31 10:51:28.175823-07:00,73.999866,3.22,0.25,3.21,0.15,24.34,862.9,67.59,25.0,-1.0,,,,,,,,,,,,,,,,,,,,,,,2023-08-31 17:51:28.175823+00:00
2023-08-31 10:51:28.376431-07:00,74.200474,3.07,-0.06,3.07,0.16,24.3,862.91,67.8,22.0,-1.0,,,,,,,,,,,,,,,,,,,,,,,2023-08-31 17:51:28.376431+00:00
2023-08-31 10:51:28.577904-07:00,74.401947,3.05,-0.32,3.03,0.05,24.34,862.9,67.77,21.0,-1.0,,,,,,,,,,1.88719,9.47846,18168.3,35.2819,,0.065476,-1.0,,,,,,,2023-08-31 17:51:28.577904+00:00
2023-08-31 10:51:28.776628-07:00,74.600671,2.68,-1.33,2.32,-0.05,24.62,862.91,66.66,21.0,-1.0,,,,,,,,,,,,,,,,,,,,,,,2023-08-31 17:51:28.776628+00:00
2023-08-31 10:51:28.976158-07:00,74.800201,2.86,-1.12,2.62,0.26,24.8,862.89,65.99,24.0,-1.0,,,,,,,,,,,,,,,,,,,,,,,2023-08-31 17:51:28.976158+00:00
2023-08-31 10:51:29.175906-07:00,74.999949,3.0,-0.83,2.88,0.19,25.02,862.9,65.08,27.0,-1.0,,,,,,,,,,,,,,,,,,,,,,,2023-08-31 17:51:29.175906+00:00
2023-08-31 10:51:29.376227-07:00,75.20027,2.94,-1.17,2.69,0.18,24.98,862.91,65.37,28.0,-1.0,,,,,,,,,,,,,,,,,,,,,,,2023-08-31 17:51:29.376227+00:00
2023-08-31 10:51:29.581602-07:00,75.405645,2.77,-1.53,2.3,0.23,25.27,862.91,64.18,24.0,-1.0,,,,,,,,,,1.88329,11.1408,17991.5,35.2862,,0.078118,-1.0,,,,,,,2023-08-31 17:51:29.581602+00:00
2023-08-31 10:51:29.776456-07:00,75.600499,2.83,-1.75,2.22,0.15,25.27,862.91,64.17,22.0,-1.0,,,,,,,,,,,,,,,,,,,,,,,2023-08-31 17:51:29.776456+00:00
2023-08-31 10:51:29.975991-07:00,75.800034,2.28,-1.47,1.74,0.11,25.3,862.92,64.08,20.0,-1.0,,,,,,,,,,,,,,,,,,,,,,,2023-08-31 17:51:29.975991+00:00
2023-08-31 10:51:30.175869-07:00,75.999912,1.73,-1.04,1.37,0.16,25.52,862.93,63.16,21.0,-1.0,,,,,,,,,,,,,,,,,,,,,,,2023-08-31 17:51:30.175869+00:00
2023-08-31 10:51:30.376514-07:00,76.200557,1.72,-0.54,1.62,0.19,25.24,862.93,64.23,24.0,-1.0,,,,,,,,,,,,,,,,,,,,,,,2023-08-31 17:51:30.376514+00:00
2023-08-31 10:51:30.577417-07:00,76.40146,1.52,-0.69,1.32,0.25,25.35,862.91,63.83,27.0,-1.0,,,,,,,,,,1.88444,10.1588,17963.1,35.2898,,0.0313635,-1.0,,,,,,,2023-08-31 17:51:30.577417+00:00
2023-08-31 10:51:30.776096-07:00,76.600139,1.62,-0.64,1.48,0.21,25.17,862.91,64.5,27.0,-1.0,,,,,,,,,,,,,,,,,,,,,,,2023-08-31 17:51:30.776096+00:00
2023-08-31 10:51:30.976168-07:00,76.800211,1.34,-0.41,1.26,0.23,25.53,862.91,63.13,25.0,-1.0,,,,,,,,,,,,,,,,,,,,,,,2023-08-31 17:51:30.976168+00:00
2023-08-31 10:51:31.175734-07:00,76.999777,1.81,0.09,1.81,0.03,25.37,862.91,63.73,22.0,-1.0,,,,,,,,,,,,,,,,,,,,,,,2023-08-31 17:51:31.175734+00:00
2023-08-31 10:51:31.375802-07:00,77.199845,1.97,-0.24,1.95,0.05,24.65,862.93,66.87,20.0,-1.0,,,,,,,,,,,,,,,,,,,,,,,2023-08-31 17:51:31.375802+00:00
