Timestamp,Seconds,S,Um,Vm,Wm,T,P,H,MD,Sts,Vx,Vy,Vz,Lat,Lon,Alt,Yaw,Roll,Pitch,CH4,C2H6,H20,T_a,Batt,R,C2C1,Power,Current,SOC,Lat_a,Lon_a,TS,Timestamp_UTC,Rho,Rho_err,Sc,V,U,W,WD,V_err,U_err,Sc_avg,WD_avg,V_avg,U_avg,W_avg,U_err_avg,V_err_avg,Nx,Ny,cross_wind,cross_wind_err,CH4_sub,CH4_res,CH4_adj,CH4_adj_err,BG_Samples_CH4,C2H6_sub,C2H6_res,C2H6_adj,C2H6_adj_err,BG_Samples_C2H6,x_dist,y_dist,s_dist,z_dist,velocity_s,velocity_z,x_src_dist,y_src_dist,s_src_dist,collecting,group,transect_num
2023-08-31 10:50:14.576566-07:00,0.400609,2.27,0.32,2.25,-0.08,25.85,862.92,58.79,22.0,-1.0,,,,,,,,,,1.87018,14.6826,18291.1,34.9991,,-0.291028,-1.0,,,,,,,2023-08-31 17:50:14.576566+00:00,1.005389154681724,0.013452578259548223,,,,,,,,,,,,,,,,,,,,,,,,,,,,,,,,,,,,,,False,,
2023-08-31 10:50:15.576102-07:00,1.400145,2.4,-0.69,2.28,0.23,24.64,862.9,63.38,28.0,-1.0,,,,,,,,,,1.87145,14.2195,18429.6,35.0026,,-0.301284,-1.0,,,,,,,2023-08-31 17:50:15.576102+00:00,1.0094509216040537,0.013520897416701073,,,,,,,,,,,,,,,,,,,,,,,,,,,,,,,,,,,,,,False,,
2023-08-31 10:50:16.576686-07:00,2.400729,2.39,-0.81,2.24,0.22,25.17,862.9,61.53,21.0,-1.0,,,,,,,,,,1.87224,14.1055,18159.3,35.0059,,-0.338351,-1.0,,,,,,,2023-08-31 17:50:16.576686+00:00,1.0076575152335447,0.013490851257531062,,,,,,,,,,,,,,,,,,,,,,,,,,,,,,,,,,,,,,False,,
2023-08-31 10:50:17.576424-07:00,3.400467,0.92,-0.8,0.37,0.25,25.71,862.91,59.72,20.0,-1.0,,,,,,,,,,1.88069,14.2746,17988.9,35.0089,,-0.509631,-1.0,,,,,,,2023-08-31 17:50:17.576424+00:00,1.0058484695079746,0.01346041693713627,,,,,,,,,,,,,,,,,,,,,,,,,,,,,,,,,,,,,,False,,
2023-08-31 10:50:18.577578-07:00,4.401621,1.56,-0.32,1.52,0.06,25.95,862.91,58.92,23.0,-1.0,,,,,,,,,,1.87279,14.3926,18105.5,35.0129,,-0.543257,-1.0,,,,,,,2023-08-31 17:50:18.577578+00:00,1.0050413694321407,0.013446918173031966,,,,,,,,,,,,,,,,,,,,,,,,,,,,,,,,,,,,,,False,,
2023-08-31 10:50:19.578096-07:00,5.402139,2.47,0.64,2.37,-0.18,25.61,862.9,59.63,28.0,-1.0,,,,,,,,,,1.87447,13.35,18450.1,35.0166,,-0.559665,-1.0,,,,,,,2023-08-31 17:50:19.578096+00:00,1.0061734835468976,0.013466010539675367,,,,,,,,,,,,,,,,,,,,,,,,,,,,,,,,,,,,,,False,,
2023-08-31 10:50:20.577171-07:00,6.401214,2.52,0.33,2.49,-0.18,25.66,862.91,59.53,22.0,-1.0,,,,,,,,,,1.86738,15.3434,18726.6,35.0207,,-0.610549,-1.0,,,,,,,2023-08-31 17:50:20.577171+00:00,1.0060167785454075,0.013463232659906635,,,,,,,,,,,,,,,,,,,,,,,,,,,,,,,,,,,,,,False,,
2023-08-31 10:50:21.577461-07:00,7.401504,2.33,0.43,2.27,-0.3,25.13,862.91,61.62,20.0,-1.0,,,,,,,,,,1.86853,14.1539,18812.6,35.0246,,-0.583133,-1.0,,,,,,,2023-08-31 17:50:21.577461+00:00,1.0078043234449285,0.0134931533581985,,,,,,,,,,,,,,,,,,,,,,,,,,,,,,,,,,,,,,False,,
2023-08-31 10:50:22.577314-07:00,8.401357,2.7,-0.32,2.68,0.07,24.42,862.89,64.41,26.0,-1.0,,,,,,,,,,1.87014,13.5738,18533.5,35.0285,,-0.52473,-1.0,,,,,,,2023-08-31 17:50:22.577314+00:00,1.010185523714719,0.013533370054780164,,,,,,,,,,,,,,,,,,,,,,,,,,,,,,,,,,,,,,False,,
2023-08-31 10:50:23.577423-07:00,9.401466,2.11,0.32,2.08,-0.05,25.39,862.92,60.9,24.0,-1.0,,,,,,,,,,1.87264,13.8203,18409.4,35.032,,-0.553912,-1.0,,,,,,,2023-08-31 17:50:23.577423+00:00,1.0069382905132829,0.013478497473682786,,,,,,,,,,,,,,,,,,,,,,,,,,,,,,,,,,,,,,False,,
2023-08-31 10:50:24.577230-07:00,10.401273,1.46,-0.71,1.26,0.24,25.51,862.91,60.65,20.0,-1.0,,,,,,,,,,1.87557,14.2246,18253.0,35.0356,,-0.593385,-1.0,,,,,,,2023-08-31 17:50:24.577230+00:00,1.006522043786089,0.013471687042099039,,,,,,,,,,,,,,,,,,,,,,,,,,,,,,,,,,,,,,False,,
2023-08-31 10:50:25.578021-07:00,11.402064,2.56,-1.45,2.11,0.01,25.0,862.92,62.66,21.0,-1.0,,,,,,,,,,1.87519,14.2276,18387.3,35.04,,-0.603341,-1.0,,,,,,,2023-08-31 17:50:25.578021+00:00,1.0082554326675681,0.013500552389433597,,,,,,,,,,,,,,,,,,,,,,,,,,,,,,,,,,,,,,False,,
2023-08-31 10:50:26.633991-07:00,12.458034,3.11,-0.58,3.05,0.19,23.66,862.9,68.03,26.0,-1.0,,,,,,,,,,1.87394,13.6411,18404.0,35.0439,,-0.616908,-1.0,,,,,,,2023-08-31 17:50:26.633991+00:00,1.012783901972545,0.013576815467804862,,,,,,,,,,,,,,,,,,,,,,,,,,,,,,,,,,,,,,False,,
2023-08-31 10:50:27.625745-07:00,13.449788,2.1,-1.03,1.82,0.22,24.7,862.92,64.0,22.0,-1.0,,,,,,,,,,1.8796,13.8655,18100.8,35.0477,,-0.63651,-1.0,,,,,,,2023-08-31 17:50:27.625745+00:00,1.0092709660897614,0.01351756786313932,,,,,,,,,,,,,,,,,,,,,,,,,,,,,,,,,,,,,,False,,
2023-08-31 10:50:28.633354-07:00,14.457397,2.54,-0.19,2.53,0.19,24.35,862.9,64.82,20.0,-1.0,,,,,,,,,,1.87984,13.3058,17874.8,35.0513,,-0.669551,-1.0,,,,,,,2023-08-31 17:50:28.633354+00:00,1.010434924183096,0.013537395610409977,,,,,,,,,,,,,,,,,,,,,,,,,,,,,,,,,,,,,,False,,
2023-08-31 10:50:29.657479-07:00,15.481522,3.57,-0.12,3.56,0.11,24.44,862.88,64.53,22.0,-1.0,,,,,,,,,,1.88096,13.2276,17760.6,35.0551,,-0.720049,-1.0,,,,,,,2023-08-31 17:50:29.657479+00:00,1.0101059264058159,0.013532192153967943,,,,,,,,,,,,,,,,,,,,,,,,,,,,,,,,,,,,,,False,,
2023-08-31 10:50:35.577958-07:00,21.402001,2.09,-1.32,1.63,-0.05,26.06,862.9,58.82,19.0,-1.0,,,,,,,,,,1.87846,12.862,18073.3,35.0748,,-0.753661,-1.0,,,,,,,2023-08-31 17:50:35.577958+00:00,1.004660238442803,0.013440701581054239,,,,,,,,,,,,,,,,,,,,,,,,,,,,,,,,,,,,,,False,,
2023-08-31 10:50:36.577497-07:00,22.40154,3.3,-0.88,3.17,0.2,23.98,862.87,66.58,20.0,-1.0,,,,,,,,,,1.87494,12.8498,18216.0,35.0785,,-0.72847,-1.0,,,,,,,2023-08-31 17:50:36.577497+00:00,1.0116579914058648,0.013558385822042173,,,,,,,,,,,,,,,,,,,,,,,,,,,,,,,,,,,,,,False,,
2023-08-31 10:50:37.577109-07:00,23.401152,3.11,0.12,3.11,0.14,24.12,862.89,66.15,27.0,-1.0,,,,,,,,,,1.87652,11.9692,18167.9,35.0825,,-0.636285,-1.0,,,,,,,2023-08-31 17:50:37.577109+00:00,1.0112049863484003,0.01355047002102005,,,,,,,,,,,,,,,,,,,,,,,,,,,,,,,,,,,,,,False,,
2023-08-31 10:50:38.577837-07:00,24.40188,2.12,0.09,2.12,0.01,24.93,862.9,63.29,22.0,-1.0,,,,,,,,,,1.87639,12.2471,18068.7,35.0864,,-0.607043,-1.0,,,,,,,2023-08-31 17:50:38.577837+00:00,1.0084688336838135,0.013504440177468484,,,,,,,,,,,,,,,,,,,,,,,,,,,,,,,,,,,,,,False,,
2023-08-31 10:50:39.577297-07:00,25.40134,2.69,0.67,2.6,0.19,23.58,862.91,68.69,19.0,-1.0,,,,,,,,,,1.87955,12.3485,17920.6,35.0905,,-0.615646,-1.0,,,,,,,2023-08-31 17:50:39.577297+00:00,1.013068694089419,0.013581440817119147,,,,,,,,,,,,,,,,,,,,,,,,,,,,,,,,,,,,,,False,,
2023-08-31 10:50:40.577867-07:00,26.40191,2.87,-0.56,2.81,0.18,24.57,862.89,64.8,22.0,-1.0,,,,,,,,,,1.88433,12.611,17873.5,35.0944,,-0.610927,-1.0,,,,,,,2023-08-31 17:50:40.577867+00:00,1.009676562850292,0.013524836563334678,,,,,,,,,,,,,,,,,,,,,,,,,,,,,,,,,,,,,,False,,
2023-08-31 10:50:41.577875-07:00,27.401918,3.09,-0.31,3.07,-0.1,23.93,862.89,66.82,27.0,-1.0,,,,,,,,,,1.88666,12.4958,17674.8,35.0982,,-0.632374,-1.0,,,,,,,2023-08-31 17:50:41.577875+00:00,1.0118517109593004,0.01356132280772866,,,,,,,,,,,,,,,,,,,,,,,,,,,,,,,,,,,,,,False,,
2023-08-31 10:50:42.577300-07:00,28.401343,2.64,0.79,2.52,0.09,24.78,862.88,62.79,22.0,-1.0,,,,,,,,,,1.88339,12.302,17671.1,35.1023,,-0.652653,-1.0,,,,,,,2023-08-31 17:50:42.577300+00:00,1.0089531857788971,0.013512868750514342,,,,,,,,,,,,,,,,,,,,,,,,,,,,,,,,,,,,,,False,,
2023-08-31 10:50:43.577400-07:00,29.401443,3.04,-0.32,3.02,0.07,24.34,862.88,64.79,19.0,-1.0,,,,,,,,,,1.88371,12.4246,17764.7,35.1064,,-0.658573,-1.0,,,,,,,2023-08-31 17:50:43.577400+00:00,1.010445469222854,0.013537886237484295,,,,,,,,,,,,,,,,,,,,,,,,,,,,,,,,,,,,,,False,,
2023-08-31 10:50:44.577092-07:00,30.401135,1.88,-0.39,1.83,0.09,24.97,862.89,62.4,25.0,-1.0,,,,,,,,,,1.88682,12.1595,17832.1,35.1099,,-0.687135,-1.0,,,,,,,2023-08-31 17:50:44.577092+00:00,1.0083218378229872,0.013502134143681614,,,,,,,,,,,,,,,,,,,,,,,,,,,,,,,,,,,,,,False,,
2023-08-31 10:50:45.577359-07:00,31.401402,1.15,-0.88,0.74,0.04,25.72,862.92,59.85,26.0,-1.0,,,,,,,,,,1.88274,12.8105,17953.0,35.1139,,-0.668245,-1.0,,,,,,,2023-08-31 17:50:45.577359+00:00,1.0058264705384796,0.013459892942374816,,,,,,,,,,,,,,,,,,,,,,,,,,,,,,,,,,,,,,False,,
2023-08-31 10:50:46.577377-07:00,32.40142,2.56,0.37,2.52,-0.29,25.64,862.91,60.31,20.0,-1.0,,,,,,,,,,1.88108,12.1474,18130.0,35.1182,,-0.654576,-1.0,,,,,,,2023-08-31 17:50:46.577377+00:00,1.00608411793284,0.013464359285478044,,,,,,,,,,,,,,,,,,,,,,,,,,,,,,,,,,,,,,False,,
2023-08-31 10:50:47.577581-07:00,33.401624,3.88,0.58,3.83,-0.04,24.22,862.9,65.67,20.0,-1.0,,,,,,,,,,1.87484,12.0967,18316.5,35.1223,,-0.587727,-1.0,,,,,,,2023-08-31 17:50:47.577581+00:00,1.0108766517956453,0.013544804686818221,,,,,,,,,,,,,,,,,,,,,,,,,,,,,,,,,,,,,,False,,
2023-08-31 10:50:48.577529-07:00,34.401572,3.37,0.49,3.34,0.05,24.44,862.89,64.91,27.0,-1.0,,,,,,,,,,1.88131,12.6184,18222.1,35.1263,,-0.634871,-1.0,,,,,,,2023-08-31 17:50:48.577529+00:00,1.0101176326213546,0.013532231621546955,,,,,,,,,,,,,,,,,,,,,,,,,,,,,,,,,,,,,,False,,
2023-08-31 10:50:49.577552-07:00,35.401595,1.52,0.0,1.52,0.01,24.74,862.91,64.02,25.0,-1.0,,,,,,,,,,1.87481,12.9248,18060.3,35.1304,,-0.605265,-1.0,,,,,,,2023-08-31 17:50:49.577552+00:00,1.0091237490253222,0.013515257247118077,,,,,,,,,,,,,,,,,,,,,,,,,,,,,,,,,,,,,,False,,
2023-08-31 10:50:50.577789-07:00,36.401832,1.58,0.1,1.58,0.05,25.13,862.93,62.57,19.0,-1.0,,,,,,,,,,1.88132,12.0784,18072.8,35.1353,,-0.607579,-1.0,,,,,,,2023-08-31 17:50:50.577789+00:00,1.0078276817169023,0.013493231794835464,,,,,,,,,,,,,,,,,,,,,,,,,,,,,,,,,,,,,,False,,
2023-08-31 10:50:51.577960-07:00,37.402003,2.62,-1.08,2.38,0.18,24.69,862.92,64.35,22.0,-1.0,,,,,,,,,,1.87811,11.8947,18389.8,35.1391,,-0.473703,-1.0,,,,,,,2023-08-31 17:50:51.577960+00:00,1.0093048524369979,0.013518135798918456,,,,,,,,,,,,,,,,,,,,,,,,,,,,,,,,,,,,,,False,,
2023-08-31 10:50:52.577698-07:00,38.401741,3.88,0.22,3.87,0.01,23.81,862.9,67.97,28.0,-1.0,,,,,,,,,,1.87629,12.4907,18464.9,35.1402,,-0.372447,-1.0,,,,,,,2023-08-31 17:50:52.577698+00:00,1.012272326052233,0.013568226034814394,,,,,,,,,,,,,,,,,,,,,,,,,,,,,,,,,,,,,,False,,
2023-08-31 10:50:53.577851-07:00,39.401894,3.1,0.05,3.1,0.06,24.94,862.88,63.66,23.0,-1.0,,,,,,,,,,1.87784,12.5512,18131.3,35.1368,,-0.316853,-1.0,,,,,,,2023-08-31 17:50:53.577851+00:00,1.0084116295048704,0.013503794842991867,,,,,,,,,,,,,,,,,,,,,,,,,,,,,,,,,,,,,,False,,
2023-08-31 10:50:54.576933-07:00,40.400976,3.53,-0.18,3.52,0.05,24.28,862.88,66.34,21.0,-1.0,,,,,,,,,,1.87754,11.4259,18064.8,35.141,,-0.189363,-1.0,,,,,,,2023-08-31 17:50:54.576933+00:00,1.0106493045056208,0.013541305033550523,,,,,,,,,,,,,,,,,,,,,,,,,,,,,,,,,,,,,,False,,
2023-08-31 10:50:55.577717-07:00,41.40176,2.29,-0.4,2.23,0.35,24.4,862.89,66.0,25.0,-1.0,,,,,,,,,,1.88463,11.8222,18013.3,35.1454,,-0.166813,-1.0,,,,,,,2023-08-31 17:50:55.577717+00:00,1.0102534239347638,0.013534508683345901,,,,,,,,,,,,,,,,,,,,,,,,,,,,,,,,,,,,,,False,,
2023-08-31 10:50:56.577439-07:00,42.401482,3.04,-0.07,3.04,0.11,24.1,862.92,67.33,26.0,-1.0,,,,,,,,,,1.88338,11.2537,17866.7,35.1493,,-0.121825,-1.0,,,,,,,2023-08-31 17:50:56.577439+00:00,1.0113081825057542,0.013551730362891113,,,,,,,,,,,,,,,,,,,,,,,,,,,,,,,,,,,,,,False,,
2023-08-31 10:50:57.578091-07:00,43.402134,2.19,0.33,2.16,0.08,24.42,862.92,65.38,20.0,-1.0,,,,,,,,,,1.88585,11.817,17776.0,35.1533,,-0.0730955,-1.0,,,,,,,2023-08-31 17:50:57.578091+00:00,1.010220644721697,0.013533488481443538,,,,,,,,,,,,,,,,,,,,,,,,,,,,,,,,,,,,,,False,,
2023-08-31 10:50:58.577219-07:00,44.401262,1.99,-0.88,1.74,0.4,24.53,862.9,65.17,21.0,-1.0,,,,,,,,,,1.8803,11.9935,17864.4,35.1577,,-0.051881,-1.0,,,,,,,2023-08-31 17:50:58.577219+00:00,1.0098239382708651,0.013527150523041341,,,,,,,,,,,,,,,,,,,,,,,,,,,,,,,,,,,,,,False,,
2023-08-31 10:50:59.577851-07:00,45.401894,2.2,-0.26,2.18,0.11,24.3,862.91,66.12,27.0,-1.0,,,,,,,,,,1.88178,11.8098,17995.6,35.1619,,-0.0513105,-1.0,,,,,,,2023-08-31 17:50:59.577851+00:00,1.0106164854501707,0.013540283796232433,,,,,,,,,,,,,,,,,,,,,,,,,,,,,,,,,,,,,,False,,
2023-08-31 10:51:00.578005-07:00,46.402048,2.31,0.65,2.22,0.09,24.7,862.91,64.69,24.0,-1.0,,,,,,,,,,1.88641,11.7091,18021.6,35.1665,,-0.116373,-1.0,,,,,,,2023-08-31 17:51:00.578005+00:00,1.009259270092843,0.013517528489154896,,,,,,,,,,,,,,,,,,,,,,,,,,,,,,,,,,,,,,False,,
2023-08-31 10:51:01.577470-07:00,47.401513,2.44,-0.22,2.43,0.1,24.92,862.91,64.78,21.0,-1.0,,,,,,,,,,1.88631,11.5323,18126.9,35.1705,,-0.204521,-1.0,,,,,,,2023-08-31 17:51:01.577470+00:00,1.0085143543367439,0.013505046282168287,,,,,,,,,,,,,,,,,,,,,,,,,,,,,,,,,,,,,,False,,
2023-08-31 10:51:02.577876-07:00,48.401919,1.14,-0.43,1.01,0.29,25.84,862.93,60.65,22.0,-1.0,,,,,,,,,,1.88138,11.5766,18338.5,35.175,,-0.193771,-1.0,,,,,,,2023-08-31 17:51:02.577876+00:00,1.00543443226368,0.013453179602489313,,,,,,,,,,,,,,,,,,,,,,,,,,,,,,,,,,,,,,False,,
2023-08-31 10:51:03.577401-07:00,49.401444,1.49,-0.21,1.47,0.15,25.77,862.93,61.67,27.0,-1.0,,,,,,,,,,1.87926,11.3892,18475.4,35.1788,,-0.271744,-1.0,,,,,,,2023-08-31 17:51:03.577401+00:00,1.00566988124755,0.013457117630872357,,,,,,,,,,,,,,,,,,,,,,,,,,,,,,,,,,,,,,False,,
2023-08-31 10:51:05.577806-07:00,51.401849,2.6,-1.04,2.36,0.31,24.17,862.92,68.16,20.0,-1.0,,,,,,,,,,1.87718,12.7305,18462.2,35.1832,,-0.299777,-1.0,,,,,,,2023-08-31 17:51:05.577806+00:00,1.0110700835794277,0.013547735667972766,,,,,,,,,,,,,,,,,,,,,,,,,,,,,,,,,,,,,,False,,
2023-08-31 10:51:06.576627-07:00,52.40067,2.66,-0.47,2.61,0.23,24.52,862.91,66.2,24.0,-1.0,,,,,,,,,,1.88136,12.0009,18136.7,35.1873,,-0.281908,-1.0,,,,,,,2023-08-31 17:51:06.576627+00:00,1.0098695656168015,0.013527758718840155,,,,,,,,,,,,,,,,,,,,,,,,,,,,,,,,,,,,,,False,,
2023-08-31 10:51:07.577827-07:00,53.40187,1.7,-0.71,1.53,0.16,25.24,862.92,62.68,28.0,-1.0,,,,,,,,,,1.88415,11.1976,17943.3,35.1916,,-0.251936,-1.0,,,,,,,2023-08-31 17:51:07.577827+00:00,1.0074444761883288,0.01348697143105988,,,,,,,,,,,,,,,,,,,,,,,,,,,,,,,,,,,,,,False,,
2023-08-31 10:51:08.577942-07:00,54.401985,1.71,-0.65,1.56,0.19,25.61,862.92,61.37,23.0,-1.0,,,,,,,,,,1.88505,10.7923,17917.7,35.1959,,-0.321416,-1.0,,,,,,,2023-08-31 17:51:08.577942+00:00,1.006196804290519,0.013466088629630949,,,,,,,,,,,,,,,,,,,,,,,,,,,,,,,,,,,,,,False,,
2023-08-31 10:51:09.577286-07:00,55.401329,1.53,-0.2,1.51,0.17,25.54,862.93,61.79,20.0,-1.0,,,,,,,,,,1.88469,11.0248,18051.1,35.1998,,-0.344546,-1.0,,,,,,,2023-08-31 17:51:09.577286+00:00,1.006444276348447,0.0134700734403418,,,,,,,,,,,,,,,,,,,,,,,,,,,,,,,,,,,,,,False,,
2023-08-31 10:51:10.577496-07:00,56.401539,1.82,-0.82,1.61,0.23,25.76,862.92,61.13,25.0,-1.0,,,,,,,,,,1.88095,11.5385,18238.6,35.2038,,-0.324872,-1.0,,,,,,,2023-08-31 17:51:10.577496+00:00,1.0056918712985026,0.013457641406703037,,,,,,,,,,,,,,,,,,,,,,,,,,,,,,,,,,,,,,False,,
2023-08-31 10:51:11.577549-07:00,57.401592,0.88,-0.5,0.68,0.23,26.06,862.93,60.17,27.0,-1.0,,,,,,,,,,1.87904,11.8844,18425.7,35.2079,,-0.359436,-1.0,,,,,,,2023-08-31 17:51:11.577549+00:00,1.004695166948022,0.01344081823266063,,,,,,,,,,,,,,,,,,,,,,,,,,,,,,,,,,,,,,False,,
2023-08-31 10:51:12.577864-07:00,58.401907,0.89,-0.26,0.78,0.35,26.28,862.92,59.35,21.0,-1.0,,,,,,,,,,1.87399,10.683,18524.9,35.212,,-0.225707,-1.0,,,,,,,2023-08-31 17:51:12.577864+00:00,1.0039453536714273,0.013428441207231205,,,,,,,,,,,,,,,,,,,,,,,,,,,,,,,,,,,,,,False,,
2023-08-31 10:51:13.577677-07:00,59.40172,1.49,-0.41,1.43,0.06,24.84,862.92,64.88,21.0,-1.0,,,,,,,,,,1.87666,10.7933,18476.5,35.2166,,-0.155496,-1.0,,,,,,,2023-08-31 17:51:13.577677+00:00,1.0087967960328719,0.013509621868835734,,,,,,,,,,,,,,,,,,,,,,,,,,,,,,,,,,,,,,False,,
2023-08-31 10:51:14.577645-07:00,60.401688,1.83,0.78,1.65,-0.15,24.84,862.91,64.95,27.0,-1.0,,,,,,,,,,1.88044,10.684,18478.0,35.2205,,-0.168623,-1.0,,,,,,,2023-08-31 17:51:14.577645+00:00,1.0087851055309014,0.013509582545677863,,,,,,,,,,,,,,,,,,,,,,,,,,,,,,,,,,,,,,False,,
2023-08-31 10:51:15.577918-07:00,61.401961,1.13,0.59,0.93,0.26,24.83,862.91,65.89,26.0,-1.0,,,,,,,,,,1.87451,10.03,18477.1,35.2252,,-0.0461982,-1.0,,,,,,,2023-08-31 17:51:15.577918+00:00,1.008818959652169,0.013510149797136007,,,,,,,,,,,,,,,,,,,,,,,,,,,,,,,,,,,,,,False,,
2023-08-31 10:51:16.577424-07:00,62.401467,3.33,-0.1,3.33,0.01,24.2,862.92,68.48,20.0,-1.0,,,,,,,,,,1.8768,10.5323,18400.0,35.2295,,-0.0286874,-1.0,,,,,,,2023-08-31 17:51:16.577424+00:00,1.0109680754996988,0.013546024390838705,,,,,,,,,,,,,,,,,,,,,,,,,,,,,,,,,,,,,,False,,
2023-08-31 10:51:17.577491-07:00,63.401534,2.29,-0.28,2.27,0.14,24.81,862.9,66.11,21.0,-1.0,,,,,,,,,,1.87904,10.7256,18563.0,35.2339,,-0.0209267,-1.0,,,,,,,2023-08-31 17:51:17.577491+00:00,1.0088749830328605,0.013511245112099012,,,,,,,,,,,,,,,,,,,,,,,,,,,,,,,,,,,,,,False,,
2023-08-31 10:51:18.577819-07:00,64.401862,2.6,-0.2,2.59,0.1,24.81,862.89,65.56,27.0,-1.0,,,,,,,,,,1.87444,9.95809,18360.5,35.2381,,0.124403,-1.0,,,,,,,2023-08-31 17:51:18.577819+00:00,1.0088632913538358,0.01351120577873964,,,,,,,,,,,,,,,,,,,,,,,,,,,,,,,,,,,,,,False,,
2023-08-31 10:51:19.577640-07:00,65.401683,1.26,0.13,1.21,0.33,25.78,862.91,61.94,24.0,-1.0,,,,,,,,,,1.8817,10.0659,18168.7,35.2425,,0.081217,-1.0,,,,,,,2023-08-31 17:51:19.577640+00:00,1.0056129314460018,0.013456476942846239,,,,,,,,,,,,,,,,,,,,,,,,,,,,,,,,,,,,,,False,,
2023-08-31 10:51:20.577641-07:00,66.401684,1.53,-0.34,1.46,0.28,25.48,862.91,63.29,20.0,-1.0,,,,,,,,,,1.877,11.1392,18253.2,35.2472,,0.205442,-1.0,,,,,,,2023-08-31 17:51:20.577641+00:00,1.0066231577442093,0.013473379218296288,,,,,,,,,,,,,,,,,,,,,,,,,,,,,,,,,,,,,,False,,
2023-08-31 10:51:21.577623-07:00,67.401666,2.64,0.41,2.61,-0.07,25.08,862.9,64.77,22.0,-1.0,,,,,,,,,,1.8824,9.97992,18429.1,35.251,,0.151306,-1.0,,,,,,,2023-08-31 17:51:21.577623+00:00,1.0079616066273382,0.013495943832910279,,,,,,,,,,,,,,,,,,,,,,,,,,,,,,,,,,,,,,False,,
2023-08-31 10:51:22.577453-07:00,68.401496,3.01,-0.33,2.99,0.1,24.44,862.9,67.4,27.0,-1.0,,,,,,,,,,1.87765,10.9949,18561.4,35.2553,,0.177905,-1.0,,,,,,,2023-08-31 17:51:22.577453+00:00,1.0101293388368935,0.013532271089468247,,,,,,,,,,,,,,,,,,,,,,,,,,,,,,,,,,,,,,False,,
2023-08-31 10:51:23.577360-07:00,69.401403,2.61,-0.24,2.6,0.16,24.93,862.89,65.53,24.0,-1.0,,,,,,,,,,1.87693,10.172,18472.5,35.2595,,0.289611,-1.0,,,,,,,2023-08-31 17:51:23.577360+00:00,1.0084571467115837,0.013504400887621332,,,,,,,,,,,,,,,,,,,,,,,,,,,,,,,,,,,,,,False,,
2023-08-31 10:51:24.577859-07:00,70.401902,2.55,-0.57,2.47,0.24,24.99,862.9,65.37,20.0,-1.0,,,,,,,,,,1.8794,10.6063,18390.5,35.2644,,0.360358,-1.0,,,,,,,2023-08-31 17:51:24.577859+00:00,1.0082658816142454,0.013501040330811146,,,,,,,,,,,,,,,,,,,,,,,,,,,,,,,,,,,,,,False,,
2023-08-31 10:51:25.577739-07:00,71.401782,2.75,0.44,2.72,0.13,24.9,862.91,65.93,21.0,-1.0,,,,,,,,,,1.88444,10.5421,18281.7,35.2686,,0.336147,-1.0,,,,,,,2023-08-31 17:51:25.577739+00:00,1.0085820285091538,0.013506180056772664,,,,,,,,,,,,,,,,,,,,,,,,,,,,,,,,,,,,,,False,,
2023-08-31 10:51:26.577244-07:00,72.401287,3.43,-0.33,3.41,0.08,23.97,862.9,69.0,27.0,-1.0,,,,,,,,,,1.88388,11.0108,18282.7,35.2726,,0.301056,-1.0,,,,,,,2023-08-31 17:51:26.577244+00:00,1.0117272144065397,0.013559076177535434,,,,,,,,,,,,,,,,,,,,,,,,,,,,,,,,,,,,,,False,,
2023-08-31 10:51:27.577392-07:00,73.401435,3.54,0.53,3.5,-0.04,24.68,862.89,66.2,22.0,-1.0,,,,,,,,,,1.88408,10.4621,18268.7,35.2775,,0.260888,-1.0,,,,,,,2023-08-31 17:51:27.577392+00:00,1.0093036507127855,0.013518585640632604,,,,,,,,,,,,,,,,,,,,,,,,,,,,,,,,,,,,,,False,,
2023-08-31 10:51:28.577904-07:00,74.401947,3.05,-0.32,3.03,0.05,24.34,862.9,67.77,21.0,-1.0,,,,,,,,,,1.88719,9.47846,18168.3,35.2819,,0.065476,-1.0,,,,,,,2023-08-31 17:51:28.577904+00:00,1.0104688895239204,0.013537965245928128,,,,,,,,,,,,,,,,,,,,,,,,,,,,,,,,,,,,,,False,,
2023-08-31 10:51:29.581602-07:00,75.405645,2.77,-1.53,2.3,0.23,25.27,862.91,64.18,24.0,-1.0,,,,,,,,,,1.88329,11.1408,17991.5,35.2862,,0.078118,-1.0,,,,,,,2023-08-31 17:51:29.581602+00:00,1.0073315246871968,0.013485236602738116,,,,,,,,,,,,,,,,,,,,,,,,,,,,,,,,,,,,,,False,,
2023-08-31 10:51:30.577417-07:00,76.40146,1.52,-0.69,1.32,0.25,25.35,862.91,63.83,27.0,-1.0,,,,,,,,,,1.88444,10.1588,17963.1,35.2898,,0.0313635,-1.0,,,,,,,2023-08-31 17:51:30.577417+00:00,1.0070615530892908,0.0134807169948478,,,,,,,,,,,,,,,,,,,,,,,,,,,,,,,,,,,,,,False,,
2023-08-31 10:51:31.577264-07:00,77.401307,1.79,0.16,1.78,0.1,24.96,862.92,65.65,21.0,-1.0,,,,,,,,,,1.88635,10.5464,18047.3,35.2942,,-0.0512556,-1.0,,,,,,,2023-08-31 17:51:31.577264+00:00,1.0083907190293364,0.013502818594870911,,,,,,,,,,,,,,,,,,,,,,,,,,,,,,,,,,,,,,False,,
2023-08-31 10:51:32.577729-07:00,78.401772,2.12,-0.13,2.12,-0.04,25.15,862.91,64.98,21.0,-1.0,,,,,,,,,,1.88579,9.8311,18056.6,35.2987,,-0.163441,-1.0,,,,,,,2023-08-31 17:51:32.577729+00:00,1.0077367535942117,0.01349202181277377,,,,,,,,,,,,,,,,,,,,,,,,,,,,,,,,,,,,,,False,,
2023-08-31 10:51:33.577975-07:00,79.402018,2.97,0.04,2.97,0.0,24.81,862.91,66.31,27.0,-1.0,,,,,,,,,,1.88614,9.45443,18087.8,35.3027,,-0.239813,-1.0,,,,,,,2023-08-31 17:51:33.577975+00:00,1.008886674711885,0.013511284445799708,,,,,,,,,,,,,,,,,,,,,,,,,,,,,,,,,,,,,,False,,
2023-08-31 10:51:34.577435-07:00,80.401478,2.6,0.4,2.57,0.12,24.86,862.93,66.18,23.0,-1.0,,,,,,,,,,1.88129,9.89907,18266.3,35.3071,,-0.228301,-1.0,,,,,,,2023-08-31 17:51:34.577435+00:00,1.008740783539202,0.01350852682062731,,,,,,,,,,,,,,,,,,,,,,,,,,,,,,,,,,,,,,False,,
2023-08-31 10:51:35.577210-07:00,81.401253,3.26,-0.13,3.26,0.03,24.6,862.9,66.53,20.0,-1.0,,,,,,,,,,1.878,11.0639,18238.7,35.3114,,-0.173746,-1.0,,,,,,,2023-08-31 17:51:35.577210+00:00,1.0095865321392816,0.013523170591357022,,,,,,,,,,,,,,,,,,,,,,,,,,,,,,,,,,,,,,False,,
2023-08-31 10:51:36.577736-07:00,82.401779,2.95,-0.04,2.95,0.07,24.67,862.9,66.48,24.0,-1.0,,,,,,,,,,1.87888,9.85649,18099.9,35.3156,,-0.170423,-1.0,,,,,,,2023-08-31 17:51:36.577736+00:00,1.0093492376081898,0.01351919304705225,,,,,,,,,,,,,,,,,,,,,,,,,,,,,,,,,,,,,,False,,
2023-08-31 10:51:37.578062-07:00,83.402105,2.5,0.11,2.5,0.05,24.85,862.91,65.77,26.0,-1.0,,,,,,,,,,1.88096,10.3375,18031.3,35.3202,,-0.209652,-1.0,,,,,,,2023-08-31 17:51:37.578062+00:00,1.0087512536817222,0.013509015342793973,,,,,,,,,,,,,,,,,,,,,,,,,,,,,,,,,,,,,,False,,
2023-08-31 10:51:38.577756-07:00,84.401799,2.35,0.41,2.3,0.22,24.54,862.93,66.24,21.0,-1.0,,,,,,,,,,1.88156,9.6321,18033.9,35.3247,,-0.236633,-1.0,,,,,,,2023-08-31 17:51:38.577756+00:00,1.0098251231231066,0.013526700111658593,,,,,,,,,,,,,,,,,,,,,,,,,,,,,,,,,,,,,,False,,
2023-08-31 10:51:39.577351-07:00,85.401394,2.3,0.04,2.3,0.09,24.5,862.91,66.59,20.0,-1.0,,,,,,,,,,1.883,9.1223,18154.0,35.3289,,-0.302286,-1.0,,,,,,,2023-08-31 17:51:39.577351+00:00,1.0099374217945685,0.013528896385807076,,,,,,,,,,,,,,,,,,,,,,,,,,,,,,,,,,,,,,False,,
2023-08-31 10:51:40.577196-07:00,86.401239,1.69,-0.61,1.56,0.17,25.36,862.92,63.31,25.0,-1.0,,,,,,,,,,1.88317,9.66821,18061.7,35.3337,,-0.341261,-1.0,,,,,,,2023-08-31 17:51:40.577196+00:00,1.0070394869513097,0.013480191396227881,,,,,,,,,,,,,,,,,,,,,,,,,,,,,,,,,,,,,,False,,
2023-08-31 10:51:41.577230-07:00,87.401273,1.58,-0.49,1.49,0.22,25.77,862.92,61.91,26.0,-1.0,,,,,,,,,,1.88461,9.55856,18115.3,35.3379,,-0.370401,-1.0,,,,,,,2023-08-31 17:51:41.577230+00:00,1.005658227117073,0.013457078642830115,,,,,,,,,,,,,,,,,,,,,,,,,,,,,,,,,,,,,,False,,
2023-08-31 10:51:42.577697-07:00,88.40174,1.67,-0.05,1.67,0.02,24.16,862.91,68.28,20.0,-1.0,,,,,,,,,,1.87909,10.1739,18171.9,35.3425,,-0.342012,-1.0,,,,,,,2023-08-31 17:51:42.577697+00:00,1.0110923736071886,0.013548266620815427,,,,,,,,,,,,,,,,,,,,,,,,,,,,,,,,,,,,,,False,,
2023-08-31 10:51:43.577119-07:00,89.401162,1.45,-0.11,1.43,0.23,25.29,862.92,63.81,21.0,-1.0,,,,,,,,,,1.88448,9.84998,17990.2,35.3472,,-0.32738,-1.0,,,,,,,2023-08-31 17:51:43.577119+00:00,1.0072756910931357,0.013484145571396478,,,,,,,,,,,,,,,,,,,,,,,,,,,,,,,,,,,,,,False,,
2023-08-31 10:51:44.577952-07:00,90.401995,2.24,-0.67,2.14,0.12,25.0,862.92,64.98,27.0,-1.0,,,,,,,,,,1.87988,9.70741,18127.1,35.3515,,-0.305812,-1.0,,,,,,,2023-08-31 17:51:44.577952+00:00,1.0082554326675681,0.013500552389433597,,,,,,,,,,,,,,,,,,,,,,,,,,,,,,,,,,,,,,False,,
2023-08-31 10:51:45.577348-07:00,91.401391,2.05,-0.64,1.94,0.18,24.38,862.92,67.71,24.0,-1.0,,,,,,,,,,1.8801,9.92477,18172.8,35.3563,,-0.340226,-1.0,,,,,,,2023-08-31 17:51:45.577348+00:00,1.0103564590119836,0.013535765977718465,,,,,,,,,,,,,,,,,,,,,,,,,,,,,,,,,,,,,,False,,
2023-08-31 10:51:46.577961-07:00,92.402004,2.47,-1.16,2.16,0.32,24.11,862.91,68.71,20.0,-1.0,,,,,,,,,,1.88012,9.30016,18078.2,35.3606,,-0.283333,-1.0,,,,,,,2023-08-31 17:51:46.577961+00:00,1.0112624422968217,0.013551119956004602,,,,,,,,,,,,,,,,,,,,,,,,,,,,,,,,,,,,,,False,,
2023-08-31 10:51:47.577681-07:00,93.401724,2.39,-1.17,2.05,0.4,23.92,862.92,69.68,24.0,-1.0,,,,,,,,,,1.88251,9.0119,17979.1,35.3656,,-0.261155,-1.0,,,,,,,2023-08-31 17:51:47.577681+00:00,1.01192095213194,0.013562013473248539,,,,,,,,,,,,,,,,,,,,,,,,,,,,,,,,,,,,,,False,,
2023-08-31 10:51:48.577988-07:00,94.402031,2.17,-1.26,1.73,0.32,24.24,862.92,68.45,28.0,-1.0,,,,,,,,,,1.88132,9.03446,17886.2,35.3702,,-0.281093,-1.0,,,,,,,2023-08-31 17:51:48.577988+00:00,1.010832096741099,0.01354374337356172,,,,,,,,,,,,,,,,,,,,,,,,,,,,,,,,,,,,,,False,,
2023-08-31 10:51:50.577115-07:00,96.401158,2.1,-0.76,1.95,0.14,25.12,862.93,64.27,20.0,-1.0,,,,,,,,,,1.88366,7.97074,17987.6,35.3747,,-0.293529,-1.0,,,,,,,2023-08-31 17:51:50.577115+00:00,1.007861470823474,0.01349379764736847,,,,,,,,,,,,,,,,,,,,,,,,,,,,,,,,,,,,,,False,,
2023-08-31 10:51:51.576481-07:00,97.400524,2.39,-0.73,2.27,0.19,25.38,862.91,63.47,23.0,-1.0,,,,,,,,,,1.88358,8.7538,18249.9,35.3793,,-0.233119,-1.0,,,,,,,2023-08-31 17:51:51.576481+00:00,1.0069603510439595,0.013479022938367525,,,,,,,,,,,,,,,,,,,,,,,,,,,,,,,,,,,,,,False,,
2023-08-31 10:51:52.577978-07:00,98.402021,2.57,-1.29,2.21,0.14,24.92,862.93,66.11,32.0,-1.0,,,,,,,,,,1.87867,8.61575,18368.8,35.384,,-0.144461,-1.0,,,,,,,2023-08-31 17:51:52.577978+00:00,1.0085377290653792,0.013505124870814983,,,,,,,,,,,,,,,,,,,,,,,,,,,,,,,,,,,,,,False,,
2023-08-31 10:51:53.577163-07:00,99.401206,2.92,-1.28,2.61,0.29,23.47,862.92,71.39,21.0,-1.0,,,,,,,,,,1.8765,9.41538,18464.0,35.3883,,-0.0243661,-1.0,,,,,,,2023-08-31 17:51:53.577163+00:00,1.013456129896283,0.013587790993717866,,,,,,,,,,,,,,,,,,,,,,,,,,,,,,,,,,,,,,False,,
2023-08-31 10:51:54.577779-07:00,100.401822,2.37,-0.88,2.19,0.27,24.76,862.92,66.13,21.0,-1.0,,,,,,,,,,1.8769,9.24635,18408.0,35.3927,,0.0527839,-1.0,,,,,,,2023-08-31 17:51:54.577779+00:00,1.0090676957800526,0.013514161270131051,,,,,,,,,,,,,,,,,,,,,,,,,,,,,,,,,,,,,,False,,
2023-08-31 10:51:55.577176-07:00,101.401219,2.7,-1.07,2.45,0.41,23.32,862.9,72.1,27.0,-1.0,,,,,,,,,,1.87519,9.94175,18006.5,35.3973,,0.065344,-1.0,,,,,,,2023-08-31 17:51:55.577176+00:00,1.013945390577364,0.013596325956226996,,,,,,,,,,,,,,,,,,,,,,,,,,,,,,,,,,,,,,False,,
2023-08-31 10:51:56.577963-07:00,102.402006,2.9,-0.56,2.84,0.24,23.1,862.92,73.13,25.0,-1.0,,,,,,,,,,1.88665,8.36698,17527.9,35.4021,,-0.0563526,-1.0,,,,,,,2023-08-31 17:51:56.577963+00:00,1.0147218810121026,0.013609060801989502,,,,,,,,,,,,,,,,,,,,,,,,,,,,,,,,,,,,,,False,,
2023-08-31 10:51:57.577809-07:00,103.401852,3.02,-1.86,2.38,-0.0,23.81,862.9,69.32,21.0,-1.0,,,,,,,,,,1.89187,8.54582,17245.3,35.4063,,-0.214939,-1.0,,,,,,,2023-08-31 17:51:57.577809+00:00,1.012272326052233,0.013568226034814394,,,,,,,,,,,,,,,,,,,,,,,,,,,,,,,,,,,,,,False,,
2023-08-31 10:51:58.577839-07:00,104.401882,2.79,-1.46,2.38,-0.06,23.78,862.9,69.53,21.0,-1.0,,,,,,,,,,1.89099,9.22317,17227.7,35.4105,,-0.255747,-1.0,,,,,,,2023-08-31 17:51:58.577839+00:00,1.0123745998870817,0.01356994303488162,,,,,,,,,,,,,,,,,,,,,,,,,,,,,,,,,,,,,,False,,
2023-08-31 10:51:59.577386-07:00,105.401429,2.13,0.05,2.12,0.01,24.38,862.92,67.06,29.0,-1.0,,,,,,,,,,1.88965,8.83508,17223.5,35.4149,,-0.297834,-1.0,,,,,,,2023-08-31 17:51:59.577386+00:00,1.0103564590119836,0.013535765977718465,,,,,,,,,,,,,,,,,,,,,,,,,,,,,,,,,,,,,,False,,
2023-08-31 10:52:00.577869-07:00,106.401912,3.02,-0.84,2.9,0.18,24.51,862.89,66.68,25.0,-1.0,,,,,,,,,,1.88978,8.65707,17342.8,35.4191,,-0.382796,-1.0,,,,,,,2023-08-31 17:52:00.577869+00:00,1.0098800856406267,0.013528248642757836,,,,,,,,,,,,,,,,,,,,,,,,,,,,,,,,,,,,,,False,,
2023-08-31 10:52:01.577386-07:00,107.401429,0.9,-0.71,0.29,0.47,25.43,862.92,63.17,20.0,-1.0,,,,,,,,,,1.8886,8.748,17620.4,35.4237,,-0.429867,-1.0,,,,,,,2023-08-31 17:52:01.577386+00:00,1.006803393562313,0.01347623958558215,,,,,,,,,,,,,,,,,,,,,,,,,,,,,,,,,,,,,,False,,
2023-08-31 10:52:02.578044-07:00,108.402087,1.59,-0.78,1.36,0.23,25.62,862.93,62.53,25.0,-1.0,,,,,,,,,,1.8846,8.53847,17896.8,35.4282,,-0.506736,-1.0,,,,,,,2023-08-31 17:52:02.578044+00:00,1.0061747862988841,0.01346556418683421,,,,,,,,,,,,,,,,,,,,,,,,,,,,,,,,,,,,,,False,,
2023-08-31 10:52:03.577256-07:00,109.401299,2.05,-0.91,1.81,0.3,24.94,862.9,65.16,28.0,-1.0,,,,,,,,,,1.87995,8.72115,18075.5,35.4304,,-0.502297,-1.0,,,,,,,2023-08-31 17:52:03.577256+00:00,1.0084350026652056,0.013503873415098854,,,,,,,,,,,,,,,,,,,,,,,,,,,,,,,,,,,,,,False,,
2023-08-31 10:52:04.577299-07:00,110.401342,2.15,-0.84,1.97,0.24,24.84,862.93,65.77,21.0,-1.0,,,,,,,,,,1.87924,8.62472,18187.0,35.4266,,-0.475855,-1.0,,,,,,,2023-08-31 17:52:04.577299+00:00,1.0088084865348421,0.013509661192334845,,,,,,,,,,,,,,,,,,,,,,,,,,,,,,,,,,,,,,False,,
2023-08-31 10:52:05.578089-07:00,111.402132,1.68,-0.3,1.63,0.27,25.52,862.93,63.15,21.0,-1.0,,,,,,,,,,1.87769,7.75955,18131.7,35.4308,,-0.357127,-1.0,,,,,,,2023-08-31 17:52:05.578089+00:00,1.0065116714183469,0.013471201235058572,,,,,,,,,,,,,,,,,,,,,,,,,,,,,,,,,,,,,,False,,
2023-08-31 10:52:06.577273-07:00,112.401316,1.82,-1.04,1.44,0.41,23.82,862.91,69.98,30.0,-1.0,,,,,,,,,,1.88147,8.80156,18147.8,35.4351,,-0.305095,-1.0,,,,,,,2023-08-31 17:52:06.577273+00:00,1.012249970021057,0.013567693495001669,,,,,,,,,,,,,,,,,,,,,,,,,,,,,,,,,,,,,,False,,
2023-08-31 10:52:07.577943-07:00,113.401986,2.27,-1.04,1.98,0.37,23.94,862.92,69.62,27.0,-1.0,,,,,,,,,,1.88424,8.35645,18050.6,35.4394,,-0.28932,-1.0,,,,,,,2023-08-31 17:52:07.577943+00:00,1.011852829949966,0.01356087011976099,,,,,,,,,,,,,,,,,,,,,,,,,,,,,,,,,,,,,,False,,
2023-08-31 10:52:08.577943-07:00,114.401986,1.57,-0.02,1.56,0.18,25.48,862.93,63.4,22.0,-1.0,,,,,,,,,,1.88539,8.25508,17700.6,35.444,,-0.299112,-1.0,,,,,,,2023-08-31 17:52:08.577943+00:00,1.0066464886398474,0.013473457402441146,,,,,,,,,,,,,,,,,,,,,,,,,,,,,,,,,,,,,,False,,
2023-08-31 10:52:09.577245-07:00,115.401288,1.93,0.16,1.92,0.04,25.21,862.92,64.47,23.0,-1.0,,,,,,,,,,1.88863,8.50251,17683.1,35.4479,,-0.317628,-1.0,,,,,,,2023-08-31 17:52:09.577245+00:00,1.0075457743995022,0.013488667526756556,,,,,,,,,,,,,,,,,,,,,,,,,,,,,,,,,,,,,,False,,
2023-08-31 10:52:10.577458-07:00,116.401501,1.7,0.18,1.68,0.11,23.89,862.92,69.89,30.0,-1.0,,,,,,,,,,1.88611,8.63235,17797.0,35.4528,,-0.326237,-1.0,,,,,,,2023-08-31 17:52:10.577458+00:00,1.0120231526051557,0.013563728872091022,,,,,,,,,,,,,,,,,,,,,,,,,,,,,,,,,,,,,,False,,
2023-08-31 10:52:11.577131-07:00,117.401174,1.2,-0.11,1.2,0.02,24.63,862.93,66.94,24.0,-1.0,,,,,,,,,,1.88702,8.42797,17653.7,35.457,,-0.350157,-1.0,,,,,,,2023-08-31 17:52:11.577131+00:00,1.0095199170613123,0.013521583835593888,,,,,,,,,,,,,,,,,,,,,,,,,,,,,,,,,,,,,,False,,
2023-08-31 10:52:12.577713-07:00,118.401756,1.15,-0.56,0.99,0.2,25.36,862.93,64.16,21.0,-1.0,,,,,,,,,,1.8869,8.37772,17609.7,35.4612,,-0.383591,-1.0,,,,,,,2023-08-31 17:52:12.577713+00:00,1.0070511570885987,0.013480230531694386,,,,,,,,,,,,,,,,,,,,,,,,,,,,,,,,,,,,,,False,,
2023-08-31 10:52:13.578374-07:00,119.402417,2.21,-0.15,2.2,-0.07,24.36,862.91,68.25,26.0,-1.0,,,,,,,,,,1.88421,8.58652,17752.1,35.4658,,-0.348435,-1.0,,,,,,,2023-08-31 17:52:13.578374+00:00,1.010412670488902,0.01353686552120662,,,,,,,,,,,,,,,,,,,,,,,,,,,,,,,,,,,,,,False,,
2023-08-31 10:52:14.578134-07:00,120.402177,1.4,0.23,1.38,-0.09,24.62,862.92,67.26,29.0,-1.0,,,,,,,,,,1.88493,8.9407,17847.5,35.4701,,-0.383305,-1.0,,,,,,,2023-08-31 17:52:14.578134+00:00,1.0095421205958808,0.013522112712401788,,,,,,,,,,,,,,,,,,,,,,,,,,,,,,,,,,,,,,False,,
2023-08-31 10:52:15.577331-07:00,121.401374,1.36,-0.74,1.11,0.24,25.1,862.92,65.37,23.0,-1.0,,,,,,,,,,1.88449,8.3834,17925.9,35.4745,,-0.357814,-1.0,,,,,,,2023-08-31 17:52:15.577331+00:00,1.0079173755233377,0.0134948902683147,,,,,,,,,,,,,,,,,,,,,,,,,,,,,,,,,,,,,,False,,
2023-08-31 10:52:16.577292-07:00,122.401335,1.43,-0.75,1.17,0.32,26.13,862.93,61.63,21.0,-1.0,,,,,,,,,,1.88616,8.17509,18048.0,35.479,,-0.339856,-1.0,,,,,,,2023-08-31 17:52:16.577292+00:00,1.0044601740928816,0.013436889927417997,,,,,,,,,,,,,,,,,,,,,,,,,,,,,,,,,,,,,,False,,
2023-08-31 10:52:17.577923-07:00,123.401966,2.84,0.52,2.78,0.26,23.2,862.93,74.22,28.0,-1.0,,,,,,,,,,1.88261,8.65097,18229.8,35.4839,,-0.312129,-1.0,,,,,,,2023-08-31 17:52:17.577923+00:00,1.0143912296356254,0.013603345438442676,,,,,,,,,,,,,,,,,,,,,,,,,,,,,,,,,,,,,,False,,
2023-08-31 10:52:18.578149-07:00,124.402192,2.65,0.49,2.59,0.29,23.1,862.93,74.8,28.0,-1.0,,,,,,,,,,1.88889,8.06214,17950.3,35.4886,,-0.340076,-1.0,,,,,,,2023-08-31 17:52:18.578149+00:00,1.0147336401772746,0.013609100763372836,,,,,,,,,,,,,,,,,,,,,,,,,,,,,,,,,,,,,,False,,
2023-08-31 10:52:19.581622-07:00,125.405665,2.34,0.42,2.29,0.21,23.95,862.92,69.51,21.0,-1.0,,,,,,,,,,1.89022,7.65468,17601.3,35.4929,,-0.382918,-1.0,,,,,,,2023-08-31 17:52:19.581622+00:00,1.0118187722983356,0.013560298516720673,,,,,,,,,,,,,,,,,,,,,,,,,,,,,,,,,,,,,,False,,
2023-08-31 10:52:20.577500-07:00,126.401543,3.29,0.89,3.16,0.12,23.48,862.91,71.56,23.0,-1.0,,,,,,,,,,1.88781,8.34761,17505.8,35.4975,,-0.412642,-1.0,,,,,,,2023-08-31 17:52:20.577500+00:00,1.0134102201299708,0.013587177254043856,,,,,,,,,,,,,,,,,,,,,,,,,,,,,,,,,,,,,,False,,
2023-08-31 10:52:21.577829-07:00,127.401872,2.68,0.55,2.61,0.15,23.85,862.9,69.91,31.0,-1.0,,,,,,,,,,1.89194,8.21781,17408.0,35.5022,,-0.432359,-1.0,,,,,,,2023-08-31 17:52:21.577829+00:00,1.0121359930790272,0.013565937390359242,,,,,,,,,,,,,,,,,,,,,,,,,,,,,,,,,,,,,,False,,
2023-08-31 10:52:22.577374-07:00,128.401417,3.11,0.62,3.03,0.27,23.14,862.9,73.08,24.0,-1.0,,,,,,,,,,1.88956,7.64563,17333.1,35.5066,,-0.468698,-1.0,,,,,,,2023-08-31 17:52:22.577374+00:00,1.0145613754918192,0.013606678199132914,,,,,,,,,,,,,,,,,,,,,,,,,,,,,,,,,,,,,,False,,
2023-08-31 10:52:23.578047-07:00,129.40209,2.66,0.07,2.66,0.17,24.04,862.92,68.54,20.0,-1.0,,,,,,,,,,1.89478,8.02223,17210.1,35.5117,,-0.43508,-1.0,,,,,,,2023-08-31 17:52:23.578047+00:00,1.0115123565726822,0.013555156299335921,,,,,,,,,,,,,,,,,,,,,,,,,,,,,,,,,,,,,,False,,
2023-08-31 10:52:24.581002-07:00,130.405045,2.4,-0.38,2.36,0.24,23.66,862.91,70.13,26.0,-1.0,,,,,,,,,,1.88888,7.73143,17290.7,35.5166,,-0.383392,-1.0,,,,,,,2023-08-31 17:52:24.581002+00:00,1.0127956389513604,0.013576855221729427,,,,,,,,,,,,,,,,,,,,,,,,,,,,,,,,,,,,,,False,,
2023-08-31 10:52:25.577477-07:00,131.40152,1.97,0.43,1.92,0.09,24.34,862.92,67.49,29.0,-1.0,,,,,,,,,,1.88804,6.80409,17459.5,35.5207,,-0.155434,-1.0,,,,,,,2023-08-31 17:52:25.577477+00:00,1.0104923098249874,0.0135380442557421,,,,,,,,,,,,,,,,,,,,,,,,,,,,,,,,,,,,,,False,,
2023-08-31 10:52:26.577568-07:00,132.401611,1.48,-0.53,1.36,0.26,24.77,862.93,65.68,22.0,-1.0,,,,,,,,,,1.88773,7.22393,17672.2,35.5257,,-0.161237,-1.0,,,,,,,2023-08-31 17:52:26.577568+00:00,1.009045518604047,0.013513633023751585,,,,,,,,,,,,,,,,,,,,,,,,,,,,,,,,,,,,,,False,,
2023-08-31 10:52:27.577100-07:00,133.401143,2.34,-0.59,2.26,0.14,25.17,862.92,64.29,21.0,-1.0,,,,,,,,,,1.88432,7.53713,17844.0,35.5302,,-0.152718,-1.0,,,,,,,2023-08-31 17:52:27.577100+00:00,1.0076808703735431,0.013490929664576818,,,,,,,,,,,,,,,,,,,,,,,,,,,,,,,,,,,,,,False,,
2023-08-31 10:52:28.577129-07:00,134.401172,2.74,0.21,2.73,0.16,24.37,862.91,67.49,28.0,-1.0,,,,,,,,,,1.88429,7.1048,17966.9,35.5349,,-0.187855,-1.0,,,,,,,2023-08-31 17:52:28.577129+00:00,1.010378709320897,0.013536295979788022,,,,,,,,,,,,,,,,,,,,,,,,,,,,,,,,,,,,,,False,,
2023-08-31 10:52:29.582092-07:00,135.406135,2.23,-0.27,2.2,0.27,22.95,862.92,73.37,26.0,-1.0,,,,,,,,,,1.88508,7.58616,17615.1,35.5398,,-0.217191,-1.0,,,,,,,2023-08-31 17:52:29.582092+00:00,1.015235924518188,0.013617703047591882,,,,,,,,,,,,,,,,,,,,,,,,,,,,,,,,,,,,,,False,,
2023-08-31 10:54:49.575974-07:00,275.400017,3.1,-1.63,2.61,0.38,23.44,862.94,70.44,21.0,0.0,-0.0222364,0.00429695,0.0167159,34.0613189,-106.883427,1398.72146,-36.0678336,0.417946935,-1.0402813,1.90344,-0.179696,16822.9,36.1515,,-0.781529,-1.0,,,,,,,2023-08-31 17:54:49.575974+00:00,1.0135821320853695,0.013589592719305066,3.0994079895709925,1.1543630301088124,-2.876417195146508,0.3967159,111.86656611163721,0.28529375419879377,0.08795003063345362,3.0563933435066692,112.79741320936304,1.1840225875941157,-2.815896253955284,0.35507208,0.08901857796668725,0.28528049394063526,0.18972953755177605,0.98183639298021,0.6282577725537867,0.2750298355064397,,,,,,,,,,,-0.12247758324884031,0.18448211530078723,0.22143714517742855,-0.2410899999999856,,,97.08017677588046,103.95672858814808,142.23769592335952,False,,
2023-08-31 10:54:50.576064-07:00,276.400107,2.92,-1.03,2.72,0.25,23.65,862.94,68.54,22.0,0.0,-0.0229663,0.0019429,0.00233306,34.061319,-106.883427,1398.7203599999998,-36.0462345,0.42252132,-1.06301942,1.90773,1.32552,16748.7,36.1561,,-0.773773,-1.0,,,,,,,2023-08-31 17:54:50.576064+00:00,1.0128649749164413,0.013577547523386151,2.9287867705550066,1.595087256141448,-2.4563160612334016,0.25233306,122.998965622393,0.2854088596035959,0.10384176659568975,2.860827951896462,116.98211594557047,1.2881005638768646,-2.5431856803899473,0.36172692399999995,0.09281203224916419,0.2851892733265059,0.08429675761308532,0.9964406939983537,1.0691335129442328,0.2831635025506043,,,,,,,,,,,-0.11134325773729863,0.1844821150512961,0.21547847181877397,-0.24219000000016422,-0.005958673358654576,-0.0011000000001786248,97.091311101392,103.9567285878986,142.24529556398446,False,,
2023-08-31 10:54:51.575879-07:00,277.399922,2.22,-1.19,1.86,0.3,23.56,862.95,68.99,31.0,0.0,-0.0231063,0.00839573,-0.00447021,34.0613191,-106.883427,1398.72488,-36.0331514,0.423872475,-1.06801763,1.9096,0.800384,16723.4,36.1667,,-0.762476,-1.0,,,,,,,2023-08-31 17:54:51.575879+00:00,1.0131839446189272,0.013582746875852264,2.2326759317161926,0.8125131445072351,-2.0795826999827955,0.29552979,111.34106993362204,0.2845641647168351,0.07784582877912351,2.335697044976271,109.1436069076024,0.7640953267529583,-2.2049289372018066,0.27271643560000003,0.07683095358243607,0.28459724158181193,0.34150734646172215,0.9398791051580374,-0.03484219851644543,0.25156507864005007,,,,,,,,,,,-0.10020893231787541,0.18448211496432396,0.20994161297369937,-0.23766999999998006,-0.005536858845074599,0.0045200000001841545,97.10244542681143,103.95672858781163,142.25289567016492,False,,
2023-08-31 10:54:52.576580-07:00,278.400623,2.26,-0.59,2.18,0.13,23.76,862.92,68.95,23.0,0.0,-0.0208526,0.00380142,-0.00774527,34.0613193,-106.883427,1398.7391599999999,-36.0147417,0.421210479,-1.08332124,1.90626,0.205479,16726.1,36.1794,,-0.775473,-1.0,,,,,,,2023-08-31 17:54:52.576580+00:00,1.0124662599772167,0.013571167382390859,2.2770770358092496,1.420212626045007,-1.7799089650406799,0.12225473,128.5868240557973,0.28483017040932823,0.0972981785974341,2.021023743140627,118.69021114958707,0.9781861932873672,-1.7574435786302316,0.090218238,0.08317125646958076,0.28452289395688746,0.17934384668082426,0.9837864527720053,0.6471396335286708,0.2753844320401119,,,,,,,,,,,-0.0779402807874477,0.18448211494190977,0.2002706621117187,-0.22339000000010856,-0.009670950861980665,0.014279999999871507,97.12471407834185,103.95672858778921,142.268097279309,False,,
2023-08-31 10:54:53.576590-07:00,279.400633,1.83,-0.64,1.66,0.44,23.92,862.94,67.37,20.0,0.0,-0.0244482,0.00338816,0.00274538,34.0613193,-106.883427,1398.7728499999998,-35.9971344,0.434005518,-1.10585974,1.90907,1.12329,16732.7,36.1842,,-0.798924,-1.0,,,,,,,2023-08-31 17:54:53.576590+00:00,1.0119444055448201,0.013562092791773166,1.8014952356764633,0.9702485038462731,-1.5178942403702125,0.44274538,122.58699531251241,0.2843912950103681,0.08243799650450395,1.8043277062151712,116.30668353694634,0.8008311354379943,-1.6101629938143862,0.38041373600000006,0.07810448731760065,0.28433985571823983,0.13727329636540048,0.9905332110055558,0.5722174542121389,0.2789856497339368,,,,,,,,,,,-0.0779402811990487,0.18448211591615601,0.20027066316934394,-0.18970000000012988,1.0576252373883932e-09,0.03368999999997868,97.12471407793025,103.95672858876345,142.2680972797399,False,,
2023-08-31 10:54:54.576798-07:00,280.400841,2.37,-0.7,2.23,0.36,23.81,862.91,68.8,29.0,0.0,-0.0214332,-0.000420856,0.00897049,34.0613193,-106.883427,1398.8260699999998,-35.9749436,0.433454791,-1.1018247,1.9068,1.24965,16759.7,36.1882,,-0.79257,-1.0,,,,,,,2023-08-31 17:54:54.576798+00:00,1.0122840571024827,0.013568265733593675,2.354277787115384,1.3930581069889916,-1.897896996535154,0.36897049,126.27870263110847,0.28485659081850784,0.09655580775514773,2.362516301387118,118.66467343197974,1.1309162220570013,-2.067441017685,0.4265406366000001,0.08776593231855678,0.28475731649966124,0.01963192106822224,-0.9998072752661741,-1.171286105401523,0.28464756953015646,,,,,,,,,,,-0.07794028184925367,0.18448211745517004,0.2002706648400715,-0.13648000000011962,1.670727556302154e-09,0.05322000000001026,97.12471407728005,103.95672859030248,142.26809728042056,False,,
2023-08-31 10:54:55.577324-07:00,281.401367,2.46,-0.99,2.21,0.46,24.01,862.92,67.85,24.0,0.0,-0.0203066,0.00119726,0.012686,34.0613193,-106.883427,1398.8572,-35.9542501,0.430647327,-1.09384397,1.90718,0.978048,16810.0,36.1928,,-0.760964,-1.0,,,,,,,2023-08-31 17:54:55.577324+00:00,1.0116144745249545,0.013556869929933164,2.4398261158047267,1.2088938004552874,-2.1192751719829945,0.472686,119.7016437999597,0.284826482469247,0.09013242953260721,2.5531483444473873,119.01771497748675,1.2400513226138372,-2.230948743907373,0.363401212,0.09128042271054163,0.2849213193636381,0.05885694615338401,0.998266427307609,1.1065947734126744,0.2839344880680872,,,,,,,,,,,-0.07794028222957837,0.18448211835538628,0.20027066581733102,-0.10535000000004402,9.77259523304852e-10,0.031130000000075597,97.12471407689972,103.95672859120269,142.26809728081872,False,,
2023-08-31 10:54:56.576798-07:00,282.400841,2.61,-1.1,2.36,0.19,24.04,862.91,67.7,20.0,0.0,-0.0210099,0.00333723,0.00769524,34.0613193,-106.883427,1398.88491,-35.9316599,0.436641122,-1.08304029,1.91045,0.935051,16899.1,36.1973,,-0.74448,-1.0,,,,,,,2023-08-31 17:54:56.576798+00:00,1.011500634601276,0.013555116684574382,2.6237603197697767,1.2687686839077565,-2.29659405257729,0.19769524,118.91874792741172,0.28496395707305566,0.09214459353603964,2.475985601101266,119.81704630400377,1.2309484374350719,-2.1473848473017156,0.23743184199999998,0.09088489327709912,0.2848477374559968,0.1568741602026518,0.9876185993898215,0.8788383771483588,0.27784677890200576,,,,,,,,,,,-0.07794028256811987,0.184482119156703,0.2002706666872269,-0.07763999999997395,8.698958775532617e-10,0.027710000000070067,97.12471407656118,103.956728592004,142.2680972811731,False,,
2023-08-31 10:54:57.577453-07:00,283.401496,2.27,-1.91,1.22,0.16,24.34,862.93,66.57,27.0,0.0,-0.0201707,0.0065535,-0.00485188,34.0613194,-106.883427,1398.88113,-35.9186685,0.434534565,-1.10757273,1.89513,1.39421,17035.1,36.2017,,-0.731856,-1.0,,,,,,,2023-08-31 17:54:57.577453+00:00,1.0105040199755206,0.013538083761162884,2.286151030840037,-0.12590409366432254,-2.282681470334731,0.15514812,446.84297991691506,0.28406409972967134,0.06735612204023302,2.394312154358125,174.77606550264326,0.5337902528572902,-2.298839358744277,0.049043486,0.07457495588209001,0.2844427411901429,0.3090017383726649,0.951061473135502,-0.20267801386365736,0.25738207372928584,,,,,,,,,,,-0.06680595604265202,0.18448211882971174,0.19620572858780816,-0.08141999999998006,-0.004064938099418741,-0.003780000000006112,97.13584840308664,103.956728591677,142.27569878398427,False,,
2023-08-31 10:54:58.577169-07:00,284.401212,2.03,-1.07,1.72,0.12,24.42,862.94,66.2,26.0,0.0,-0.0204653,0.00287507,0.00139438,34.0613194,-106.883427,1398.85916,-35.8994242,0.440216378,-1.10985839,1.89823,0.69106,17230.0,36.2056,,-0.693673,-1.0,,,,,,,2023-08-31 17:54:58.577169+00:00,1.0102440587263493,0.01353356743426407,2.0456998827262436,0.7687471158969565,-1.895762612245077,0.12139438,112.07295334504443,0.2843741972894008,0.07725133675756515,2.073739615976893,109.17950999700365,0.6713942758301151,-1.9559311356844156,0.159957750978,0.07512579698694583,0.2843404449981003,0.13911899049577,0.9902756719638415,0.39275825257468316,0.2788410843151668,,,,,,,,,,,-0.06680595581258272,0.18448211819438412,0.19620572791210625,-0.10338999999999032,-6.757019110903428e-10,-0.02197000000001026,97.13584840331671,103.95672859104168,142.27569878367714,False,,
2023-08-31 10:54:59.577268-07:00,285.401311,1.87,-1.04,1.54,0.19,25.24,862.93,63.11,20.0,0.0,-0.00569044,-0.00093461,0.0062458,34.0613194,-106.883428,1398.83096,-35.8933705,0.44075565,-1.09713139,1.89958,0.19774,17411.2,36.2105,,-0.640224,-1.0,,,,,,,2023-08-31 17:54:59.577268+00:00,1.0074561510188598,0.013487010609813482,1.8633048562574266,0.6369042218816311,-1.751073384956171,0.1962458,109.98744887607128,0.2842411551880979,0.07430414545686803,1.9951327286342635,107.99654251458314,0.6166362231170247,-1.8956870573456484,0.165911634,0.0739570179481953,0.2842858477765277,0.1620707112950392,-0.9867791467903646,-0.9157191159042596,0.2768253517109697,,,,,,,,,,,-0.06680595551727302,0.09224105927620421,0.1138922679946803,-0.13158999999996013,-0.08231345991742595,-0.028199999999969805,97.13584840361203,103.8644875321235,142.20831486027862,False,,
2023-08-31 10:55:00.577118-07:00,286.401161,2.31,-1.11,2.0,0.35,24.31,862.94,66.69,23.0,0.0,-0.0115293,0.00308276,0.0149546,34.0613194,-106.883428,1398.8501199999998,-35.8862856,0.457974771,-1.08654033,1.90087,1.45741,17581.4,36.2157,,-0.636614,-1.0,,,,,,,2023-08-31 17:55:00.577118+00:00,1.0106176445747321,0.013539832510606628,2.2991282527563057,0.9727886279323025,-2.0831881835273194,0.36495459999999996,115.03121410830516,0.2845956300159903,0.08281260075309374,2.1509033739885224,115.72371007250808,0.9451688132447685,-1.922554040893354,0.26503263999999993,0.08279828538614833,0.2845197601401157,0.25831032841580986,0.9660619929557919,0.41647610170259713,0.2655928653489575,,,,,,,,,,,-0.06680595571791606,0.0922410595532383,0.113892268336741,-0.11243000000013126,3.420606992099451e-10,0.01915999999982887,97.13584840341139,103.86448753240053,142.2083148603439,False,,
2023-08-31 10:55:01.576953-07:00,287.400996,2.14,-1.01,1.85,0.37,24.06,862.94,67.63,30.0,0.0,-0.0175562,0.00556252,0.0121094,34.0613194,-106.883428,1398.82388,-35.8818248,0.46116615,-1.09011615,1.89919,0.758842,17559.8,36.2194,,-0.565447,-1.0,,,,,,,2023-08-31 17:55:01.576953+00:00,1.0114677317559968,0.013554093340206923,2.125990434903914,0.9125070711034882,-1.9201995142403998,0.3821094,115.41775496730054,0.2844656339842075,0.08102729707047467,2.3114097462523877,122.43729773426989,1.2382893996638216,-1.9436878192261389,0.30295032000000005,0.09140661754831095,0.2847158155585174,0.30204254986172735,0.953294444583113,0.593377980431436,0.2588756209016946,,,,,,,,,,,-0.06680595544313142,0.09224105917383461,0.11389226786828209,-0.13867000000004737,-4.684589105519166e-10,-0.026239999999916108,97.13584840368617,103.86448753202113,142.20831486025446,False,,
2023-08-31 10:55:02.577443-07:00,288.401486,1.99,-0.98,1.7,0.35,24.25,862.94,66.87,21.0,0.0,-0.0148387,0.00384614,0.0106497,34.0613195,-106.883428,1398.8171599999998,-35.8768936,0.458166118,-1.10161848,1.89782,0.533218,17479.5,36.2241,,-0.511189,-1.0,,,,,,,2023-08-31 17:55:02.577443+00:00,1.0108215351553458,0.013543252318534763,1.9773583271127253,0.8069941017600739,-1.8051887639597382,0.36064969999999996,114.08662001607723,0.2843449792607751,0.0782548635048442,2.1116340282980044,119.47392165265308,1.038193223613827,-1.826920272742901,0.312340446,0.08514811961737596,0.28450833382340773,0.2509052876566719,0.9680116407491817,0.5465991692467396,0.26665143279044135,,,,,,,,,,,-0.055671629713388675,0.09224105896782958,0.1077392375806107,-0.14539000000013402,-0.0061530302876713905,-0.006720000000086657,97.14698272941591,103.86448753181513,142.21592042973253,False,,
2023-08-31 10:55:03.577118-07:00,289.401161,2.05,-0.66,1.92,0.28,24.2,862.95,67.02,21.0,0.0,-0.0146188,0.00396384,0.00444493,34.0613195,-106.883428,1398.77542,-35.8714013,0.452012224,-1.09713438,1.90211,0.879987,17420.7,36.229,,-0.45031,-1.0,,,,,,,2023-08-31 17:55:03.577118+00:00,1.011003222491616,0.013546143061538228,2.0445118182239708,1.1730666943009829,-1.6744978666989252,0.28444493000000004,125.0131002327818,0.2845177088602042,0.08905398658132667,2.224299244451018,124.21000901908955,1.2622292505644839,-1.8188984026358717,0.282662574,0.0928423258985129,0.2846809184067834,0.2616972801282719,0.9651500057366548,0.742239803623819,0.2652606293328389,,,,,,,,,,,-0.055671629349138455,0.09224105836431168,0.10773923687569079,-0.18713000000002467,-7.049199141073714e-10,-0.04173999999989064,97.14698272978016,103.86448753121161,142.21592042954057,False,,
2023-08-31 10:55:04.577244-07:00,290.401287,2.71,-0.31,2.69,0.13,24.42,862.94,66.12,31.0,0.0,-0.0164115,-9.07662e-05,0.0253617,34.0613195,-106.883428,1398.7910399999998,-35.8618885,0.460560279,-1.09863452,1.90373,0.872311,17405.2,36.2333,,-0.434455,-1.0,,,,,,,2023-08-31 17:55:04.577244+00:00,1.0102440587263493,0.01353356743426407,2.7188376756589903,1.9983616093090142,-1.8435371395832165,0.1553617,137.30771081315478,0.2852977006016125,0.12042550309969798,2.6793650691561246,134.2737992308905,1.8680101597364982,-1.918211648604911,0.19445060000000003,0.11506886507839273,0.2852255892527379,0.005530561609324889,-0.9999847063271945,-1.878590378702652,0.28521686504749194,,,,,,,,,,,-0.05567162948544867,0.09224105859016096,0.10773923713948685,-0.17151000000012573,2.637960683227192e-10,0.015619999999898937,97.14698272964385,103.86448753143746,142.21592042961242,False,,
2023-08-31 10:55:05.576637-07:00,291.40068,1.86,-0.03,1.86,0.15,24.02,862.94,68.71,23.0,0.0,-0.0182362,0.00316574,0.0410768,34.0613196,-106.883428,1398.82339,-35.847445,0.458754268,-1.10890359,1.90199,0.487513,17486.3,36.2379,,-0.378287,-1.0,,,,,,,2023-08-31 17:55:05.576637+00:00,1.0116038784372576,0.013556377915858652,1.8737375431034904,1.4932740940403195,-1.131823687905306,0.1910768,142.83977527017257,0.28445308942424785,0.10037508886989274,2.01297673579792,135.73672374526654,1.4274949829900456,-1.4099305691075161,0.21433419999999997,0.09829869344666374,0.2845774795198137,0.17103841786526544,0.9852643602679165,1.165307637361325,0.27626737655523514,,,,,,,,,,,-0.0445373040975112,0.09224105894906835,0.10243038812930316,-0.1391599999999471,-0.005308849010183692,0.032350000000178625,97.15811705503178,103.86448753179637,142.22352646423144,False,,
2023-08-31 10:55:06.577058-07:00,292.401101,2.79,0.39,2.76,0.05,24.9,862.94,65.17,20.0,0.0,-0.0182733,0.00471113,0.0371519,34.0613197,-106.883428,1398.8139899999999,-35.8494599,0.461891323,-1.09643053,1.90272,0.326889,17587.6,36.2424,,-0.350345,-1.0,,,,,,,2023-08-31 17:55:06.577058+00:00,1.0086170929548728,0.01350629796200028,2.8001443860175934,2.4702592164035986,-1.3185704328244756,0.0871519,151.90767390510567,0.285377007224466,0.14042982626767758,2.659246952481459,149.8914223654122,2.3019214474190157,-1.328620986642229,0.18375654,0.13403445974713887,0.28531618523011615,0.2496514413091833,0.9683357671036671,1.8973407263300146,0.2676640069461786,,,,,,,,,,,-0.03340297837804844,0.09224105870431325,0.09810286374727771,-0.14856000000008862,-0.004327524382025452,-0.009400000000141517,97.16925138075125,103.86448753155162,142.23113296352338,False,,
2023-08-31 10:55:07.577028-07:00,293.401071,3.79,-0.01,3.79,0.06,23.59,862.93,70.5,29.0,0.0,-0.0120217,0.003265,0.0273178,34.0613198,-106.883428,1398.7925,-35.8408853,0.459417608,-1.08950901,1.90087,0.162604,17518.7,36.2471,,-0.295842,-1.0,,,,,,,2023-08-31 17:55:07.577028+00:00,1.01305803364062,0.013580947005425401,3.799727751515586,3.0697587223005764,-2.2393106913729555,0.0873178,143.89020279930105,0.28686713663537056,0.16743786376025951,3.9020370578511163,145.5740369052065,3.196681740044834,-2.216559800630953,0.1013532,0.17323586969619018,0.2870510238158327,0.2620977052766171,0.9650413425800636,2.5039748008602722,0.2675967422217091,,,,,,,,,,,-0.02226865194092916,0.09224105828474904,0.09489102008492015,-0.17004999999994652,-0.0032118436623575636,-0.0214899999998579,97.18038570718836,103.86448753113206,142.23873992799074,False,,
2023-08-31 10:55:08.576621-07:00,294.400664,4.49,-0.23,4.49,-0.08,23.63,862.89,70.39,25.0,0.0,-0.0115899,0.00243664,0.0394457,34.0613199,-106.883428,1398.8397499999999,-35.8422712,0.453808423,-1.10896667,1.90284,0.688758,17316.3,36.2515,,-0.254066,-1.0,,,,,,,2023-08-31 17:55:08.576621+00:00,1.0128745410465292,0.013578494920425559,4.505051192359211,3.5074966127378215,-2.82718123886847,-0.0405543,141.12980960537902,0.2881438339592058,0.18772315850343166,4.9177931374376325,141.54828682442061,3.8521467124261433,-3.056809206016184,-0.09934486,0.20395039347054125,0.28901386433079806,0.2057405104444189,0.9786065820144835,3.140826641288709,0.27691475486250283,,,,,,,,,,,-0.011134326407064713,0.09224105885909527,0.09291063536531292,-0.1228000000000975,-0.0019803847196072227,0.047249999999849024,97.19152003272224,103.8644875317064,142.2463473573049,False,,
2023-08-31 10:55:09.577191-07:00,295.401234,3.06,-0.26,3.04,0.18,24.09,862.9,67.46,20.0,0.0,-0.00936758,0.000436281,0.0502413,34.0613199,-106.883428,1398.92825,-35.8365308,0.46071021,-1.10759867,1.90435,-0.0372759,17297.4,36.2563,,-0.116681,-1.0,,,,,,,2023-08-31 17:55:09.577191+00:00,1.0113187657935376,0.013552222037114923,3.057548066536123,2.3127125786941902,-1.99999017685799,0.23024129999999998,139.14736880998598,0.2857323866429508,0.1337738554386736,3.5359944962167873,135.57493762563433,2.5277598913664105,-2.466104122739848,0.19021848000000002,0.14338311108827073,0.2864327654584331,0.04652307231594911,0.9989172156601792,2.410292132100326,0.285812979936426,,,,,,,,,,,-0.011134326561526358,0.09224106013871518,0.09291063665422157,-0.034300000000030195,1.2889086464795696e-09,0.0885000000000673,97.19152003256777,103.86448753298602,142.2463473581337,False,,
2023-08-31 10:55:10.576785-07:00,296.400828,2.89,-0.64,2.81,0.21,23.42,862.93,70.3,28.0,0.0,-0.016118,0.00653749,0.0273312,34.06132,-106.883428,1398.9209199999998,-35.8410034,0.458287353,-1.07462369,1.90144,0.120563,17270.4,36.2609,,-0.0467395,-1.0,,,,,,,2023-08-31 17:55:10.576785+00:00,1.0136387392606048,0.013590701173818371,2.8983876106695416,1.9097056176624778,-2.180292456426676,0.2373312,131.21493123079694,0.2854354114886697,0.1165420496098581,3.14050362422715,133.99120681378366,2.1821647548538055,-2.239380909636757,0.22413776,0.12851622535866764,0.2858084654038303,0.37586141753283814,0.9266758844440732,1.1804625711147865,0.24610240242979958,,,,,,,,,,,0.0,0.09224105992389016,0.09224105992389016,-0.041630000000168366,-0.0006695767303314115,-0.0073300000001381704,97.2026543591293,103.8644875327712,142.25395525223732,False,,
2023-08-31 10:55:11.576973-07:00,297.401016,2.71,0.01,2.71,0.13,23.68,862.92,69.11,27.0,0.0,-0.0137627,0.00233124,0.0298543,34.06132,-106.883428,1398.91787,-35.8365317,0.466878013,-1.13181845,1.90564,0.0233494,17167.2,36.2656,,-0.0646669,-1.0,,,,,,,2023-08-31 17:55:11.576973+00:00,1.0127391343524421,0.013575749063004823,2.7199476349800786,2.2051577460815457,-1.5922922005493467,0.1598543,144.16784117510738,0.285311029041094,0.12907362763684296,2.538577499964846,151.10499347810838,2.1559613871348873,-1.283483737321136,0.14921075999999997,0.12719677425944662,0.28512321383866673,0.16700927089103856,0.9859553252741443,1.9113279275605648,0.2771932345303152,,,,,,,,,,,0.0,0.09224105987979027,0.09224105987979027,-0.04467999999997119,-4.409989040610185e-11,-0.0030499999998028215,97.2026543591293,103.8644875327271,142.25395525220515,False,,
2023-08-31 10:55:12.576878-07:00,298.400921,2.97,-0.56,2.91,0.22,23.75,862.91,68.9,21.0,0.0,-0.0132582,0.00162496,0.0359546,34.06132,-106.883428,1398.9435099999998,-35.8371179,0.461131897,-1.11759835,1.90767,0.705499,17232.0,36.2706,,-0.0398588,-1.0,,,,,,,2023-08-31 17:55:12.576878+00:00,1.012488627811227,0.01357170019887016,2.9741713463436708,2.0328469545353753,-2.170997111202125,0.25595460000000003,133.1177766875096,0.28556091110464477,0.12183303916584043,2.340226761526875,135.95886641053067,1.6222285106238872,-1.6322157840802465,0.27141950000000004,0.1057790324418412,0.28485097133791226,0.12165233983466336,0.9925727722503532,1.4116169807650818,0.28063974491355687,,,,,,,,,,,0.0,0.09224106025051856,0.09224106025051856,-0.01904000000013184,3.7072829528472795e-10,0.025639999999839347,97.2026543591293,103.86448753309782,142.2539552524758,False,,
2023-08-31 10:55:13.577279-07:00,299.401322,2.28,0.61,2.19,0.13,24.16,862.93,67.24,25.0,0.0,-0.0118736,0.000637852,0.0241602,34.06132,-106.883428,1398.9404499999998,-35.8409497,0.464112456,-1.1444015,1.90528,0.0700005,17314.1,36.2756,,0.114429,-1.0,,,,,,,2023-08-31 17:55:13.577279+00:00,1.011115808087577,0.013548345762838955,2.27810680992775,2.133129272412808,-0.7997062864669707,0.1541602,159.4490694585449,0.28474662512435833,0.12607834759623196,2.0833690192346026,156.69587330503822,1.8977371777662007,-0.843742263540373,0.043978840000000005,0.11637806588266734,0.28475316708364706,0.053642838903651784,0.9985601863855562,1.849744059621718,0.28393397191014896,,,,,,,,,,,0.0,0.09224106020627407,0.09224106020627407,-0.022100000000136788,-4.4244496955059276e-11,-0.0030600000000049477,97.2026543591293,103.86448753305358,142.25395525244352,False,,
2023-08-31 10:55:14.577413-07:00,300.401456,2.19,0.4,2.16,0.02,24.7,862.92,65.09,26.0,1.0,-0.0205278,0.00241779,0.0207096,34.06132,-106.883429,1398.96255,-37.1143162,0.46500793,-1.09659566,1.90423,-0.0304627,17504.0,36.2798,,0.104751,-1.0,,,,,,,2023-08-31 17:55:14.577413+00:00,1.0092709660897614,0.01351756786313932,2.208152624364655,1.9662363691287514,-1.004914201911735,0.0407096,152.92909932315212,0.28536513669457747,0.11682166294715958,2.4292933004015187,154.36108118240404,2.1611681048478166,-1.0726582261479765,0.04532876,0.12594107290291431,0.2855574195353515,0.11697269981442536,0.9931351305326603,2.020860239220377,0.28165551944913564,1.9154616361606893,,-0.011231636160689229,0.005099019513592785,False,-0.7921308917655061,,0.7616681917655062,0.7071067811865476,False,0.0,0.0,0.0,0.0,-0.09224106020627407,0.022100000000136788,97.2026543591293,103.7722464728473,142.18662086315197,False,,
2023-08-31 10:55:15.576878-07:00,301.400921,3.15,0.11,3.14,0.09,23.3,862.91,70.81,20.0,1.0,-0.0231769,-0.00424525,0.0372391,34.0613201,-106.883429,1399.0104,-37.5273117,0.491234649,-0.978581458,1.90229,-0.182264,17695.0,36.2844,,0.122866,-1.0,,,,,,,2023-08-31 17:55:15.576878+00:00,1.0140255476375553,0.013597515299088229,3.1520089069067163,2.552978127085,-1.848638101913092,0.1272391,144.09131041443993,0.28632273475465897,0.14213230849813943,3.1539774097556235,147.33644555093449,2.645904478033196,-1.7090976835070193,0.27494142000000005,0.14601751923960346,0.2862876539069855,0.18016985296226923,-0.9836355138381058,-2.9105334891523427,0.277034971389397,1.9155746987284823,,-0.013284698728482258,0.005099019513592785,False,-0.8084680946905394,,0.6262040946905394,0.7071067811865476,False,0.011134325996638493,0.0,0.011134325996638493,0.047849999999925785,0.011134325996638493,0.047849999999925785,97.21378868512593,103.7722464728473,142.19423282446334,False,,
2023-08-31 10:55:16.589330-07:00,302.413373,4.2,-0.14,4.19,0.2,22.77,862.87,73.09,20.0,1.0,-0.0220911,0.0342844,0.0748243,34.0613205,-106.883429,1399.0425,-37.8704643,0.369412343,0.703346203,1.90599,0.0296553,17437.0,36.2896,,0.0734418,-1.0,,,,,,,2023-08-31 17:55:16.589330+00:00,1.0157946032252791,0.013627888108077392,4.23282339814608,3.255930117105564,-2.704757473863023,0.2748243,140.28300110931627,0.28743669061762844,0.17227833819334307,4.400142600134802,140.50020282857753,3.395680856867995,-2.7974956601938206,0.19768432000000002,0.17687375434644304,0.2875915948902632,0.8406077760844831,0.541644317598089,-0.5123453650223613,0.15079633715227572,1.915688256907432,,-0.009698256907431979,0.005099019513592785,False,-0.8247953946884687,,0.8544506946884688,0.7071067811865476,False,0.05567163097158448,0.0,0.05567163097158448,0.07995000000005348,0.044537304974945985,0.03210000000012769,97.25832599010089,103.7722464728473,142.22468531312737,False,,
