Timestamp,Seconds,S,Um,Vm,Wm,T,P,H,MD,Sts,Vx,Vy,Vz,Lat,Lon,Alt,Yaw,Roll,Pitch,CH4,C2H6,H20,T_a,Batt,R,C2C1,Power,Current,SOC,Lat_a,Lon_a,TS,Timestamp_UTC,Rho,Rho_err,Sc,V,U,W,WD,V_err,U_err,Sc_avg,WD_avg,V_avg,U_avg,W_avg,U_err_avg,V_err_avg,Nx,Ny,cross_wind,cross_wind_err,CH4_sub,CH4_res,CH4_adj,CH4_adj_err,BG_Samples_CH4,C2H6_sub,C2H6_res,C2H6_adj,C2H6_adj_err,BG_Samples_C2H6,x_dist,y_dist,s_dist,z_dist,velocity_s,velocity_z,x_src_dist,y_src_dist,s_src_dist,collecting,group,transect_num
2022-11-16 10:50:04.978283-07:00,0.600395,2.34,0.09,-2.32,0.22,14.66,975.86,25.36,23.0,0.0,-0.000153797,0.0011246,0.00637765,32.8213883,-111.78698,324.676355,0.0865803328,-0.286445883,-0.21671679,2.02107,6.97715,3026.59,27.0695,11497.0,-0.288984,-1.0,20.0,-1285.0,83.0,,0.0,,2022-11-16 17:50:04.978283+00:00,1.1811810939239993,0.014624606907840444,2.320615487187203,-2.319008751204927,0.08634032202896608,0.22637765,357.8677733949593,0.2363805791830436,0.2368088589651794,2.208337215226161,343.3923744535611,-2.044222189119039,0.4951678230934132,0.342983584,0.23172283261228405,0.2312616418440317,0.9907779093546537,0.13549588309178112,0.2136176497936887,0.22750822271713225,,,,,,,,,,,0.8794636425934269,0.5613188901148697,1.0433289007036506,0.1149599999999964,1.0433289007036506,0.1149599999999964,-20.784283055476447,-97.10794796875297,99.30730074285675,False,,
2022-11-16 10:50:05.177671-07:00,0.799783,1.79,0.91,-1.44,0.53,14.56,975.83,25.65,22.0,0.0,0.000359893,0.000268063,0.00762343,32.8213883,-111.78698,324.67928500000005,0.0961771206,-0.28843977,-0.20768651,2.02107,6.97715,3026.59,27.0695,11497.0,-0.288984,-1.0,20.0,-1285.0,83.0,,0.0,,2022-11-16 17:50:05.177671+00:00,1.181555315019359,0.01463115019619683,1.7034026613087956,-1.4412574402744476,0.9079414173873965,0.53762343,327.7905171493801,0.21809886617707855,0.21869905757177532,2.149374319352615,339.43342824446916,-1.9384758934984483,0.5890513466746897,0.33695589200000003,0.22975224671228714,0.22921268143638276,0.5973486736996532,-0.801981646940418,1.9064911302993044,0.1686852817459517,,,,,,,,,,,0.8794636429974184,0.5613188903727179,1.0433289011829154,0.11789000000004535,4.792648500284713e-10,0.002930000000048949,-20.784283055072457,-97.10794796849513,99.30730074252007,False,,
2022-11-16 10:50:07.177356-07:00,2.799468,1.56,1.1,-0.98,0.51,14.75,975.84,25.33,24.0,0.0,-0.000204414,-0.000316505,0.00497902,32.8213883,-111.78698,324.676019,0.206716107,-0.292432434,-0.202446441,2.02203,6.88849,3010.74,27.0704,11562.0,-0.196628,-1.0,24.0,-1307.0,83.0,,0.0,,2022-11-16 17:50:07.177356+00:00,1.1807876461858353,0.014618501283090108,1.473287051984962,-0.9842787825301748,1.0962527153022048,0.51497902,311.9193208314499,0.21125741938083792,0.2126242743410262,1.393658648567127,324.14910327471335,-1.0869449958766317,0.8060752679976684,0.43387758200000004,0.21395358231012124,0.21261125060088312,0.8400339093990072,-0.5425338985352164,1.2668350647522275,0.16343391194995502,,,,,,,,,,,0.879463642547099,0.5613188900853009,1.0433289006486908,0.11462399999999207,-5.342246645057003e-10,-0.003266000000053282,-20.784283055522778,-97.10794796878254,99.30730074289538,False,,
2022-11-16 10:50:07.978181-07:00,3.600293,1.45,0.92,-0.9,0.66,14.89,975.84,25.1,24.0,0.0,3.01698e-05,-0.00026412,0.00590851,32.8213883,-111.78698,324.67931500000003,0.251736975,-0.294728375,-0.197337949,2.02269,6.93232,3023.35,27.0699,11554.0,-0.197396,-1.0,23.0,-1294.0,83.0,,0.0,,2022-11-16 17:50:07.978181+00:00,1.180213731901479,0.014609160376403342,1.2872190530736425,-0.9042975681178499,0.9160670275105133,0.6659085100000001,314.6295626953172,0.2102172861770352,0.21188364210069746,1.3870804085053627,323.47461849299737,-1.1055390329724817,0.781019903143302,0.515887794,0.21471348886566183,0.21309145426488724,0.9935391820006597,0.1134896199194445,0.6505066710370736,0.21196577158478616,,,,,,,,,,,0.8794636430015548,0.5613188903753579,1.0433289011878226,0.11792000000002645,5.391318502745435e-10,0.0032960000000343825,-20.78428305506832,-97.10794796849248,99.30730074251662,False,,
2022-11-16 10:50:08.177443-07:00,3.799555,1.62,0.93,-1.24,0.49,14.76,975.85,25.39,25.0,0.0,-0.000112249,-0.000475676,0.00590447,32.8213883,-111.78698,324.67922400000003,0.261814569,-0.292608264,-0.205234363,2.02269,6.93232,3023.35,27.0699,11554.0,-0.197396,-1.0,23.0,-1294.0,83.0,,0.0,,2022-11-16 17:50:08.177443+00:00,1.1807587335958603,0.014617880840173394,1.5503149476890137,-1.2447123747004092,0.9242118487098385,0.49590447,323.40573052245406,0.2145077458202665,0.2161848038552647,1.439396953841316,328.2399996047617,-1.2013528458707379,0.6940991702802864,0.527779864,0.21617653004238072,0.21450572781862992,0.9732686002193448,-0.22966983220936357,0.9514594344074769,0.2050859625587867,,,,,,,,,,,0.8794636429890077,0.5613188903673497,1.0433289011729376,0.11782900000002883,-1.48849821357544e-11,-9.099999999762076e-05,-20.784283055080866,-97.1079479685005,99.30730074252709,False,,
2022-11-16 10:50:08.978203-07:00,4.600315,1.56,0.9,-1.12,0.61,15.05,975.84,24.84,25.0,0.0,-0.000572861,-0.000139687,0.00599528,32.8213883,-111.78698,324.68102400000004,0.312237083,-0.290506175,-0.209076503,2.0214,7.58986,3028.61,27.0708,11507.0,-0.212985,-1.0,20.0,-1289.0,83.0,,0.0,,2022-11-16 17:50:08.978203+00:00,1.1795585126193682,0.014598499735345691,1.436555070484663,-1.1250276406501158,0.8933102922884236,0.61599528,321.54922708264223,0.21268338537761527,0.21470768232849227,1.399036155194283,325.04312191664064,-1.1302499961287293,0.7715090583784231,0.627606336,0.21503278088076047,0.21300603282408911,0.23689984261960587,-0.9715340779235724,1.280846762321495,0.20141366655825169,,,,,,,,,,,0.8794636432371934,0.5613188905257547,1.0433289014673663,0.11962900000003174,2.9442870363993734e-10,0.0018000000000029104,-20.78428305483268,-97.10794796834209,99.30730074232024,False,,
2022-11-16 10:50:09.977758-07:00,5.59987,1.46,0.98,-0.9,0.6,15.15,975.84,24.79,25.0,0.0,0.000107035,-8.41724e-05,0.00508552,32.8213883,-111.78698,324.679346,0.376619902,-0.288593877,-0.195690276,2.02293,7.68256,3042.11,27.0712,11484.0,-0.201181,-1.0,21.0,-1299.0,83.0,,0.0,,2022-11-16 17:50:09.977758+00:00,1.1791493698817272,0.014591844772639919,1.330699488117476,-0.9065064747826971,0.9741699743130869,0.6050855199999999,312.93948529599345,0.2098232005455716,0.2123201566355852,1.4170249486712887,314.19515067164076,-0.982369744832955,1.0075539356593608,0.590928762,0.2132789007864615,0.21080841615620977,0.6181551093878717,0.7860561435022746,-0.1493731598050133,0.1536496514887157,,,,,,,,,,,0.8794636430058291,0.561318890378086,1.0433289011928935,0.11795100000000502,-2.7447288886151e-10,-0.0016780000000267137,-20.784283055064048,-97.10794796848975,99.30730074251306,False,,
2022-11-16 10:50:10.177432-07:00,5.799544,1.64,1.0,-1.14,0.63,14.98,975.84,25.07,24.0,0.0,0.00025576,9.38483e-05,0.00489352,32.8213883,-111.78698,324.678674,0.389832272,-0.285956193,-0.198282628,2.02293,7.68256,3042.11,27.0712,11484.0,-0.201181,-1.0,21.0,-1299.0,83.0,,0.0,,2022-11-16 17:50:10.177432+00:00,1.179845081514948,0.014603161840921693,1.5165396033857295,-1.1466835692788555,0.9924762770883996,0.63489352,319.12319336582925,0.21271793144962448,0.21524878129672634,1.4085283964080966,314.5863300338953,-0.9826924384486416,0.9954034717034087,0.5630360139999999,0.21331853239133425,0.2107713270273875,0.344479944586101,-0.9387936768949591,1.2654419803212762,0.18747668160845932,,,,,,,,,,,0.8794636429131731,0.5613188903189482,1.0433289010829734,0.11727899999999636,-1.099200730436678e-10,-0.0006720000000086657,-20.784283055156703,-97.1079479685489,99.30730074259029,False,,
2022-11-16 10:50:10.978257-07:00,6.600369,1.64,0.86,-1.24,0.64,15.41,975.85,24.38,25.0,0.0,0.000208488,-0.000635841,0.00599624,32.8213883,-111.78698,324.681146,0.43221996,-0.286112053,-0.195959216,2.02277,7.51825,3051.73,27.0713,11552.0,-0.177162,-1.0,23.0,-1306.0,83.0,,0.0,,2022-11-16 17:50:10.978257+00:00,1.1780989984390908,0.014574617258109037,1.5096821610312456,-1.2470880462031937,0.8508299667695496,0.64599624,325.69610666839014,0.21400589583465338,0.2167661822476994,1.3577861193144334,325.9989434950454,-1.1216740392937683,0.7417684502972914,0.531627668,0.21526491737292752,0.21248900443618046,0.9502226651108715,0.3115716397710045,0.3553633740253278,0.19545919225185432,,,,,,,,,,,0.8794636432540148,0.5613188905364909,1.043328901487322,0.11975100000000793,4.043485546390002e-10,0.002472000000011576,-20.78428305481586,-97.10794796833135,99.30730074230621,False,,
2022-11-16 10:50:12.978315-07:00,8.600427,2.52,1.55,-1.88,0.63,14.2,975.84,26.36,23.0,0.0,0.000164591,0.000162969,0.00404325,32.821388,-111.78698,324.679681,0.538882976,-0.288342274,-0.194762632,2.01858,7.60072,3087.66,27.0725,11495.0,-0.295917,-1.0,19.0,-1280.0,83.0,,0.0,,2022-11-16 17:50:12.978315+00:00,1.1830477234623349,0.014655314214556276,2.4365522680298346,-1.8943318523428636,1.5324143656467681,0.6340432500000001,321.02897123353364,0.22527721176405238,0.22852823627644106,2.3074861274812566,325.55402921650955,-1.9001173453064992,1.270477362945346,0.5722534899999999,0.22935909972597054,0.22618330355994445,0.7035967288524977,-0.7105994956007673,2.24412614380656,0.1610481339408576,,,,,,,,,,,0.8460662888281787,0.5613188923032144,1.0153359364998338,0.11828600000001188,-0.027992964987488156,-0.0014649999999960528,-20.817680409241696,-97.10794796656462,99.31429592912768,False,,
2022-11-16 10:50:13.977757-07:00,9.599869,1.42,0.79,-1.02,0.6,15.02,975.83,25.07,22.0,0.0,-0.000718071,0.000844255,0.00324264,32.8213879,-111.78698,324.67809400000004,0.593911041,-0.295132027,-0.181379832,2.02048,7.31362,3103.73,27.0733,11486.0,-0.307897,-1.0,20.0,-1308.0,83.0,,0.0,,2022-11-16 17:50:13.977757+00:00,1.1796692219322615,0.014600450365846278,1.2890484501259996,-1.0272897059383284,0.7786666596467223,0.6032426399999999,322.8385434715489,0.21053674661385471,0.21441046022650387,1.2255943740113087,320.55851295655185,-0.9437344951175906,0.7759804274383706,0.642985834,0.21347318272659077,0.2095690733787717,0.7617370317581708,0.6478863283387384,-0.020339649469007792,0.15192515982268967,,,,,,,,,,,0.8349338376845922,0.5613188927954363,1.006078233896259,0.11669900000003963,-0.009257702603574725,-0.0015869999999722495,-20.828812860385284,-97.1079479660724,99.31663004429005,False,,
2022-11-16 10:50:15.177627-07:00,10.799739,1.48,0.87,-0.95,0.72,15.13,975.85,24.92,23.0,0.0,3.16864e-05,-0.000172315,0.00208808,32.8213876,-111.78698,324.678156,0.660081076,-0.296932125,-0.18037875,2.02337,7.35233,3094.0,27.0739,11552.0,-0.240842,-1.0,22.0,-1297.0,83.0,,0.0,,2022-11-16 17:50:15.177627+00:00,1.1792432599888445,0.014593222277660444,1.2883265497127585,-0.9601319617614369,0.8590296355184233,0.72208808,318.1810167751241,0.20949144744624917,0.21383491718949238,1.5494680745516913,335.1295929788512,-1.3248730883246254,0.6126729562304661,0.5200562479999999,0.21895821451751626,0.21484879738432294,0.9835099206706213,0.1808541841995045,0.3629610890224326,0.21191302747179996,,,,,,,,,,,0.8015364841849997,0.5613188946965398,0.9785395429020717,0.11676099999999678,-0.027538690994187376,6.199999995715189e-05,-20.862210213884875,-97.1079479641713,99.32363954678928,False,,
2022-11-16 10:50:15.978047-07:00,11.600159,1.49,1.03,-0.87,0.62,15.03,975.84,25.08,23.0,0.0,-0.000265142,-4.14255e-05,0.00226759,32.8213875,-111.78698,324.67467700000003,0.701572316,-0.30081227,-0.188894973,2.02421,7.465,3084.66,27.074,11550.0,-0.221786,-1.0,23.0,-1290.0,83.0,,0.0,,2022-11-16 17:50:15.978047+00:00,1.1796403752408287,0.014599831460163524,1.3480848227184268,-0.882587979200714,1.0190049794844833,0.62226759,310.89672892603113,0.20846847189935377,0.21313540974038686,1.44190081123453,313.35704698253613,-0.9964377986249083,1.031585517831941,0.638222212,0.21476741855892928,0.2101505855075585,0.15436619496300652,-0.988013703271692,1.1437361306659477,0.20520674866570435,,,,,,,,,,,0.7904040328207007,0.5613188950222608,0.9694418172372384,0.11328200000002653,-0.009097725664833245,-0.003478999999970256,-20.873342665249176,-97.10794796384558,99.32597843348866,False,,
2022-11-16 10:50:16.977640-07:00,12.599752,2.31,-0.37,-2.28,0.06,15.25,975.83,24.78,24.0,0.0,-0.000333449,-7.90338e-05,0.00217258,32.8213873,-111.78698,324.681238,0.752482767,-0.291260374,-0.194031491,2.02295,7.0639,3103.42,27.0746,11484.0,-0.263336,-1.0,20.0,-1287.0,83.0,,0.0,,2022-11-16 17:50:16.977640+00:00,1.1787284316373778,0.014585148958645794,2.309962426610975,-2.275023223309418,-0.4002446074056332,0.06217258,369.9779334632263,0.23406575613080166,0.23767408567325077,1.910956467088532,362.6695726598615,-1.8845937551262366,-0.13112822979101732,0.184175892,0.22936261706951702,0.225301915718276,0.23062950637315222,-0.9730416387750712,1.8035461570050109,0.2136666856264871,,,,,,,,,,,0.7681391310484497,0.5613188968634116,0.9513761761910083,0.11984300000000303,-0.018065641046230096,0.006560999999976502,-20.895607567021425,-97.10794796200443,99.33065978330318,False,,
2022-11-16 10:50:18.177821-07:00,13.799933,2.39,-0.12,-2.38,-0.18,14.14,975.84,26.65,25.0,0.0,-4.18787e-05,0.000240998,0.00199832,32.821387,-111.78698,324.68050500000004,0.807659521,-0.286531343,-0.18775598,2.02064,7.15011,3112.8,27.0746,11490.0,-0.189892,-1.0,20.0,-1309.0,83.0,,0.0,,2022-11-16 17:50:18.177821+00:00,1.1832948008524555,0.014659341445215386,2.3827854914816333,-2.377831043438819,-0.1535780820105134,-0.17800168,363.6954563408842,0.23650079700049703,0.24034479947300288,2.3029288545660616,365.3829306496174,-2.2908533453344346,-0.22232095854062747,-0.068008842,0.23853761169464338,0.23461579974449082,0.985235206296107,0.1712062740517053,-0.6112469011053164,0.23164779661361776,,,,,,,,,,,0.7347417774401684,0.5613188986945529,0.9246212119282163,0.11911000000003469,-0.026754964262792003,-0.0007329999999683423,-20.92900492062971,-97.10794796017329,99.33769075231952,False,,
2022-11-16 10:50:19.177915-07:00,14.800027,2.17,-0.13,-2.16,-0.09,14.16,975.83,26.69,24.0,0.0,0.000165887,-0.000185753,0.00128892,32.8213868,-111.78698,324.677881,0.857927586,-0.291960798,-0.182371081,2.02478,7.43746,3116.21,27.0754,11551.0,-0.158475,-1.0,22.0,-1294.0,83.0,,0.0,,2022-11-16 17:50:19.177915+00:00,1.1832003051902813,0.014657951360527617,2.164081293736738,-2.1579971069489288,-0.1621614390085607,-0.08871108,364.29738156041253,0.23090157971055222,0.2352404906519983,2.164153917977612,366.22010905432415,-2.1503360528842768,-0.23628490138042618,-0.004341097999999999,0.23527597126886907,0.23095756048020455,0.7458656286710573,0.6660964374376495,-1.608567970633544,0.1662292174399291,,,,,,,,,,,0.7124768745643438,0.5613188997273986,0.907029329173072,0.11648600000000897,-0.01759188275514434,-0.002624000000025717,-20.95126982350553,-97.10794795914045,99.34238402641877,False,,
2022-11-16 10:50:20.177616-07:00,15.799728,2.77,-0.39,-2.74,-0.04,14.36,975.84,26.35,23.0,0.0,-0.000806316,8.17278e-05,0.00332837,32.8213866,-111.78698,324.686304,0.906959571,-0.298838885,-0.185778136,2.02223,7.09397,3102.33,27.0757,11503.0,-0.139189,-1.0,19.0,-1282.0,83.0,,0.0,,2022-11-16 17:50:20.177616+00:00,1.1823893545855864,0.014644585794948154,2.767661945128282,-2.7334017771084196,-0.43412828451023244,-0.036671630000000004,369.0245358617723,0.24616450391726274,0.2498919228472595,2.5877343024163344,370.1041131986308,-2.5470133313118666,-0.4507596916019854,0.024901122000000005,0.24501120665305315,0.24103732735184216,0.1008428232610968,0.9949023695804182,-2.5794854785885364,0.23859916210997098,,,,,,,,,,,0.6902119729022388,0.5613189017324106,0.889646827105948,0.12490900000000238,-0.017382502067123995,0.008422999999993408,-20.973534725167635,-97.10794795713544,99.34708206743436,False,,
2022-11-16 10:50:20.978227-07:00,16.600339,2.98,-0.62,-2.92,0.06,14.47,975.85,26.24,24.0,0.0,-0.000640402,0.000142945,0.00174396,32.8213864,-111.78698,324.68313,0.952091631,-0.296681239,-0.191007007,2.02516,7.38259,3085.27,27.0762,11503.0,-0.0653636,-1.0,19.0,-1282.0,83.0,,0.0,,2022-11-16 17:50:20.978227+00:00,1.1819492628801338,0.014637266448496632,2.9851004715887153,-2.909151766957372,-0.6690746014369184,0.06174396,372.9521976428471,0.25138648581042095,0.25492962812656705,2.771983791181822,369.96335478894673,-2.72843539343136,-0.47372323531258803,0.081889556,0.2501587520858708,0.2462795716354409,0.21785031067649066,0.9759821935558848,-2.766105114244172,0.2348916722132541,,,,,,,,,,,0.6679470706750424,0.5613189027168547,0.8724862175247378,0.12173500000000104,-0.01716060958121024,-0.0031740000000013424,-20.995799627394835,-97.107947956151,99.35178487701286,False,,
2022-11-16 10:50:21.977848-07:00,17.59996,3.02,-0.34,-3.0,-0.06,14.49,975.83,26.21,24.0,0.0,-0.000178421,0.000738111,0.000640341,32.8213862,-111.78698,324.681085,0.997864698,-0.29973297,-0.19174706,2.02131,7.80165,3058.75,27.0767,11516.0,-0.160806,-1.0,20.0,-1307.0,83.0,,0.0,,2022-11-16 17:50:21.977848+00:00,1.181842858031636,0.01463583328797215,3.0184965254985654,-2.9928857746603286,-0.39237229041148736,-0.059359658999999995,367.46897477095695,0.25375295544401505,0.25748293178072273,3.1366490314928654,367.72262391290565,-3.1067553423735097,-0.41844143256921135,-0.024716675,0.260951042409657,0.25741644551855286,0.9720051793241355,0.2349594249377009,-1.1366886883672944,0.24695421777284324,,,,,,,,,,,0.6456821678761451,0.5613189038006539,0.8555608532870155,0.11968999999999141,-0.016925364237722285,-0.0020450000000096225,-21.01806453019373,-97.10794795506719,99.35649245338438,False,,
2022-11-16 10:50:23.177778-07:00,18.79989,2.97,-0.16,-2.96,-0.04,14.66,975.85,25.96,23.0,0.0,-3.68794e-05,0.000691916,0.00143264,32.8213859,-111.78698,324.68667000000005,1.05044268,-0.292742672,-0.196168526,2.02309,7.59826,3039.93,27.0762,11546.0,-0.0974329,-1.0,23.0,-1302.0,83.0,,0.0,,2022-11-16 17:50:23.177778+00:00,1.181168989922463,0.014624559700670687,2.9636337302011717,-2.9558774094825604,-0.21427465294985004,-0.03856736,364.1461786299779,0.25246903970119344,0.2565533501473183,2.800133707415933,363.5431243449884,-2.782168605627703,-0.19501043121597855,0.07085298179999999,0.2519204759178015,0.24756612699967237,0.9985825530860017,0.05322485013828145,-0.34281452137602,0.2512077932523201,,,,,,,,,,,0.6122848155973695,0.5613189061877963,0.830645297256879,0.12527500000004466,-0.02491555603013651,0.005585000000053242,-21.051461882472505,-97.10794795268005,99.36356275300122,False,,
2022-11-16 10:50:24.178068-07:00,19.80018,2.15,0.8,-1.9,0.6,14.36,975.84,26.42,24.0,0.0,-0.000274288,9.51731e-06,0.000836274,32.8213857,-111.78698,324.67141100000003,1.09227022,-0.293142029,-0.192771447,2.02035,7.80984,3040.51,27.0772,11544.0,-0.133798,-1.0,21.0,-1289.0,83.0,,0.0,,2022-11-16 17:50:24.178068+00:00,1.1823893545855864,0.014644585794948154,2.061442386674856,-1.914895284879863,0.7633614881067776,0.600836274,338.2655993244544,0.2243753310366164,0.23063364554558646,2.29152205718627,346.40175435393485,-2.1952493674698266,0.48798912083648993,0.43905828094,0.23717480519757336,0.23143332876232847,0.034677367954698377,0.9993985592103555,-2.177006876655652,0.23115520154047153,,,,,,,,,,,0.5900199115816338,0.5613189061087274,0.814372402785051,0.11001600000003009,-0.016272894471828003,-0.015259000000014566,-21.07372678648824,-97.10794795275912,99.36828224472498,False,,
2022-11-16 10:50:24.978135-07:00,20.600247,2.7,-0.14,-2.69,-0.05,14.13,975.83,26.86,24.0,0.0,0.000284029,0.00153959,0.000890655,32.8213856,-111.78698,324.672235,1.13506243,-0.288783295,-0.189335243,2.02359,7.33486,3044.76,27.0769,11484.0,-0.184153,-1.0,20.0,-1278.0,83.0,,0.0,,2022-11-16 17:50:24.978135+00:00,1.1833238641193948,0.01465996542588084,2.692084664160897,-2.6851592706635916,-0.19297546522721173,-0.049109345000000006,364.1106324522048,0.244381643227047,0.2492595202269734,2.6270562961199473,363.41253052993574,-2.6204472949800275,-0.1617147797869215,-0.014584295800000003,0.24761330415662702,0.2426215479852294,0.9834053215971956,-0.18142208645673832,0.3163758406818154,0.23959648223306196,,,,,,,,,,,0.5788874600268555,0.561318906813124,0.8063433552291634,0.11083999999999605,-0.008029047555887514,0.0008239999999659631,-21.08485923804302,-97.10794795205472,99.3706437764547,False,,
2022-11-16 10:50:25.177796-07:00,20.799908,2.49,-0.01,-2.49,-0.01,13.94,975.85,27.2,26.0,0.0,0.000392769,0.000166855,0.000356976,32.8213856,-111.78698,324.674951,1.14201111,-0.287739325,-0.192481056,2.02359,7.33486,3044.76,27.0769,11484.0,-0.184153,-1.0,20.0,-1278.0,83.0,,0.0,,2022-11-16 17:50:25.177796+00:00,1.184131272387001,0.014672829149294719,2.489843898326168,-2.489139243923263,-0.059232274928249444,-0.009643024,361.363169618985,0.2387966870993127,0.24410190119259703,2.5220834864245476,361.35725269933243,-2.5183205805054234,-0.06802070249053174,0.0393616502,0.24500671127267207,0.23975800332416347,0.39099807520357666,-0.9203914956077649,2.2912448817634083,0.20652891382281302,,,,,,,,,,,0.5788874602733518,0.5613189070521396,0.8063433555725129,0.11355600000001687,3.433494599747178e-10,0.002716000000020813,-21.084859237796522,-97.1079479518157,99.37064377616883,False,,
2022-11-16 10:50:25.977572-07:00,21.599684,2.42,-0.0,-2.41,0.14,14.34,975.84,26.58,25.0,0.0,-0.000110839,0.000713529,0.000839099,32.8213854,-111.786981,324.67431000000005,1.17531377,-0.290915842,-0.206469248,2.0206,7.59127,3035.52,27.0787,11516.0,-0.210526,-1.0,19.0,-1288.0,83.0,,0.0,,2022-11-16 17:50:25.977572+00:00,1.1824716106191588,0.014645925984137524,2.4092888978742306,-2.4087794403630856,-0.049543931052396184,0.14083909900000002,361.17829715338837,0.23659079895886384,0.2421873824341443,2.507798168980371,361.677482177696,-2.5025440331708504,-0.07959704090136403,0.0973553038,0.24462677765696855,0.23919663276411218,0.9881489227006174,0.1534982298451982,-0.4627898094182284,0.23892943228951138,,,,,,,,,,,0.5566225576540802,0.4677657564861775,0.7270718497029408,0.11291500000004362,-0.0792715058695721,-0.0006409999999732463,-21.107124140415795,-97.20150110238167,99.46679097083221,False,,
2022-11-16 10:50:27.978154-07:00,23.600266,2.12,0.21,-2.1,0.17,14.48,975.84,26.41,25.0,0.0,-0.000141821,-3.93293e-05,0.00109723,32.821385,-111.786981,324.682245,1.26558035,-0.292042558,-0.202034706,2.02095,7.20771,2997.86,27.0792,11477.0,-0.12456,-1.0,18.0,-1304.0,83.0,,0.0,,2022-11-16 17:50:27.978154+00:00,1.1818960586062022,0.014636549832898414,2.110502104927302,-2.10416526822463,0.163424780555892,0.17109723000000002,355.55890852952973,0.22857249437762345,0.23523365771055735,2.095397169388574,357.37859993375776,-2.0924004471119946,0.09164399310167978,0.228578734,0.23522001657585134,0.22858731911792138,0.26723115702408956,-0.9636324552004081,2.040795110423833,0.21292694022543268,,,,,,,,,,,0.5120927538770977,0.4677657591743704,0.6935732074045283,0.12085000000001855,-0.033498642298412484,0.007934999999974934,-21.151653944192777,-97.20150109969347,99.47624983184981,False,,
2022-11-16 10:50:29.177825-07:00,24.799937,2.37,0.07,-2.36,0.18,14.67,975.84,26.12,22.0,0.0,-0.000242631,0.000226672,0.000924797,32.8213848,-111.786981,324.680811,1.31222781,-0.297235979,-0.200261728,2.02329,7.48704,2993.79,27.0803,11543.0,-0.115567,-1.0,21.0,-1299.0,83.0,,0.0,,2022-11-16 17:50:29.177825+00:00,1.181115847880279,0.01462384433617915,2.360809615179639,-2.3607574541097627,0.015693374074004562,0.180924797,359.61912611789967,0.23501063005690895,0.2413859775061323,2.3352666941575557,358.1635712537012,-2.3135278663609915,0.04677198764263425,0.14897121591999998,0.2405260868423183,0.2340638457579393,0.682666484872595,0.7307300941056795,-1.6586347671075776,0.167885234457805,,,,,,,,,,,0.4898278511781798,0.4677657601223445,0.6773006202069121,0.11941600000000108,-0.01627258719761626,-0.0014340000000174769,-21.173918846891695,-97.2015010987455,99.48098640033771,False,,
2022-11-16 10:50:29.977932-07:00,25.600044,2.03,1.12,-1.61,0.52,14.34,975.84,26.69,22.0,0.0,-0.000274304,0.000707207,-3.94757e-05,32.8213847,-111.786981,324.679254,1.3408928,-0.293413353,-0.196230011,2.02293,7.54382,2999.83,27.08,11543.0,-0.0998142,-1.0,21.0,-1299.0,83.0,,0.0,,2022-11-16 17:50:29.977932+00:00,1.1824716106191588,0.014645925984137524,1.9605084336519583,-1.6350608755040223,1.08174361648982,0.5199605243000001,326.5116872228367,0.2177427329888225,0.22596658834679237,2.0316728744316506,337.18924101573236,-1.8365360150995265,0.7690649291847393,0.35836953806,0.22993414842083845,0.2221374376875973,0.932325364601707,0.3616205394060107,0.05288959608569188,0.20196575840264247,,,,,,,,,,,0.47869540083165485,0.46776576053472946,0.6692937273768614,0.11785900000000993,-0.008006892830050627,-0.0015569999999911488,-21.18505129723822,-97.20150109833311,99.48335646848606,False,,
2022-11-16 10:50:31.177885-07:00,26.799997,1.3,0.03,-1.29,0.2,15.09,975.85,25.46,24.0,0.0,9.28747e-05,-0.000726953,-0.000370792,32.8213845,-111.786981,324.67766700000004,1.39387611,-0.293206145,-0.19574289,2.02179,7.85689,3007.75,27.0804,11548.0,-0.105717,-1.0,18.0,-1297.0,83.0,,0.0,,2022-11-16 17:50:31.177885+00:00,1.1794069074021098,0.014595884036147925,1.2910756460896282,-1.2910749959436978,-0.0012956753959861935,0.199629208,360.0574999183781,0.21193663819138786,0.22047209703675277,1.3284563315059672,347.75708793214665,-1.2671010774009355,0.24113841905621586,0.31970025761799997,0.2204323478930855,0.21181678942211732,0.9919374016154918,0.12672880996958244,0.07861600517809406,0.21691883827891606,,,,,,,,,,,0.4564304981397374,0.46776576147148324,0.6535545939224093,0.11627200000003768,-0.015739133454452103,-0.0015869999999722495,-21.207316199930137,-97.20150109739636,99.48810017278933,False,,
2022-11-16 10:50:31.977481-07:00,27.599593,1.44,0.17,-1.35,0.48,15.14,975.84,25.42,23.0,0.0,-0.000805552,-0.000581039,-6.47023e-05,32.8213844,-111.786982,324.67656900000003,1.42346393,-0.295342142,-0.197056242,2.02418,8.07482,3006.8,27.0808,11472.0,-0.0133187,-1.0,17.0,-1298.0,83.0,,0.0,,2022-11-16 17:50:31.977481+00:00,1.1791902713826423,0.014592509994441444,1.3611592273700248,-1.3543874975987407,0.1356058575533679,0.4799352977,354.28240764128736,0.2128281846086131,0.22151454278380167,1.2544688211640804,337.0188769648441,-1.1307890790069062,0.47110963314782817,0.55374042374,0.21847932734326977,0.20940572489993467,0.5849951436797858,-0.8110367944002705,1.1927083973128403,0.15672707509929232,,,,,,,,,,,0.4452980464226016,0.3742126102481456,0.5816574832463828,0.11517400000002453,-0.07189711067602655,-0.001098000000013144,-21.218448651647275,-97.29505424861969,99.58187658617626,False,,
2022-11-16 10:50:33.978203-07:00,29.600315,2.16,0.18,-2.07,0.56,15.02,975.85,25.64,26.0,0.0,-4.72472e-05,-0.000872559,0.000369221,32.8213841,-111.786982,324.684778,1.50993501,-0.292586742,-0.200748768,2.02357,8.37642,3049.98,27.0822,11511.0,0.0753002,-1.0,18.0,-1273.0,83.0,,0.0,,2022-11-16 17:50:33.978203+00:00,1.1796933996931815,0.014600544462804468,2.078679468274978,-2.0748968464464985,0.12534515720330686,0.5603692210000001,356.54294563513713,0.2273088311039211,0.2352896786213985,2.153513706666465,339.96177640950106,-1.9957480205904967,0.7093626207323895,0.6006436654,0.23405297447113993,0.22562524999533107,0.9985372206449423,-0.05406865068294019,0.8162323823120095,0.23336967170777692,,,,,,,,,,,0.41190069416146435,0.37421261199352013,0.556504502071375,0.1233829999999898,-0.02515298117500775,0.008208999999965272,-21.251846003908412,-97.29505424687433,99.5889980845076,False,,
2022-11-16 10:50:34.177713-07:00,29.799825,2.55,0.93,-2.31,0.59,14.24,975.83,26.96,26.0,0.0,-4.42855e-05,0.000367131,0.00105249,32.8213841,-111.786982,324.686792,1.51432535,-0.294645258,-0.213128047,2.02357,8.37642,3049.98,27.0822,11511.0,0.0753002,-1.0,18.0,-1273.0,83.0,,0.0,,2022-11-16 17:50:34.177713+00:00,1.1828709408268199,0.014652583237165562,2.489821198921657,-2.3334031031367353,0.8685848035002287,0.5910524899999999,339.5827456950163,0.23330596596071898,0.2413081459491933,2.2263131603766313,345.6266973578845,-2.1393059106714305,0.5473120646728828,0.5961836678000001,0.23700401650873887,0.2288694156620815,0.9928031429322579,0.11975775291742356,0.2871746693070083,0.23362798386958994,,,,,,,,,,,0.41190069429152276,0.3742126121116785,0.5565045022470924,0.12539700000002085,1.7571732957577524e-10,0.0020140000000310465,-21.251846003778354,-97.29505424675617,99.5889980843644,False,,
2022-11-16 10:50:35.177596-07:00,30.799708,2.47,-0.38,-2.44,0.13,15.13,975.84,25.43,24.0,0.0,0.000155704,0.000102921,0.00264172,32.8213839,-111.786982,324.682947,1.54119683,-0.289286228,-0.203518081,2.01886,8.71606,3061.9,27.0827,11464.0,-0.17571,-1.0,17.0,-1280.0,83.0,,0.0,,2022-11-16 17:50:35.177596+00:00,1.1792311757211806,0.01459317527721433,2.469283567612238,-2.428794024485898,-0.445332374638782,0.13264172000000002,370.39007816568324,0.23671388460299325,0.24372059779473698,2.4578738388418637,366.72245121035655,-2.4304044793002766,-0.3095122073844864,0.1672217696,0.24419202456748437,0.23711673298607489,0.5514256197670087,-0.8342240621467175,1.8568289365990092,0.1809523853282117,,,,,,,,,,,0.38963579145197835,0.3742126127286079,0.5402324772776815,0.12155200000000832,-0.016272024969410825,-0.003845000000012533,-21.274110906617896,-97.29505424613923,99.5937516896831,False,,
2022-11-16 10:50:37.177977-07:00,32.800089,2.35,-0.18,-2.34,-0.04,14.54,975.84,26.53,24.0,0.0,0.00354903,-0.0193215,0.00146625,32.8213838,-111.786982,324.68084100000004,1.68267713,-0.313817587,-0.321035325,2.01979,7.79134,3075.57,27.0845,11543.0,-0.211551,-1.0,22.0,-1298.0,83.0,,0.0,,2022-11-16 17:50:37.177977+00:00,1.181649564937613,0.01463253517445641,2.3657562161375174,-2.3530269277536533,-0.24508519224854589,-0.03853375,365.94633842182907,0.23376157100655703,0.2417923951534259,2.4130506469020596,366.13061846463324,-2.3989513060765857,-0.2554774690830494,-0.028174305400000006,0.24314837480918056,0.23560962208127786,0.9835455104710981,0.18066053479425764,-0.6846695436443309,0.23533811288987894,,,,,,,,,,,0.3785033396773096,0.374212613026307,0.532259201794439,0.11944600000003902,-0.007973275483242559,-0.002105999999969299,-21.285243358392567,-97.29505424584154,99.59613027385775,False,,
2022-11-16 10:50:37.977500-07:00,33.599612,1.98,0.39,-1.85,0.57,14.67,975.83,26.31,23.0,0.0,0.00633584,0.0306143,0.0063313,32.8213836,-111.786982,324.695581,1.59259153,-0.353770911,-0.919906347,2.02209,7.74224,3057.37,27.0847,11515.0,-0.199303,-1.0,17.0,-1305.0,83.0,,0.0,,2022-11-16 17:50:37.977500+00:00,1.1811037442992836,0.014623797134075817,1.861712406664493,-1.8295101072911528,0.3447692742226508,0.5763313,349.3278290232201,0.22205659509185216,0.2310252997079884,2.107746237384151,356.7805883244893,-2.0964246252787393,0.09993924517790202,0.34058078599999997,0.236368572565708,0.22797935112591033,0.9792486969702485,-0.2026622547048916,0.5227315169944975,0.22685377163394735,,,,,,,,,,,0.3562384379166528,0.3742126147335906,0.5166632420397715,0.1341859999999997,-0.015595959754667432,0.014739999999960673,-21.307508260153224,-97.29505424413425,99.60089100317087,False,,
2022-11-16 10:50:39.177516-07:00,34.799628,1.84,0.17,-1.77,0.45,15.02,975.83,25.79,22.0,0.0,-0.0037509,0.00382183,0.00141418,32.8213836,-111.786982,324.67482900000005,1.73937476,-0.305737438,-0.350941156,2.0261,7.67315,3041.4,27.086,11466.0,-0.170002,-1.0,16.0,-1308.0,83.0,,0.0,,2022-11-16 17:50:39.177516+00:00,1.1796692219322615,0.014600450365846278,1.7740897683322712,-1.7705226554113354,0.11244568811851122,0.45141418,356.36603233245023,0.21995536921817666,0.22977789130756981,1.9497376832821445,353.71190833620267,-1.91373450461862,0.1664739250398092,0.457108556,0.2328956554981017,0.22409339983924684,0.7136985929404348,0.7004529380585419,-1.2216687503619374,0.16174484840466533,,,,,,,,,,,0.3562384367576424,0.3742126135161018,0.5166632403588242,0.11343400000004067,-1.6809473812884335e-09,-0.020751999999959025,-21.307508261312233,-97.29505424535174,99.60089100460812,False,,
2022-11-16 10:50:39.977924-07:00,35.600036,2.89,-0.43,-2.85,0.06,14.97,975.83,25.91,24.0,0.0,-0.0106136,0.0144076,0.0282644,32.8213835,-111.786982,324.72207000000003,1.72190608,-0.291972968,-0.073433605,2.0228,7.52872,3037.49,27.0861,11466.0,-0.175236,-1.0,16.0,-1308.0,83.0,,0.0,,2022-11-16 17:50:39.977924+00:00,1.1798739403172975,0.014603781030103324,2.870008316184265,-2.821384652369272,-0.5260573907302883,0.08826439999999999,370.56172747818596,0.24824031261102997,0.2549648628988046,2.2762368483743733,359.654386032062,-2.230478689427079,-0.04893553676340934,0.38158252,0.2399803583417382,0.2318150907687897,0.8051232515415825,0.5931075364780907,-1.3623128591278642,0.17563918677450843,,,,,,,,,,,0.34510598909439366,0.37421261670891537,0.5090513001780403,0.1606750000000261,-0.007611940180783816,0.047240999999985434,-21.318640708975483,-97.29505424215893,99.60327314733705,False,,
2022-11-16 10:50:40.977860-07:00,36.599972,2.54,0.07,-2.51,0.39,14.24,975.82,27.17,23.0,0.0,-0.00898383,0.00420039,0.0273121,32.8213834,-111.786982,324.762537,1.68672904,-0.324742399,-0.23212899,2.02139,7.65026,3050.62,27.0862,11504.0,-0.174293,-1.0,18.0,-1322.0,83.0,,0.0,,2022-11-16 17:50:40.977860+00:00,1.182858819136148,0.014652535845548625,2.506805637091432,-2.5067724693268847,-0.01289531613310302,0.4173121,360.2947378279284,0.2383763813739142,0.2462036134983813,2.6766536701688546,364.6550206416358,-2.6590188182318477,-0.23713485455222436,0.27005818000000004,0.24994378758118502,0.24306747851604343,0.4235424685131216,0.9058762483727075,-2.509178673079846,0.2044413253849484,,,,,,,,,,,0.33397353949526204,0.3742126195043085,0.5015709418210645,0.20114200000000437,-0.0074803583569758025,0.04046699999997827,-21.329773158574614,-97.29505423936354,99.60565647811846,False,,
2022-11-16 10:50:41.177430-07:00,36.799542,2.88,-0.32,-2.86,0.17,14.31,975.82,27.04,25.0,0.0,-0.00114542,0.00350752,0.0288549,32.8213834,-111.786982,324.763544,1.64374706,-0.334104314,-0.194271363,2.02139,7.65026,3050.62,27.0862,11504.0,-0.174293,-1.0,18.0,-1322.0,83.0,,0.0,,2022-11-16 17:50:41.177430+00:00,1.182570778652813,0.014647842008535911,2.8745336931350454,-2.8461364471251542,-0.4030524498305487,0.1988549,368.06028167999324,0.24865201795391775,0.255137260308932,2.8064897487591893,367.3342153445074,-2.770050131461402,-0.3789049055769301,0.24106122000000002,0.2532240630394587,0.2465321473896608,0.9505968717185297,0.3104280713449497,-1.220087137758622,0.23005195638104511,,,,,,,,,,,0.3339735395479884,0.37421261956338764,0.5015709419002505,0.2021490000000199,7.918599109757452e-11,0.0010070000000155233,-21.32977315852189,-97.29505423930445,99.60565647804945,False,,
2022-11-16 10:50:42.177459-07:00,37.799571,3.29,-0.37,-3.26,0.17,14.13,975.82,27.4,26.0,0.0,-0.00334719,-0.026465,0.0104809,32.8213835,-111.786982,324.750513,1.60671292,-0.396806916,0.333308521,2.02395,8.05927,3071.69,27.0871,11513.0,-0.169348,-1.0,20.0,-1307.0,83.0,,0.0,,2022-11-16 17:50:42.177459+00:00,1.1833117377873072,0.014659917985537988,3.307602500400821,-3.274808948496101,-0.46460806224992074,0.1804809,368.07485400280115,0.2613735240488551,0.2666862661395545,2.97097800751785,373.8644610476825,-2.871641216101486,-0.6999380237140848,0.228607482,0.25627936998304457,0.24983564972251288,0.9920965910130908,-0.12547650816070768,-0.3340826147604008,0.25227508448767516,,,,,,,,,,,0.34510599063330805,0.37421261837762354,0.5090513024480281,0.18911800000000767,0.007480360547777565,-0.013031000000012227,-21.31864070743657,-97.29505424049022,99.60327314537763,False,,
2022-11-16 10:50:43.177440-07:00,38.799552,3.11,-1.37,-2.78,-0.33,14.02,975.81,27.6,26.0,0.0,-0.0122491,0.0145475,0.031512,32.8213832,-111.786983,324.80636000000004,1.7747263,-0.359476572,-0.553928006,2.02373,7.52148,3063.79,27.0877,11475.0,-0.197717,-1.0,18.0,-1328.0,83.0,,0.0,,2022-11-16 17:50:43.177440+00:00,1.1837528724409077,0.014667260114690923,3.092200910259677,-2.7216902717383733,-1.4676881597040545,-0.29848800000000003,388.33603767192085,0.2460503256408684,0.2523764916924524,2.8110685372491053,387.39822330088055,-2.4894943920298673,-1.2739050020420968,-0.10345754000000003,0.24656732324523573,0.23976446861032397,0.7649481496915884,0.6440918632333553,-2.5779343556664673,0.17524221352024502,,,,,,,,,,,0.3117086387677912,0.28065946570063144,0.4194425004334125,0.24496500000003607,-0.08960880201461557,0.0558470000000284,-21.352038059302085,-97.3886073931672,99.70180730190576,False,,
2022-11-16 10:50:43.977703-07:00,39.599815,1.65,1.23,-1.06,0.27,14.31,975.81,27.12,27.0,0.0,-0.0059248,0.0364603,0.0122925,32.8213831,-111.786983,324.76980000000003,1.79371977,-0.363852324,-0.301599308,2.02338,8.8652,3062.08,27.0883,11531.0,-0.156351,-1.0,22.0,-1302.0,83.0,,0.0,,2022-11-16 17:50:43.977703+00:00,1.18255865991392,0.014647794648224391,1.594874387783031,-1.0615207759655383,1.1902932222775273,0.2822925,311.72704287303657,0.20732075346782422,0.21912730381416934,1.363061417338947,355.9986953104429,-1.160323201545991,0.14669233453796346,0.10126937160000002,0.22142718569727796,0.21092122447858103,0.9870527292664174,0.16039610234577556,-0.04131824982118956,0.2157987832292198,,,,,,,,,,,0.30057618517984924,0.2806594644078823,0.41123688800859093,0.20840500000002748,-0.008205612424821596,-0.036560000000008586,-21.363170512890026,-97.38860739445997,99.70419201114403,False,,
2022-11-16 10:50:44.177416-07:00,39.799528,2.08,0.57,-2.0,0.17,13.81,975.81,28.01,23.0,0.0,-0.00624499,0.018697,0.000379938,32.8213831,-111.786983,324.74077800000003,1.6866238,-0.364309388,0.311586015,2.02338,8.8652,3062.08,27.0883,11531.0,-0.156351,-1.0,22.0,-1302.0,83.0,,0.0,,2022-11-16 17:50:44.177416+00:00,1.184619153815359,0.014681388279107845,2.059981712890632,-1.9972132632091397,0.5046422878686672,0.170379938,345.81969338283875,0.22524384975929407,0.23454924074508665,1.263068207793366,348.7572789158278,-1.1061477573515333,0.35781280232686014,0.1033328536,0.22071670882462374,0.20975148456552245,0.9484905019350394,0.3168055677209873,-0.0110517237732628,0.1996771522988993,,,,,,,,,,,0.30057618381221973,0.2806594631308744,0.41123688613745235,0.17938300000002982,-1.8711385774139444e-09,-0.02902199999999766,-21.363170514257657,-97.38860739573697,99.7041920126844,False,,
2022-11-16 10:50:45.177997-07:00,40.800109,1.36,0.13,-1.36,-0.09,13.94,975.8,27.73,23.0,0.0,-0.00735208,-0.00936788,-0.000911847,32.8213831,-111.786983,324.72442,1.73523627,-0.361567638,0.201312316,2.02027,8.8885,3054.1,27.0887,11543.0,-0.231933,-1.0,21.0,-1294.0,83.0,,0.0,,2022-11-16 17:50:45.177997+00:00,1.1840706005997188,0.014672591525990793,1.375092504844088,-1.3726807446623275,0.08140620438066402,-0.09091184699999999,356.60607509369254,0.21209088669197088,0.22263854241553732,1.4695273449644364,358.4416561905726,-1.2849900955965272,-0.08684001821802922,-0.011745689399999999,0.221803229706205,0.2112666237723913,0.7866607799473002,-0.6173854689678931,0.7250205763269272,0.15913790301037112,,,,,,,,,,,0.30057618304136713,0.2806594624110999,0.4112368850828012,0.16302500000000464,-1.0546511441944517e-09,-0.016358000000025186,-21.363170515028507,-97.38860739645675,99.70419201355264,False,,
2022-11-16 10:50:45.978213-07:00,41.600325,2.13,-0.26,-2.1,0.18,14.33,975.82,27.19,24.0,0.0,-0.012441,0.014479,0.00376471,32.821383,-111.786983,324.722955,1.46960576,-0.378076617,0.120247436,2.02115,8.2411,3044.75,27.0899,11471.0,-0.234212,-1.0,17.0,-1284.0,83.0,,0.0,,2022-11-16 17:50:45.978213+00:00,1.1824885071362794,0.014646501467240327,2.103609517979977,-2.0781621201891043,-0.32621343679725795,0.18376471,368.92104101011597,0.22812116446376313,0.23558209613547548,2.097990949726299,349.8417839920238,-1.9811469637054944,-0.0781689486769522,0.11323317399999999,0.2394994853319921,0.23101552844888187,0.7584684369697019,0.6517097744554223,-1.3504215212021253,0.16914472587568827,,,,,,,,,,,0.28944373196095463,0.2806594626625791,0.403171685456125,0.16156000000000859,-0.008065199626676234,-0.0014649999999960528,-21.37430296610892,-97.38860739620526,99.70657790667182,False,,
2022-11-16 10:50:47.177680-07:00,42.799792,2.9,-0.63,-2.82,0.19,14.08,975.83,27.57,22.0,0.0,-0.00455295,-0.00309922,0.006791,32.8213829,-111.786983,324.75020800000004,1.87934464,-0.323203411,-0.671760119,2.02143,8.4641,3035.06,27.0905,11486.0,-0.238967,-1.0,20.0,-1295.0,83.0,,0.0,,2022-11-16 17:50:47.177680+00:00,1.1835298530244744,0.014663323437618149,2.8936565496644864,-2.8009215837187056,-0.7266956097809303,0.196791,374.54462795068684,0.2471074863554874,0.2543456375877158,2.8979259651072296,374.038825440926,-2.810755180409538,-0.7039133024301332,0.228896376,0.25469957459175213,0.2478847520162471,0.5627089910785895,-0.8266550618966267,1.9274266534204523,0.18761278236368553,,,,,,,,,,,0.2783112828468625,0.2806594641776897,0.3952554933108131,0.18881300000003876,-0.007916192145311862,0.02725300000003017,-21.385435415223014,-97.38860739469015,99.70896498397609,False,,
2022-11-16 10:50:48.177354-07:00,43.799466,2.94,-0.54,-2.89,0.12,14.13,975.84,27.59,22.0,0.0,-0.0113269,0.00141482,0.00203167,32.8213827,-111.786983,324.768365,1.68985057,-0.37123307,0.113345276,2.02009,7.94282,3009.07,27.0906,11539.0,-0.30233,-1.0,21.0,-1308.0,83.0,,0.0,,2022-11-16 17:50:48.177354+00:00,1.1833359904514826,0.014660012866556323,2.941064370274806,-2.871404160149361,-0.6363157857360472,0.12203167,372.49507031353374,0.2495056891014092,0.25591176348978956,2.9124533298639825,372.68584905539234,-2.83954744761891,-0.636812548479423,0.03534071,0.2550493087880269,0.24829853650796324,0.12394481127581491,0.9922891129896582,-2.896581629229169,0.24451549034174214,,,,,,,,,,,0.25604638004155356,0.28065946560850513,0.3799072049435695,0.20697000000001253,-0.015348288367243612,0.018156999999973777,-21.407700318028322,-97.38860739325933,99.71374269831072,False,,
2022-11-16 10:50:48.978225-07:00,44.600337,2.41,-0.35,-2.38,0.08,13.92,975.84,27.92,23.0,0.0,-0.00598033,-0.0103333,-0.010111,32.8213825,-111.786983,324.716669,1.66555731,-0.381273341,-0.928730712,2.02121,8.49095,2992.09,27.0911,11540.0,-0.286585,-1.0,21.0,-1298.0,83.0,,0.0,,2022-11-16 17:50:48.978225+00:00,1.1842016349214544,0.014674127003873634,2.416818130892629,-2.3791549032630233,-0.4250080282663554,0.069889,370.128380949458,0.23486079847371086,0.24259541688037273,2.6297156673107693,370.7095355072282,-2.583572100654739,-0.48699034191168733,0.041693204,0.24830230286220417,0.24063553184164213,0.8655027928714221,-0.5009040981383246,0.8726303520278247,0.19555586220443147,,,,,,,,,,,0.23378147525738602,0.2806594639656923,0.36527183423722875,0.1552740000000199,-0.014635370706340745,-0.05169599999999264,-21.429965222812488,-97.38860739490215,99.7185251584145,False,,
2022-11-16 10:50:49.978168-07:00,45.60028,2.47,-0.6,-2.4,0.1,14.21,975.84,26.73,24.0,0.0,-0.0136798,-0.00432296,-0.0160882,32.8213825,-111.786983,324.68169600000004,1.73703963,-0.351986213,-0.14334545,2.02117,8.23566,2970.72,27.0927,11490.0,-0.307376,-1.0,22.0,-1294.0,83.0,,0.0,,2022-11-16 17:50:49.978168+00:00,1.1830065539285286,0.014654643225600093,2.4817711160274714,-2.385032645384666,-0.686153884196295,0.08391180000000001,376.05008313270696,0.23526308134386606,0.24309118764340668,2.4094318114512667,374.1140076361284,-2.3360194637136438,-0.5884529088241545,0.06297912000000001,0.24240410084351946,0.23442733844239688,0.30132297644004086,-0.9535221360143217,2.0501318868295697,0.21427571160372294,,,,,,,,,,,0.2337814739755586,0.28065946242683215,0.36527183223443765,0.1203010000000404,-2.002791099631196e-09,-0.03497299999997949,-21.429965224094317,-97.38860739644102,99.71852516019287,False,,
2022-11-16 10:50:50.177395-07:00,45.799507,2.24,-0.41,-2.2,0.15,14.34,975.83,27.14,25.0,0.0,-0.0134461,0.00168764,-0.0166676,32.8213825,-111.786983,324.666284,1.78154329,-0.364337698,-0.397788877,2.02117,8.23566,2970.72,27.0927,11490.0,-0.307376,-1.0,22.0,-1294.0,83.0,,0.0,,2022-11-16 17:50:50.177395+00:00,1.182459493144874,0.014645878636427752,2.23914367896573,-2.184502536826386,-0.4916432463191868,0.1333324,372.6836332135229,0.22992625833550484,0.23860944953668156,2.2997373675431327,373.429682370335,-2.2344196232898694,-0.5391287548705053,0.08438798,0.2399188061220558,0.23166687818651957,0.12453441592168646,0.9922152887609847,-2.2841653963301534,0.22810434759433557,,,,,,,,,,,0.2337814734106793,0.280659461748683,0.36527183135184216,0.10488900000001422,-8.825954966873439e-10,-0.015412000000026183,-21.429965224659195,-97.38860739711916,99.71852516097657,False,,
2022-11-16 10:50:50.978179-07:00,46.600291,1.93,-0.3,-1.9,0.16,14.3,975.84,26.54,27.0,0.0,-0.0217635,0.0123526,-0.0175754,32.8213824,-111.786983,324.65233800000004,1.76959208,-0.368257083,-0.452909331,2.02245,8.41517,2956.02,27.0927,11510.0,-0.236219,-1.0,19.0,-1283.0,83.0,,0.0,,2022-11-16 17:50:50.978179+00:00,1.1826361570252286,0.014648607102123765,1.9156052117319708,-1.8774771812805509,-0.3802929936056233,0.1424246,371.45064104885387,0.22273948430827062,0.23215918503067312,2.16170468886474,371.3127812907137,-2.1193573569285484,-0.42527338923126035,0.111409126,0.23720335096859047,0.2284812929651565,0.4936158936951723,0.8696800270740477,-2.0530844676433655,0.1822190981526027,,,,,,,,,,,0.22264902201140566,0.280659461450981,0.35824896413610197,0.09094300000003841,-0.007022867215740192,-0.013945999999975811,-21.44109767605847,-97.38860739741686,99.72091816846893,False,,
2022-11-16 10:50:52.177644-07:00,47.799756,2.64,-0.39,-2.61,-0.12,14.32,975.85,26.59,23.0,0.0,-0.0202754,-0.00397805,-0.00207194,32.8213821,-111.786984,324.663019,1.79349203,-0.346049539,-0.265819109,2.02203,8.22895,2957.8,27.0934,11534.0,-0.240993,-1.0,17.0,-1300.0,83.0,,0.0,,2022-11-16 17:50:52.177644+00:00,1.1825659964155708,0.01464731377672619,2.6465835602947454,-2.6004935482286995,-0.4917701162568939,-0.12207193999999999,370.70854644105714,0.24102525856396687,0.24871124550022053,2.497300038016246,369.947600427836,-2.453055231931192,-0.437578544275601,-0.0665459456,0.24515304661672407,0.2370704916024909,0.19253010686005195,-0.9812910668871173,2.322914141785737,0.2284635982503374,,,,,,,,,,,0.1892516689557917,0.18710630897592334,0.26612960200087904,0.10162400000001526,-0.09211936213522293,0.010680999999976848,-21.474495029114085,-97.48216054989192,99.8194648464434,False,,
2022-11-16 10:50:53.177578-07:00,48.79969,2.57,-0.37,-2.54,-0.08,14.56,975.84,26.1,23.0,0.0,-0.0166132,0.00252751,0.00205307,32.821382,-111.786984,324.69375,1.82586331,-0.343470927,-0.189710799,2.02268,8.62284,2972.55,27.0946,11544.0,-0.196841,-1.0,20.0,-1310.0,83.0,,0.0,,2022-11-16 17:50:53.177578+00:00,1.1815674232279099,0.014631197446770257,2.5672914255987593,-2.5243939652683522,-0.4673546534160493,-0.07794693,370.4887183586371,0.2389740988324375,0.24700403001285257,2.4079548270953266,370.3221697434872,-2.3671434611465374,-0.4366625935607349,-0.05430883599999999,0.24326677228360954,0.23482554618436585,0.1504079344859932,0.988624020163205,-2.4058924036265,0.22957916459400657,,,,,,,,,,,0.1781192189071952,0.18710631008802164,0.25833162295558054,0.1323550000000182,-0.007797979045298498,0.03073100000000295,-21.48562747916268,-97.48216054877982,99.82186039856919,False,,
2022-11-16 10:50:54.177495-07:00,49.799607,2.36,-0.24,-2.34,-0.08,14.41,975.83,26.35,24.0,0.0,-0.0094489,0.00576263,0.00391619,32.821382,-111.786984,324.702783,1.85558106,-0.331961971,-0.183033613,2.02176,7.82102,2989.07,27.0945,11483.0,-0.21389,-1.0,21.0,-1292.0,83.0,,0.0,,2022-11-16 17:50:54.177495+00:00,1.1821716500355395,0.014641189083264112,2.347854780251268,-2.325239038209539,-0.32509303950578144,-0.07608381,367.9589662860151,0.2334223111805021,0.24222508253911082,2.2135559338873585,371.3608765425892,-2.169886390094094,-0.4307529931804333,0.012926353199999999,0.23880010743681965,0.2296754174316192,0.5206802440414465,0.853751769230928,-2.0768289181837156,0.1794908978875843,,,,,,,,,,,0.17811921915944415,0.18710631035299793,0.25833162332142473,0.1413880000000063,3.6584418827700915e-10,0.009032999999988078,-21.48562747891043,-97.48216054851484,99.82186039825613,False,,
2022-11-16 10:50:55.177912-07:00,50.800024,2.84,-0.46,-2.8,-0.03,13.86,975.83,27.39,24.0,0.0,-0.00411711,0.00203038,-0.00218667,32.821382,-111.786984,324.691278,1.90765704,-0.327940241,-0.192659562,2.02215,8.4046,3007.3,27.0951,11490.0,-0.167342,-1.0,19.0,-1264.0,83.0,,0.0,,2022-11-16 17:50:55.177912+00:00,1.1844370568419906,0.0146781170707523,2.8363484569881927,-2.7811049704109037,-0.557070653521676,-0.03218667,371.32676275129916,0.24646008182454712,0.2540201362247195,2.700881250048094,371.2908247812084,-2.647623651939013,-0.526949189420195,-0.010943918,0.25046405420350437,0.24250617662890642,0.4422967567269526,0.8968687635260908,-2.607638868437424,0.2011251278686657,,,,,,,,,,,0.17811921883816395,0.1871063100155074,0.2583316228554625,0.12988300000000663,-4.659622132585639e-10,-0.011504999999999654,-21.485627479231713,-97.48216054885233,99.82186039865485,False,,
2022-11-16 10:50:55.978089-07:00,51.600201,2.61,-0.45,-2.57,0.03,13.7,975.83,27.67,23.0,0.0,-0.0013858,0.00153426,-0.00146592,32.8213819,-111.786984,324.672815,1.94424507,-0.32393889,-0.203019874,2.02266,7.75742,3012.47,27.0963,11540.0,-0.213805,-1.0,20.0,-1294.0,83.0,,0.0,,2022-11-16 17:50:55.978089+00:00,1.1850977154757532,0.014688894927677,2.607883764586274,-2.551719094279719,-0.538319044323129,0.02853408,371.91262990006146,0.23962351991842387,0.2480128051315585,2.6570399486928338,372.03028119370043,-2.595608243744681,-0.5515332832873068,0.0526158802,0.2491569606065561,0.24092205958540674,0.742098606947338,0.6702907261530778,-2.149104215721139,0.17476902425066188,,,,,,,,,,,0.16698676669056714,0.18710630968453656,0.25078546882452263,0.11142000000000962,-0.007546154030939889,-0.01846299999999701,-21.49675993137931,-97.4821605491833,99.82425713665043,False,,
2022-11-16 10:50:56.978218-07:00,52.60033,2.39,-0.36,-2.37,-0.02,13.71,975.83,27.69,24.0,0.0,-0.0013974,0.000598984,0.00152565,32.8213819,-111.786984,324.66033300000004,1.97434319,-0.318943904,-0.192344438,2.02065,7.4777,2984.08,27.0967,11470.0,-0.164861,-1.0,20.0,-1301.0,83.0,,0.0,,2022-11-16 17:50:56.978218+00:00,1.1850564027198627,0.01468822084577329,2.3968548976253796,-2.3555913672923374,-0.44283485703881265,-0.01847435,370.64694430426624,0.23399726607435736,0.24317401971464983,2.4114854042155898,371.13364114082907,-2.3660419772979813,-0.4630897643515116,-0.016882345000000003,0.24354280024042962,0.2344126245418397,0.3939739127316901,0.9191216220320805,-2.3571256263776728,0.2016038575350733,,,,,,,,,,,0.16698676636378917,0.18710630931838645,0.2507854683337582,0.09893800000003239,-4.907644290952362e-10,-0.012481999999977234,-21.496759931706087,-97.48216054954946,99.82425713707836,False,,
2022-11-16 10:50:57.977921-07:00,53.600033,2.44,-0.18,-2.42,-0.18,13.56,975.82,27.92,26.0,0.0,-0.00101095,0.000522411,-0.00114935,32.8213818,-111.786984,324.64608200000004,2.01076563,-0.317954879,-0.202064789,2.02132,8.22973,2958.5,27.0975,11470.0,-0.231296,-1.0,20.0,-1301.0,83.0,,0.0,,2022-11-16 17:50:57.977921+00:00,1.1856642462123315,0.014698290911063568,2.4262762376256855,-2.411671768711733,-0.2658113264439125,-0.18114935,366.2896789575357,0.23529245467656532,0.24464659346246498,2.224770056347139,363.94581372313263,-2.210592991235064,-0.17045275636110402,-0.11235141579999999,0.24008237425676446,0.23013002053461457,0.4590802797624044,0.8883947865297682,-2.042130787629005,0.1885452571337184,,,,,,,,,,,0.15585431511349157,0.18710630911097145,0.24351455490098722,0.08468700000003082,-0.007270913432770976,-0.014251000000001568,-21.507892382956385,-97.48216054975687,99.82665505868364,False,,
2022-11-16 10:51:00.177888-07:00,55.8,1.62,0.19,-1.57,0.32,14.23,975.83,26.73,24.0,0.0,-0.0010036,0.000227283,0.000750077,32.8213818,-111.786984,324.64049700000004,2.06577779,-0.304081782,-0.209475098,2.02181,8.35433,2932.74,27.0989,11538.0,-0.192638,-1.0,20.0,-1312.0,83.0,,0.0,,2022-11-16 17:51:00.177888+00:00,1.182912101343934,0.01465325403651143,1.581144273968666,-1.5756012723353492,0.13227942288628625,0.320750077,355.2009934742879,0.2149984867750825,0.22713423343761577,1.8452698384595245,362.89629366800517,-1.8375137501940908,-0.10319721900758012,0.020866993400000002,0.2320924616122097,0.22076421535560434,0.22087447188465223,0.975302244265682,-1.8149249156816105,0.21029915203615768,,,,,,,,,,,0.15585431497702426,0.1871063089471397,0.24351455468776395,0.07910200000003442,-2.132232723717209e-10,-0.005584999999996398,-21.50789238309285,-97.4821605499207,99.82665505887303,False,,
2022-11-16 10:51:00.978094-07:00,56.600206,2.27,-0.21,-2.25,-0.07,13.93,975.83,27.38,26.0,0.0,-0.000721893,-0.000401098,0.00342293,32.8213818,-111.786984,324.64892000000003,2.09374649,-0.300533496,-0.21306392,2.0196,8.46493,2938.26,27.1,11472.0,-0.227973,-1.0,20.0,-1301.0,83.0,,0.0,,2022-11-16 17:51:00.978094+00:00,1.1841482502585334,0.014673406753499197,2.260269881989517,-2.2412266955147517,-0.2927846285940101,-0.06657707,367.4427371374745,0.23056364825483697,0.24077804740714234,2.1452356112839803,368.6990744815612,-2.119693516430943,-0.3264327495814702,-0.051816748,0.23810586830826508,0.2275857114522112,0.4856858029763522,-0.8741334570803339,1.694351269370295,0.18274589510021677,,,,,,,,,,,0.155854315182837,0.18710630919422205,0.24351455500933597,0.08752500000002783,3.215720190130611e-10,0.008422999999993408,-21.50789238288704,-97.48216054967362,99.8266550585874,False,,
2022-11-16 10:51:02.177476-07:00,57.799588,2.03,0.05,-2.03,0.11,14.35,975.84,26.61,23.0,0.0,-0.000863623,-0.000258766,-0.000391894,32.8213818,-111.786985,324.638757,2.13174842,-0.301368971,-0.20952283,2.02534,8.64231,2934.25,27.0999,11478.0,-0.119446,-1.0,17.0,-1285.0,83.0,,0.0,,2022-11-16 17:51:02.177476+00:00,1.1824304811718327,0.014645255858732751,2.0308854624158066,-2.0307137474398886,-0.026409040317815817,0.109608106,360.7450785514465,0.22493203007530763,0.23617917936633173,1.915719355161188,357.943693215747,-1.9035680018279024,0.04659947180373837,0.134570724,0.23379736132790674,0.22219172581705351,0.2870213185106454,-0.9579241946628192,1.836848886975914,0.20479501253544768,,,,,,,,,,,0.15585431493450805,0.0935531538529472,0.18177667639039402,0.07736199999999371,-0.06173787861894195,-0.010163000000034117,-21.507892383135367,-97.57571370501489,99.91801308977057,False,,
2022-11-16 10:51:03.178265-07:00,58.800377,2.04,-0.0,-2.04,-0.08,13.81,975.83,27.58,23.0,0.0,-0.000616932,0.000459019,0.00010459,32.8213818,-111.786985,324.6336,2.14598555,-0.292308285,-0.19948623,2.01861,9.16673,2944.0,27.1019,11534.0,-0.264779,-1.0,18.0,-1320.0,83.0,,0.0,,2022-11-16 17:51:03.178265+00:00,1.1846434335246019,0.014681483443705194,2.03956450285598,-2.038110250872125,-0.0770062763683857,-0.07989541,362.16378720697173,0.22514232222727507,0.23639579366425417,1.8825678720990702,361.06408411209657,-1.8796405264914005,-0.0391371145946903,-0.021338149,0.23313958374549673,0.22142796175711518,0.5969327750597762,0.8022912576237103,-1.5313813883021197,0.1649704157558361,,,,,,,,,,,0.1558543148084988,0.09355315377730884,0.18177667624342633,0.07220499999999674,-1.4696768801947258e-10,-0.0051569999999969696,-21.507892383261378,-97.57571370509054,99.91801308987156,False,,
2022-11-16 10:51:04.177709-07:00,59.799821,1.44,0.16,-1.41,0.25,14.52,975.82,26.34,24.0,0.0,-0.000159948,0.000196759,0.000836601,32.8213818,-111.786985,324.633142,2.17255718,-0.286751524,-0.199585135,2.02251,9.02796,2944.02,27.1016,11470.0,-0.244734,-1.0,20.0,-1274.0,83.0,,0.0,,2022-11-16 17:51:04.177709+00:00,1.1817074982846234,0.014633778611897342,1.4188407833103074,-1.4148551869382415,0.10627308397971894,0.250836601,355.70444611522316,0.21169851247001234,0.22480321455186292,1.41486669617852,354.09214941071366,-1.398558237723742,0.13893263132344158,0.2230580506,0.22456870148497524,0.2114185873622751,0.7759570356683251,0.6307857629947158,-0.7743848723157777,0.15924665062679247,,,,,,,,,,,0.1558543147973077,0.09355315377059129,0.18177667623037394,0.07174700000001621,-1.3052392500156884e-11,-0.00045799999998052954,-21.50789238327257,-97.57571370509726,99.91801308988055,False,,
2022-11-16 10:51:05.177761-07:00,60.799873,1.64,0.31,-1.6,0.18,13.75,975.83,27.73,26.0,0.0,-0.00010898,-0.000273646,0.00110633,32.8213818,-111.786985,324.63097500000003,2.19756033,-0.282682256,-0.208299711,2.02147,8.71948,2941.66,27.1027,11535.0,-0.201306,-1.0,18.0,-1292.0,83.0,,0.0,,2022-11-16 17:51:05.177761+00:00,1.184891180495712,0.014685525139592662,1.6300084263866261,-1.6109839567598707,0.2483106142590701,0.18110632999999998,351.23761576838433,0.21523264999871228,0.22814761448359688,1.5102396139755867,352.8650210117279,-1.4884189292597803,0.18080498700752126,0.139632804,0.22613344297608476,0.2129856154536948,0.9290356976258691,-0.36999009789022014,0.7186745525772514,0.19734313281243024,,,,,,,,,,,0.1558543147443579,0.09355315373880761,0.18177667616861726,0.0695800000000304,-6.175668310071103e-11,-0.002166999999985819,-21.50789238332552,-97.57571370512903,99.91801308992297,False,,
2022-11-16 10:51:06.177571-07:00,61.799683,1.94,-0.15,-1.93,-0.12,14.08,975.83,26.51,26.0,0.0,-3.26482e-05,-0.000161283,0.000642663,32.8213817,-111.786985,324.633844,2.21980713,-0.288547093,-0.198966905,2.02185,8.98712,2943.89,27.1032,11538.0,-0.19852,-1.0,20.0,-1319.0,83.0,,0.0,,2022-11-16 17:51:06.177571+00:00,1.1835298530244744,0.014663323437618149,1.9359842216649294,-1.9229029963334079,-0.22467526171691551,-0.119357337,366.66431904614615,0.22234379068084326,0.2341765874112604,1.7533179247684487,366.3281315255068,-1.7420486698327118,-0.19586809290294546,-0.09503564340000001,0.2307928738464292,0.21843592096612668,0.9801203593241512,-0.19840383372882872,0.1536548290408455,0.2218746007398488,,,,,,,,,,,0.14472186466676026,0.09355315388620133,0.1723270458015205,0.07244900000000598,-0.009449630367096756,0.0028689999999755855,-21.519024833403115,-97.57571370498164,99.9204100012463,False,,
2022-11-16 10:51:06.977953-07:00,62.600065,1.57,-0.11,-1.57,-0.0,14.45,975.84,25.82,26.0,0.0,-0.000241814,-0.000944415,0.00142819,32.8213816,-111.786985,324.635461,2.24452639,-0.28794891,-0.200520303,2.0234,9.012,2950.87,27.1038,11491.0,-0.199433,-1.0,23.0,-1312.0,83.0,,0.0,,2022-11-16 17:51:06.977953+00:00,1.1820193440086995,0.014638557992430861,1.5748139244720563,-1.5654318039251731,-0.17164546009334924,0.00142819,366.2573343350756,0.2145083123393737,0.22748581649283606,1.664171691373036,366.17187634899,-1.6525082587894264,-0.18508779999996308,0.0088783256,0.22922786891159674,0.2165141466090982,0.9687486298258934,-0.24804453674784743,0.230592092875962,0.21553642956119665,,,,,,,,,,,0.13358941313663128,0.09355315401523179,0.16308992589484866,0.07406600000001617,-0.009237119906671837,0.0016170000000101936,-21.530157284933246,-97.57571370485262,99.92280809567617,False,,
2022-11-16 10:51:08.177388-07:00,63.7995,1.73,-1.17,-1.28,-0.02,14.99,975.82,25.0,24.0,0.0,-9.96898e-06,-0.000592854,0.00150339,32.8213816,-111.786985,324.63201300000003,2.27410206,-0.279664984,-0.194545973,2.0202,8.92856,2969.34,27.1046,11491.0,-0.23853,-1.0,23.0,-1312.0,83.0,,0.0,,2022-11-16 17:51:08.177388+00:00,1.1797799542983882,0.01460240151998927,1.7345852924577116,-1.2331589944985208,-1.2198791051157496,-0.01849661,404.6898237409856,0.20916235791804205,0.22241843454415053,1.752518888763777,395.7223639008619,-1.3900604197612432,-0.9901902051859611,-0.03251015360000001,0.22511311745010384,0.21213616813626807,0.9998586538906964,-0.016812859360758704,-0.9666793553125845,0.2250494922098806,,,,,,,,,,,0.13358941306441655,0.09355315396465953,0.16308992580668677,0.0706180000000245,-8.816189445148837e-11,-0.00344799999999168,-21.53015728500546,-97.57571370490318,99.9228080957411,False,,
2022-11-16 10:51:08.978179-07:00,64.600291,1.37,-0.09,-1.37,0.01,14.82,975.83,25.3,24.0,0.0,0.000247407,-0.000372271,0.00103703,32.8213816,-111.786985,324.63817700000004,2.29766348,-0.273561923,-0.201376509,2.02354,9.22758,2976.18,27.1055,11468.0,-0.0567426,-1.0,17.0,-1297.0,83.0,,0.0,,2022-11-16 17:51:08.978179+00:00,1.1804885220134729,0.014613782193422596,1.373297142221658,-1.365662639189178,-0.14460496795415456,0.01103703,366.04431597239545,0.2106263916532032,0.22442092047618678,1.5313999392836515,368.3837079342483,-1.4576790289267891,-0.28460384004165956,0.0732582524,0.22612202387463393,0.21272621758108992,0.8328482874296267,0.5535013370584917,-1.0438591122876932,0.16984740792121653,,,,,,,,,,,0.13358941319351506,0.09355315405506771,0.16308992596429409,0.07678200000003699,1.5760731608693845e-10,0.006164000000012493,-21.53015728487636,-97.57571370481277,99.922808095625,False,,
