Timestamp,Seconds,S,Um,Vm,Wm,T,P,H,MD,Sts,Vx,Vy,Vz,Lat,Lon,Alt,Yaw,Roll,Pitch,CH4,C2H6,H2O,T_a,Batt,R,C2C1,Power,Current,SOC,Lat_a,Lon_a,TS,Timestamp_UTC,Rho,Rho_err,Sc,V,U,W,WD,V_err,U_err,Sc_avg,WD_avg,V_avg,U_avg,W_avg,U_err_avg,V_err_avg,Nx,Ny,cross_wind,cross_wind_err,CH4_sub,CH4_res,CH4_adj,CH4_adj_err,BG_Samples_CH4,C2H6_sub,C2H6_res,C2H6_adj,C2H6_adj_err,BG_Samples_C2H6
2022-11-16 10:50:04.377888-07:00,0.0,2.15,0.19,-2.11,0.35,14.64,975.86,25.47,23.0,0.0,-0.000119887,0.00104258,0.00755484,32.8213884,-111.786981,324.676965,0.0462467499,-0.28595342,-0.217662711,,,,,,,,,,,,,,2022-11-16 17:50:04.377888+00:00,1.1812631802434632,0.014625943424866627,2.1174881219770096,-2.109110092676813,0.1881769477978875,0.35755484,354.9015123229957,0.2314814141951302,0.2317249088278915,,,,,,,,0.9934534221907045,0.1142379006178673,,,,,,,,,,,,
2022-11-16 10:50:04.578092-07:00,0.200204,2.08,0.5,-1.96,0.48,14.53,975.85,25.66,25.0,0.0,-4.07068e-05,0.000133756,0.00695681,32.8213884,-111.786981,324.67681300000004,0.0602327994,-0.284265114,-0.208050968,,,,,,,,,,,,,,2022-11-16 17:50:04.578092+00:00,1.1817027495466634,0.014633251394625915,2.022630716833367,-1.960390791190884,0.49789854638454145,0.48695680999999996,345.7493764531895,0.22812297518795338,0.22845840330738612,,,,,,,,0.9566769640760756,0.2911514836063576,,,,,,,,,,,,
2022-11-16 10:50:04.777953-07:00,0.400065,3.0,-0.31,-2.98,-0.1,14.65,975.85,25.42,26.0,0.0,8.80079e-05,0.000481717,0.00681202,32.8213883,-111.78698,324.67424900000003,0.0740741034,-0.284316006,-0.217277016,,,,,,,,,,,,,,2022-11-16 17:50:04.777953+00:00,1.1812100312355251,0.014625227924092607,2.9955924876425115,-2.979115013216639,-0.313764386200018,-0.09318798,366.01230301301734,0.2542734308572987,0.25455533490997706,,,,,,,,0.983717527299893,-0.1797215248182149,,,,,,,,,,,,
2022-11-16 10:50:04.978283-07:00,0.600395,2.34,0.09,-2.32,0.22,14.66,975.86,25.36,23.0,0.0,-0.000153797,0.0011246,0.00637765,32.8213883,-111.78698,324.676355,0.0865803328,-0.286445883,-0.21671679,2.02107,6.97715,3026.59,27.0695,11497.0,-0.288984,-1.0,20.0,-1285.0,83.0,,0.0,,2022-11-16 17:50:04.978283+00:00,1.1811810939239993,0.014624606907840444,2.320615487187203,-2.319008751204927,0.08634032202896608,0.22637765,357.8677733949593,0.2363805791830436,0.2368088589651794,2.208337215226161,343.3923744535611,-2.044222189119039,0.4951678230934132,0.342983584,0.23172283261228405,0.2312616418440317,0.9907779093546537,0.13549588309178112,0.2136176497936887,0.22750822271713225,,,,,,,,,,
2022-11-16 10:50:05.177671-07:00,0.799783,1.79,0.91,-1.44,0.53,14.56,975.83,25.65,22.0,0.0,0.000359893,0.000268063,0.00762343,32.8213883,-111.78698,324.67928500000005,0.0961771206,-0.28843977,-0.20768651,2.02107,6.97715,3026.59,27.0695,11497.0,-0.288984,-1.0,20.0,-1285.0,83.0,,0.0,,2022-11-16 17:50:05.177671+00:00,1.181555315019359,0.01463115019619683,1.7034026613087956,-1.4412574402744476,0.9079414173873965,0.53762343,327.7905171493801,0.21809886617707855,0.21869905757177532,2.149374319352615,339.43342824446916,-1.9384758934984483,0.5890513466746897,0.33695589200000003,0.22975224671228714,0.22921268143638276,0.5973486736996532,-0.801981646940418,1.9064911302993044,0.1686852817459517,,,,,,,,,,
2022-11-16 10:50:05.377530-07:00,0.999642,2.08,1.3,-1.52,0.55,14.59,975.85,25.56,23.0,0.0,0.000211012,0.00104093,0.00714801,32.8213883,-111.78698,324.67336400000005,0.105002606,-0.289136055,-0.215837223,,,,,,,,,,,,,,2022-11-16 17:50:05.377530+00:00,1.1814563390198933,0.014629238553751119,1.9994447231589285,-1.521338949708297,1.2974232158661798,0.55714801,319.5419022572595,0.21943235781478412,0.22009250830710234,,,,,,,,0.980065653374189,-0.19867389127971477,,,,,,,,,,,,
2022-11-16 10:50:05.577418-07:00,1.19953,1.79,0.97,-1.43,0.45,14.61,975.83,25.6,25.0,0.0,0.000215064,0.000302789,0.00681835,32.8213883,-111.78698,324.675653,0.116070483,-0.29071583,-0.202588289,,,,,,,,,,,,,,2022-11-16 17:50:05.577418+00:00,1.181350012803099,0.014627806974196977,1.727816237465637,-1.43165931308793,0.9673161642909244,0.45681835,325.9546454077292,0.217878173149709,0.21860547380740145,,,,,,,,0.8152764480889563,-0.5790719412918013,,,,,,,,,,,,
2022-11-16 10:50:05.778195-07:00,1.400307,1.84,1.11,-1.32,0.63,14.65,975.85,25.46,23.0,0.0,0.000367147,0.000481076,0.00656117,32.8213883,-111.78698,324.67699600000003,0.125958828,-0.29156394,-0.212787429,,,,,,,,,,,,,,2022-11-16 17:50:05.778195+00:00,1.1812100312355251,0.014625227924092607,1.7245407836106186,-1.321955952151557,1.1074625839762702,0.63656117,320.04556138760137,0.2161001648116174,0.21690544107642462,,,,,,,,0.7949432347756058,-0.606683816731991,,,,,,,,,,,,
2022-11-16 10:50:05.978005-07:00,1.600117,1.98,1.18,-1.48,0.57,14.54,975.84,25.67,23.0,0.0,0.000161511,0.000305031,0.00610685,32.8213883,-111.78698,324.67516500000005,0.134399008,-0.292486,-0.208086253,,,,,,,,,,,,,,2022-11-16 17:50:05.978005+00:00,1.181649564937613,0.01463253517445641,1.8926900392668997,-1.4824588268743786,1.1766866241112712,0.57610685,321.55956855640864,0.21866420452695928,0.21950883210764616,,,,,,,,0.8837591611661453,-0.4679420317249897,,,,,,,,,,,,
2022-11-16 10:50:06.178472-07:00,1.800584,1.87,0.58,-1.74,0.34,14.53,975.85,25.69,23.0,0.0,8.96725e-05,-0.000148388,0.00586523,32.8213883,-111.78698,324.676752,0.14704578,-0.290232354,-0.214456394,,,,,,,,,,,,,,2022-11-16 17:50:06.178472+00:00,1.1817027495466634,0.014633251394625915,1.834290074997906,-1.7416311871929326,0.5756221738543087,0.34586523,341.7108918640291,0.22338875699756275,0.22424812059221158,,,,,,,,0.8558608639172153,0.5172061306818375,,,,,,,,,,,,
2022-11-16 10:50:06.377826-07:00,1.999938,1.66,0.22,-1.64,0.11,14.62,975.85,25.55,25.0,0.0,0.000544106,0.000161221,0.00545537,32.8213883,-111.78698,324.677301,0.15862343,-0.286382883,-0.208830628,,,,,,,,,,,,,,2022-11-16 17:50:06.377826+00:00,1.1813331722889255,0.01462723296263098,1.6546013984264805,-1.6404415635025658,0.21600292685082378,0.11545537,352.49880875628764,0.22144920784378125,0.22237451000403854,,,,,,,,0.2840954693879653,-0.9587959972138138,,,,,,,,,,,,
2022-11-16 10:50:06.577876-07:00,2.199988,1.8,-0.0,-1.8,-0.01,14.78,975.86,25.31,25.0,0.0,0.000449301,-0.000246116,0.00653542,32.8213883,-111.78698,324.68084100000004,0.169690208,-0.287782723,-0.204272261,,,,,,,,,,,,,,2022-11-16 17:50:06.577876+00:00,1.1806888154838548,0.014616592958092062,1.8002448404983096,-1.8002382217569908,-0.004881666315051224,-0.00346458,360.1553673218944,0.22452404693897862,0.2254703080086772,,,,,,,,0.4804200583982544,0.8770385210973449,,,,,,,,,,,,
2022-11-16 10:50:06.778216-07:00,2.400328,1.33,0.2,-1.3,0.19,14.93,975.84,25.04,23.0,0.0,0.000134636,0.000213497,0.00695583,32.8213883,-111.78698,324.68221400000004,0.183055246,-0.288484219,-0.21294834,,,,,,,,,,,,,,2022-11-16 17:50:06.778216+00:00,1.1800498588478963,0.014606493749231293,1.3151035842222496,-1.3004188503992247,0.19598023053503738,0.19695583,351.4297076323676,0.2156302512675802,0.21675955079051293,,,,,,,,0.845853984646662,-0.5334145073555504,,,,,,,,,,,,
2022-11-16 10:50:06.978088-07:00,2.6002,1.59,1.05,-1.12,0.41,14.74,975.84,25.32,23.0,0.0,-0.000180394,-8.86578e-05,0.00610686,32.8213883,-111.78698,324.678461,0.196458305,-0.290417102,-0.197189511,,,,,,,,,,,,,,2022-11-16 17:50:06.978088+00:00,1.180828661422425,0.014619168950123036,1.535161825819305,-1.1236823533252267,1.0459731355433286,0.41610685999999997,317.05125091261186,0.21303333108101066,0.2143139341544515,,,,,,,,0.4410770276292506,-0.8974692505583383,,,,,,,,,,,,
2022-11-16 10:50:07.177356-07:00,2.799468,1.56,1.1,-0.98,0.51,14.75,975.84,25.33,24.0,0.0,-0.000204414,-0.000316505,0.00497902,32.8213883,-111.78698,324.676019,0.206716107,-0.292432434,-0.202446441,2.02203,6.88849,3010.74,27.0704,11562.0,-0.196628,-1.0,24.0,-1307.0,83.0,,0.0,,2022-11-16 17:50:07.177356+00:00,1.1807876461858353,0.014618501283090108,1.473287051984962,-0.9842787825301748,1.0962527153022048,0.51497902,311.9193208314499,0.21125741938083792,0.2126242743410262,1.393658648567127,324.14910327471335,-1.0869449958766317,0.8060752679976684,0.43387758200000004,0.21395358231012124,0.21261125060088312,0.8400339093990072,-0.5425338985352164,1.2668350647522275,0.16343391194995502,,,,,,,,,,
2022-11-16 10:50:07.377952-07:00,3.000064,1.46,0.92,-0.97,0.58,15.04,975.84,24.86,26.0,0.0,-0.00013474,0.000106291,0.00552452,32.8213883,-111.78698,324.67959,0.218928621,-0.296036266,-0.19849007,,,,,,,,,,,,,,2022-11-16 17:50:07.377952+00:00,1.1795994425098093,0.014599165567228106,1.336729650351071,-0.9734019625831989,0.9161521584141321,0.58552452,316.7354194680177,0.21110316623078476,0.21254405389284967,,,,,,,,0.6193474400875607,0.7851170285103906,,,,,,,,,,,,
2022-11-16 10:50:07.577970-07:00,3.200082,1.38,0.78,-1.05,0.45,15.14,975.84,24.74,24.0,0.0,0.000234199,0.000175832,0.00582168,32.8213883,-111.78698,324.679346,0.229720106,-0.29161153,-0.200202617,,,,,,,,,,,,,,2022-11-16 17:50:07.577970+00:00,1.1791902713826423,0.014592509994441444,1.3080111304580468,-1.0529430305453347,0.7760181001936385,0.45582168,323.6098175291196,0.212032085044202,0.21352609837176578,,,,,,,,0.6003992990802246,-0.7997003699286221,,,,,,,,,,,,
2022-11-16 10:50:07.777542-07:00,3.399654,1.26,0.89,-0.74,0.5,15.22,975.85,24.54,23.0,0.0,0.000253121,3.12903e-05,0.00604199,32.8213883,-111.78698,324.676782,0.241176283,-0.295013276,-0.203391908,,,,,,,,,,,,,,2022-11-16 17:50:07.777542+00:00,1.1788752193001493,0.014587236887601815,1.1576279609064102,-0.7437084378395769,0.8871303485726039,0.50604199,309.9741304049239,0.2086714722788874,0.21028460142770528,,,,,,,,0.1226841151102238,-0.9924457707601062,,,,,,,,,,,,
2022-11-16 10:50:07.978181-07:00,3.600293,1.45,0.92,-0.9,0.66,14.89,975.84,25.1,24.0,0.0,3.01698e-05,-0.00026412,0.00590851,32.8213883,-111.78698,324.67931500000003,0.251736975,-0.294728375,-0.197337949,2.02269,6.93232,3023.35,27.0699,11554.0,-0.197396,-1.0,23.0,-1294.0,83.0,,0.0,,2022-11-16 17:50:07.978181+00:00,1.180213731901479,0.014609160376403342,1.2872190530736425,-0.9042975681178499,0.9160670275105133,0.6659085100000001,314.6295626953172,0.2102172861770352,0.21188364210069746,1.3870804085053627,323.47461849299737,-1.1055390329724817,0.781019903143302,0.515887794,0.21471348886566183,0.21309145426488724,0.9935391820006597,0.1134896199194445,0.6505066710370736,0.21196577158478616,,,,,,,,,,
2022-11-16 10:50:08.177443-07:00,3.799555,1.62,0.93,-1.24,0.49,14.76,975.85,25.39,25.0,0.0,-0.000112249,-0.000475676,0.00590447,32.8213883,-111.78698,324.67922400000003,0.261814569,-0.292608264,-0.205234363,2.02269,6.93232,3023.35,27.0699,11554.0,-0.197396,-1.0,23.0,-1294.0,83.0,,0.0,,2022-11-16 17:50:08.177443+00:00,1.1807587335958603,0.014617880840173394,1.5503149476890137,-1.2447123747004092,0.9242118487098385,0.49590447,323.40573052245406,0.2145077458202665,0.2161848038552647,1.439396953841316,328.2399996047617,-1.2013528458707379,0.6940991702802864,0.527779864,0.21617653004238072,0.21450572781862992,0.9732686002193448,-0.22966983220936357,0.9514594344074769,0.2050859625587867,,,,,,,,,,
2022-11-16 10:50:08.377794-07:00,3.999906,1.69,0.41,-1.58,0.45,14.88,975.84,25.13,25.0,0.0,-0.000638415,-5.83504e-05,0.00576232,32.8213883,-111.78698,324.678552,0.278666918,-0.292752661,-0.203675163,,,,,,,,,,,,,,2022-11-16 17:50:08.377794+00:00,1.1802547072766791,0.014609827186115192,1.6322289503997007,-1.582033753659238,0.401672190729916,0.45576232,345.7538513131719,0.22002868200404505,0.22168829857287592,,,,,,,,0.0910194686788822,-0.9958491132302192,,,,,,,,,,,,
2022-11-16 10:50:08.577838-07:00,4.19995,1.65,0.35,-1.53,0.51,15.15,975.85,24.75,23.0,0.0,-0.000831295,-0.000258897,0.00528203,32.8213883,-111.78698,324.68075000000005,0.290216693,-0.292005971,-0.205200906,,,,,,,,,,,,,,2022-11-16 17:50:08.577838+00:00,1.179161453311079,0.014591891764329677,1.5695938571378125,-1.5320120950366156,0.34141443587856085,0.5152820300000001,347.43672308794146,0.21910345281291552,0.22084130425536014,,,,,,,,0.29735125465188933,-0.9547681558142518,,,,,,,,,,,,
2022-11-16 10:50:08.777435-07:00,4.399547,1.55,0.86,-1.08,0.7,15.12,975.85,24.78,24.0,0.0,-0.000399081,-0.000440226,0.0052722,32.8213883,-111.78698,324.678918,0.305076689,-0.292885012,-0.201351696,,,,,,,,,,,,,,2022-11-16 17:50:08.777435+00:00,1.1792841675845012,0.01459388762579183,1.380678615650621,-1.0850040444205173,0.853838195038167,0.7052721999999999,321.7992106546638,0.21218174538173673,0.2141650206149309,,,,,,,,0.7408812706322108,-0.6716360196016894,,,,,,,,,,,,
2022-11-16 10:50:08.978203-07:00,4.600315,1.56,0.9,-1.12,0.61,15.05,975.84,24.84,25.0,0.0,-0.000572861,-0.000139687,0.00599528,32.8213883,-111.78698,324.68102400000004,0.312237083,-0.290506175,-0.209076503,2.0214,7.58986,3028.61,27.0708,11507.0,-0.212985,-1.0,20.0,-1289.0,83.0,,0.0,,2022-11-16 17:50:08.978203+00:00,1.1795585126193682,0.014598499735345691,1.436555070484663,-1.1250276406501158,0.8933102922884236,0.61599528,321.54922708264223,0.21268338537761527,0.21470768232849227,1.399036155194283,325.04312191664064,-1.1302499961287293,0.7715090583784231,0.627606336,0.21503278088076047,0.21300603282408911,0.23689984261960587,-0.9715340779235724,1.280846762321495,0.20141366655825169,,,,,,,,,,
2022-11-16 10:50:09.178021-07:00,4.800133,1.46,0.82,-1.0,0.67,15.12,975.84,24.81,24.0,0.0,5.74688e-05,0.000225239,0.00631115,32.8213883,-111.78698,324.681329,0.327773481,-0.29245631,-0.203103211,,,,,,,,,,,,,,2022-11-16 17:50:09.178021+00:00,1.1792720828976375,0.014593840620966735,1.2930742670065591,-1.0044493677865558,0.8143233556442664,0.6763111500000001,320.96775854018983,0.2111183432998038,0.213262926441299,,,,,,,,0.9689579430590376,-0.24722561473843851,,,,,,,,,,,,
2022-11-16 10:50:09.377511-07:00,4.999623,1.46,0.96,-0.9,0.62,15.18,975.85,24.63,23.0,0.0,-5.45419e-06,0.000900804,0.00517102,32.8213883,-111.78698,324.677637,0.338605296,-0.291213168,-0.203213442,,,,,,,,,,,,,,2022-11-16 17:50:09.377511+00:00,1.1790387645738707,0.014589896451541205,1.3152789656917594,-0.9047568327498425,0.9546590130426976,0.62517102,313.4626902177658,0.20994323724837433,0.21218697076372026,,,,,,,,0.9999816701894201,0.006054691171144179,,,,,,,,,,,,
2022-11-16 10:50:09.577747-07:00,5.199859,1.48,0.95,-0.88,0.72,15.3,975.85,24.48,23.0,0.0,-0.000280386,0.000280872,0.00504382,32.8213883,-111.78698,324.677972,0.350696255,-0.291840829,-0.198251172,,,,,,,,,,,,,,2022-11-16 17:50:09.577747+00:00,1.178548264827818,0.014581920682722916,1.2945550829175954,-0.8855173715838096,0.9443155443659093,0.72504382,313.15954323809376,0.20969035992703813,0.2120170946808966,,,,,,,,0.707718808061709,0.7064942241205614,,,,,,,,,,,,
2022-11-16 10:50:09.778235-07:00,5.400347,1.56,1.24,-0.8,0.51,15.1,975.84,24.83,24.0,0.0,-5.03476e-05,0.000874461,0.00481478,32.8213883,-111.78698,324.676355,0.362419342,-0.292451126,-0.198044437,,,,,,,,,,,,,,2022-11-16 17:50:09.778235+00:00,1.1793539057654878,0.014595171491442748,1.475148667087432,-0.8069529918011947,1.2348645508852087,0.51481478,303.16360830333656,0.20884018150037129,0.21127584421618262,,,,,,,,0.9983466357234487,0.05748038743494684,,,,,,,,,,,,
2022-11-16 10:50:09.977758-07:00,5.59987,1.46,0.98,-0.9,0.6,15.15,975.84,24.79,25.0,0.0,0.000107035,-8.41724e-05,0.00508552,32.8213883,-111.78698,324.679346,0.376619902,-0.288593877,-0.195690276,2.02293,7.68256,3042.11,27.0712,11484.0,-0.201181,-1.0,21.0,-1299.0,83.0,,0.0,,2022-11-16 17:50:09.977758+00:00,1.1791493698817272,0.014591844772639919,1.330699488117476,-0.9065064747826971,0.9741699743130869,0.6050855199999999,312.93948529599345,0.2098232005455716,0.2123201566355852,1.4170249486712887,314.19515067164076,-0.982369744832955,1.0075539356593608,0.590928762,0.2132789007864615,0.21080841615620977,0.6181551093878717,0.7860561435022746,-0.1493731598050133,0.1536496514887157,,,,,,,,,,
2022-11-16 10:50:10.177432-07:00,5.799544,1.64,1.0,-1.14,0.63,14.98,975.84,25.07,24.0,0.0,0.00025576,9.38483e-05,0.00489352,32.8213883,-111.78698,324.678674,0.389832272,-0.285956193,-0.198282628,2.02293,7.68256,3042.11,27.0712,11484.0,-0.201181,-1.0,21.0,-1299.0,83.0,,0.0,,2022-11-16 17:50:10.177432+00:00,1.179845081514948,0.014603161840921693,1.5165396033857295,-1.1466835692788555,0.9924762770883996,0.63489352,319.12319336582925,0.21271793144962448,0.21524878129672634,1.4085283964080966,314.5863300338953,-0.9826924384486416,0.9954034717034087,0.5630360139999999,0.21331853239133425,0.2107713270273875,0.344479944586101,-0.9387936768949591,1.2654419803212762,0.18747668160845932,,,,,,,,,,
2022-11-16 10:50:10.378250-07:00,6.000362,1.54,0.9,-1.16,0.47,14.77,975.84,25.36,23.0,0.0,1.24121e-06,1.8915e-05,0.00480617,32.8213883,-111.78698,324.67974200000003,0.396940012,-0.284212502,-0.195924585,,,,,,,,,,,,,,2022-11-16 17:50:10.378250+00:00,1.1807056242598706,0.014617166132887714,1.4681819018482096,-1.1661883167182179,0.8919433316442001,0.47480616999999997,322.5899231549505,0.21297040735844353,0.21553262710291668,,,,,,,,0.9978539094656027,-0.06547957974981787,,,,,,,,,,,,
2022-11-16 10:50:10.578241-07:00,6.200353,1.38,0.89,-0.88,0.58,15.18,975.83,24.68,23.0,0.0,-0.000129133,-0.00079692,0.00558008,32.8213883,-111.78698,324.68306900000005,0.409208869,-0.288970326,-0.194448669,,,,,,,,,,,,,,2022-11-16 17:50:10.578241+00:00,1.1790146002296664,0.014589802494752861,1.2520723216016352,-0.887130839662243,0.8835632245861482,0.58558008,315.11544004936695,0.2095049142829264,0.2122152527052604,,,,,,,,0.9871245084444887,-0.15995375840606704,,,,,,,,,,,,
2022-11-16 10:50:10.777973-07:00,6.400085,1.34,0.73,-0.87,0.71,15.42,975.84,24.32,24.0,0.0,0.000381692,0.000924929,0.00645274,32.8213883,-111.78698,324.682275,0.419934094,-0.288166923,-0.198212832,,,,,,,,,,,,,,2022-11-16 17:50:10.777973+00:00,1.1780461009006546,0.014573906801404048,1.1352242766949414,-0.8744019958102239,0.7239857098870462,0.7164527399999999,320.37598755308557,0.20936491797445286,0.21213630210829737,,,,,,,,0.9243826489174406,-0.3814665363834365,,,,,,,,,,,,
2022-11-16 10:50:10.978257-07:00,6.600369,1.64,0.86,-1.24,0.64,15.41,975.85,24.38,25.0,0.0,0.000208488,-0.000635841,0.00599624,32.8213883,-111.78698,324.681146,0.43221996,-0.286112053,-0.195959216,2.02277,7.51825,3051.73,27.0713,11552.0,-0.177162,-1.0,23.0,-1306.0,83.0,,0.0,,2022-11-16 17:50:10.978257+00:00,1.1780989984390908,0.014574617258109037,1.5096821610312456,-1.2470880462031937,0.8508299667695496,0.64599624,325.69610666839014,0.21400589583465338,0.2167661822476994,1.3577861193144334,325.9989434950454,-1.1216740392937683,0.7417684502972914,0.531627668,0.21526491737292752,0.21248900443618046,0.9502226651108715,0.3115716397710045,0.3553633740253278,0.19545919225185432,,,,,,,,,,
2022-11-16 10:50:11.177829-07:00,6.799941,1.56,0.74,-1.28,0.48,14.92,975.84,25.16,24.0,0.0,0.000578963,0.000200509,0.00496424,32.8213883,-111.78698,324.68255000000005,0.442764303,-0.285758894,-0.199904208,,,,,,,,,,,,,,2022-11-16 17:50:11.177829+00:00,1.1800908228448013,0.014607160314289382,1.4786244217836229,-1.2854797094473522,0.730665516699744,0.48496424,330.38613877339463,0.21457192681323597,0.2173720889173107,,,,,,,,0.327254458183431,-0.9449362516059319,,,,,,,,,,,,
2022-11-16 10:50:11.378098-07:00,7.00021,1.43,0.53,-1.31,0.22,14.44,975.83,25.95,23.0,0.0,0.000203594,-0.000107581,0.00514504,32.8213882,-111.78698,324.682886,0.454394985,-0.285074027,-0.195566918,,,,,,,,,,,,,,2022-11-16 17:50:11.378098+00:00,1.1820483315978294,0.01463918019848136,1.4133274154607214,-1.314269605345828,0.519797833543969,0.22514504,338.42104443098975,0.2149973672756338,0.21783476088606976,,,,,,,,0.4671954041959996,0.884154089680151,,,,,,,,,,,,
2022-11-16 10:50:11.577505-07:00,7.199617,1.46,0.08,-1.4,0.39,15.46,975.84,24.34,24.0,0.0,1.92122e-05,-0.000625322,0.00415565,32.8213882,-111.78698,324.677911,0.463237551,-0.283342959,-0.198027975,,,,,,,,,,,,,,2022-11-16 17:50:11.577505+00:00,1.1778828292051626,0.014571253094145212,1.4029093640039991,-1.401226359551985,0.06869769215044305,0.39415565,357.1932167115704,0.21640807816581148,0.21920534121798244,,,,,,,,0.999528361275506,0.030709200671810516,,,,,,,,,,,,
2022-11-16 10:50:11.778022-07:00,7.400134,1.54,0.43,-1.36,0.6,15.19,975.85,24.76,25.0,0.0,0.000225118,0.000678746,0.00413991,32.8213882,-111.78698,324.675714,0.472735856,-0.286760674,-0.202254861,,,,,,,,,,,,,,2022-11-16 17:50:11.778022+00:00,1.1789978740014708,0.014589231469167808,1.4257763189898107,-1.3628227653514982,0.41898952496671094,0.60413991,342.9103513437667,0.2157319310877448,0.21865011947681387,,,,,,,,0.9491565671658514,-0.31480440118577857,,,,,,,,,,,,
2022-11-16 10:50:11.977546-07:00,7.599658,1.77,0.84,-1.52,0.36,14.69,975.83,25.5,24.0,0.0,-0.000262345,-0.000327168,0.00425772,32.8213882,-111.78698,324.68032200000005,0.482816076,-0.28666571,-0.191040985,,,,,,,,,,,,,,2022-11-16 17:50:11.977546+00:00,1.181021677613326,0.014622461011635907,1.7368262317894778,-1.5273515704866116,0.826899352741383,0.36425772,331.5691405493957,0.2184015441237544,0.22136760223197366,,,,,,,,0.780158049057045,-0.6255824633823309,,,,,,,,,,,,
2022-11-16 10:50:12.178077-07:00,7.800189,2.14,1.09,-1.77,0.5,14.69,975.84,25.55,23.0,0.0,0.000123733,-0.000420895,0.00475719,32.8213881,-111.78698,324.681329,0.493529048,-0.285025856,-0.203785527,,,,,,,,,,,,,,2022-11-16 17:50:12.178077+00:00,1.181033780353328,0.014622508204933512,2.0791257691527907,-1.7797440563486542,1.0748372238840738,0.50475719,328.87104756208254,0.22311008555054976,0.2260620263195154,,,,,,,,0.9594022982810033,0.2820411850300035,,,,,,,,,,,,
2022-11-16 10:50:12.377639-07:00,7.999751,2.66,1.23,-2.28,0.59,14.77,975.83,25.43,22.0,0.0,0.000582162,9.33056e-05,0.00488487,32.8213881,-111.78698,324.68505200000004,0.503557512,-0.28753574,-0.202701374,,,,,,,,,,,,,,2022-11-16 17:50:12.377639+00:00,1.180693524882675,0.014617118974791484,2.590807134014624,-2.2906286460121876,1.2104965971573167,0.59488487,332.14551603241966,0.23456632827017881,0.23732168120162336,,,,,,,,0.15825456666548676,-0.9873983452130751,,,,,,,,,,,,
2022-11-16 10:50:12.578113-07:00,8.200225,2.72,0.98,-2.5,0.42,14.87,975.84,25.28,24.0,0.0,0.000256675,-0.000108811,0.00459358,32.8213881,-111.78698,324.68462500000004,0.518048804,-0.285631835,-0.197732381,,,,,,,,,,,,,,2022-11-16 17:50:12.578113+00:00,1.1802956854971944,0.01461049405701096,2.685411979105766,-2.5088673256763587,0.9576127817016132,0.42459357999999997,339.10858056667564,0.24017544260076804,0.24281261576765603,,,,,,,,0.39030231472982674,0.9206867562404377,,,,,,,,,,,,
2022-11-16 10:50:12.777535-07:00,8.399647,2.56,1.34,-2.11,0.54,14.71,975.83,25.57,24.0,0.0,0.0002367,-0.00028865,0.00453684,32.821388,-111.78698,324.681238,0.528198902,-0.285831704,-0.197829952,,,,,,,,,,,,,,2022-11-16 17:50:12.777535+00:00,1.1809396223310629,0.014621125134553267,2.499910086930047,-2.1225520202746737,1.3207283460130992,0.54453684,328.1086378131176,0.23043001254375287,0.23344692660876937,,,,,,,,0.7732585959826157,0.6340908008629316,,,,,,,,,,,,
2022-11-16 10:50:12.978315-07:00,8.600427,2.52,1.55,-1.88,0.63,14.2,975.84,26.36,23.0,0.0,0.000164591,0.000162969,0.00404325,32.821388,-111.78698,324.679681,0.538882976,-0.288342274,-0.194762632,2.01858,7.60072,3087.66,27.0725,11495.0,-0.295917,-1.0,19.0,-1280.0,83.0,,0.0,,2022-11-16 17:50:12.978315+00:00,1.1830477234623349,0.014655314214556276,2.4365522680298346,-1.8943318523428636,1.5324143656467681,0.6340432500000001,321.02897123353364,0.22527721176405238,0.22852823627644106,2.3074861274812566,325.55402921650955,-1.9001173453064992,1.270477362945346,0.5722534899999999,0.22935909972597054,0.22618330355994445,0.7035967288524977,-0.7105994956007673,2.24412614380656,0.1610481339408576,,,,,,,,,,
2022-11-16 10:50:13.177759-07:00,8.799871,2.28,1.5,-1.61,0.63,14.24,975.84,26.3,22.0,0.0,8.41663e-05,-0.000130561,0.00424837,32.821388,-111.78698,324.68117700000005,0.545543318,-0.289070439,-0.192568848,,,,,,,,,,,,,,2022-11-16 17:50:13.177759+00:00,1.1828830625174915,0.014652630629114871,2.200630375112866,-1.6243396555349867,1.4846867451842747,0.63424837,317.571913629791,0.2198680744497983,0.2232863947678977,,,,,,,,0.8404919146689279,0.5418240871132988,,,,,,,,,,,,
2022-11-16 10:50:13.377408-07:00,8.99952,1.82,1.07,-1.34,0.62,14.79,975.84,25.42,23.0,0.0,6.53244e-05,-0.00012324,0.00384541,32.8213879,-111.78698,324.67782,0.558850122,-0.289702077,-0.187397366,,,,,,,,,,,,,,2022-11-16 17:50:13.377408+00:00,1.180623613728214,0.014615831227781859,1.7149259282277687,-1.3504958727036127,1.0569445761809753,0.62384541,321.95204283942985,0.21516577644135074,0.21872132520908863,,,,,,,,0.8835515404230805,0.46833393579368293,,,,,,,,,,,,
2022-11-16 10:50:13.577460-07:00,9.199572,1.36,0.66,-1.02,0.62,15.13,975.84,24.89,25.0,0.0,-0.00023268,0.000360698,0.00358423,32.8213879,-111.78698,324.676263,0.569783098,-0.293091207,-0.186532596,,,,,,,,,,,,,,2022-11-16 17:50:13.577460+00:00,1.1792311757211806,0.01459317527721433,1.214478184173598,-1.0261521879540854,0.64959136923965,0.62358423,327.66471331847947,0.21061152275285788,0.21431247420181396,,,,,,,,0.8403267741432828,0.5420801717992867,,,,,,,,,,,,
2022-11-16 10:50:13.777830-07:00,9.399942,1.33,0.84,-0.83,0.61,15.09,975.85,24.92,24.0,0.0,-0.00015626,-0.000242478,0.00250078,32.821388,-111.78698,324.67547,0.580922506,-0.293969875,-0.177530401,,,,,,,,,,,,,,2022-11-16 17:50:13.777830+00:00,1.1794069074021098,0.014595884036147925,1.1809516640461866,-0.8387164394003209,0.831385330092554,0.61250078,315.2515049874779,0.20843729556191123,0.21229380986439053,,,,,,,,0.8405767175787521,-0.5416925159761125,,,,,,,,,,,,
2022-11-16 10:50:13.977757-07:00,9.599869,1.42,0.79,-1.02,0.6,15.02,975.83,25.07,22.0,0.0,-0.000718071,0.000844255,0.00324264,32.8213879,-111.78698,324.67809400000004,0.593911041,-0.295132027,-0.181379832,2.02048,7.31362,3103.73,27.0733,11486.0,-0.307897,-1.0,20.0,-1308.0,83.0,,0.0,,2022-11-16 17:50:13.977757+00:00,1.1796692219322615,0.014600450365846278,1.2890484501259996,-1.0272897059383284,0.7786666596467223,0.6032426399999999,322.8385434715489,0.21053674661385471,0.21441046022650387,1.2255943740113087,320.55851295655185,-0.9437344951175906,0.7759804274383706,0.642985834,0.21347318272659077,0.2095690733787717,0.7617370317581708,0.6478863283387384,-0.020339649469007792,0.15192515982268967,,,,,,,,,,
2022-11-16 10:50:14.177714-07:00,9.799826,1.46,0.89,-0.91,0.7,15.11,975.84,24.93,23.0,0.0,-0.000313523,-0.000135408,0.00328525,32.8213879,-111.78698,324.680139,0.607912727,-0.292091456,-0.178868217,,,,,,,,,,,,,,2022-11-16 17:50:14.177714+00:00,1.179312992912308,0.014594506025706826,1.27275178930337,-0.9195269802441607,0.8799813917225664,0.70328525,316.25891644513655,0.20920190042742873,0.21321806853331352,,,,,,,,0.39649294654448186,-0.918037767927047,,,,,,,,,,,,
2022-11-16 10:50:14.378248-07:00,10.00036,1.35,0.75,-0.9,0.67,15.44,975.84,24.44,24.0,0.0,3.61248e-05,0.00105627,0.00231627,32.8213878,-111.78698,324.67782,0.618490772,-0.29173451,-0.179892511,,,,,,,,,,,,,,2022-11-16 17:50:14.378248+00:00,1.1779644593953427,0.014572579826320058,1.170741782407389,-0.9069871620510577,0.7402773864903603,0.67231627,320.7788865601166,0.20905790153780607,0.21313110080693198,,,,,,,,0.9994156806924395,-0.03418036257952691,,,,,,,,,,,,
2022-11-16 10:50:14.577446-07:00,10.199558,1.17,0.17,-1.02,0.54,15.64,975.84,24.13,24.0,0.0,0.000298297,0.000130454,0.0028232,32.8213878,-111.78698,324.67843000000005,0.629053977,-0.289666669,-0.177104366,,,,,,,,,,,,,,2022-11-16 17:50:14.577446+00:00,1.1771486662865818,0.01455932342478035,1.033986577706251,-1.0216744745319204,0.15908963186395647,0.5428232000000001,351.14928838633,0.21042778816328225,0.2144492195025347,,,,,,,,0.4006875113280963,-0.9162147773670193,,,,,,,,,,,,
2022-11-16 10:50:14.778104-07:00,10.400216,1.68,-0.19,-1.66,0.18,15.71,975.85,24.02,23.0,0.0,0.000295765,-4.46902e-05,0.00249686,32.8213877,-111.78698,324.677698,0.640094982,-0.289974007,-0.182090735,,,,,,,,,,,,,,2022-11-16 17:50:14.778104+00:00,1.176875465587427,0.014554736158352843,1.6708455669218238,-1.6578185091723825,-0.20823712240561126,0.18249685999999998,367.15937679470073,0.22056573835490037,0.22419679284439198,,,,,,,,0.1494044418913589,0.9887761691824554,,,,,,,,,,,,
2022-11-16 10:50:14.977335-07:00,10.599447,1.45,0.3,-1.37,0.35,15.33,975.85,24.61,22.0,0.0,-0.000313459,0.000781306,0.0023316,32.8213876,-111.78698,324.675226,0.649633746,-0.293406806,-0.183936923,,,,,,,,,,,,,,2022-11-16 17:50:14.977335+00:00,1.1784257036521912,0.014579928110002938,1.4016334854148806,-1.3725320356376056,0.28413419115755284,0.35233159999999997,348.3041441174049,0.21538723866581205,0.2193671714801627,,,,,,,,0.9280925533912578,0.37234958350949604,,,,,,,,,,,,
2022-11-16 10:50:15.177627-07:00,10.799739,1.48,0.87,-0.95,0.72,15.13,975.85,24.92,23.0,0.0,3.16864e-05,-0.000172315,0.00208808,32.8213876,-111.78698,324.678156,0.660081076,-0.296932125,-0.18037875,2.02337,7.35233,3094.0,27.0739,11552.0,-0.240842,-1.0,22.0,-1297.0,83.0,,0.0,,2022-11-16 17:50:15.177627+00:00,1.1792432599888445,0.014593222277660444,1.2883265497127585,-0.9601319617614369,0.8590296355184233,0.72208808,318.1810167751241,0.20949144744624917,0.21383491718949238,1.5494680745516913,335.1295929788512,-1.3248730883246254,0.6126729562304661,0.5200562479999999,0.21895821451751626,0.21484879738432294,0.9835099206706213,0.1808541841995045,0.3629610890224326,0.21191302747179996,,,,,,,,,,
2022-11-16 10:50:15.377900-07:00,11.000012,1.66,0.98,-1.16,0.69,14.99,975.84,25.11,25.0,0.0,-0.000243698,0.00107624,0.00219409,32.8213876,-111.78698,324.673334,0.666640564,-0.295987177,-0.188860489,,,,,,,,,,,,,,2022-11-16 17:50:15.377900+00:00,1.1798041345766015,0.014602495642598662,1.5175667792213094,-1.170247357482794,0.966193589142816,0.69219409,320.4558315463677,0.21215926066593252,0.21647336843981976,,,,,,,,0.9753091964225187,0.22084377141694725,,,,,,,,,,,,
2022-11-16 10:50:15.577484-07:00,11.199596,1.98,1.18,-1.45,0.65,14.92,975.84,25.27,24.0,0.0,-0.000493098,0.000243279,0.00117061,32.8213875,-111.78698,324.670007,0.678855889,-0.297658038,-0.182176393,,,,,,,,,,,,,,2022-11-16 17:50:15.577484+00:00,1.1800908228448013,0.014607160314289382,1.8689679914876844,-1.4636355775689078,1.16224448773915,0.65117061,321.54759566065826,0.21664030178872057,0.22091882263371457,,,,,,,,0.44244957032274773,0.896793386305461,,,,,,,,,,,,
2022-11-16 10:50:15.778092-07:00,11.400204,1.72,1.16,-1.06,0.7,14.96,975.84,25.17,23.0,0.0,-0.000568764,0.00038831,0.00161395,32.8213875,-111.78698,324.671899,0.689680047,-0.297827305,-0.188523526,,,,,,,,,,,,,,2022-11-16 17:50:15.778092+00:00,1.179926983918996,0.014604494420882104,1.570688240831573,-1.0734976975971848,1.1465880878240995,0.7016139499999999,313.1143706786088,0.21074566756209545,0.21528111827318827,,,,,,,,0.5638485617959379,0.8258781988650944,,,,,,,,,,,,
2022-11-16 10:50:15.978047-07:00,11.600159,1.49,1.03,-0.87,0.62,15.03,975.84,25.08,23.0,0.0,-0.000265142,-4.14255e-05,0.00226759,32.8213875,-111.78698,324.67467700000003,0.701572316,-0.30081227,-0.188894973,2.02421,7.465,3084.66,27.074,11550.0,-0.221786,-1.0,23.0,-1290.0,83.0,,0.0,,2022-11-16 17:50:15.978047+00:00,1.1796403752408287,0.014599831460163524,1.3480848227184268,-0.882587979200714,1.0190049794844833,0.62226759,310.89672892603113,0.20846847189935377,0.21313540974038686,1.44190081123453,313.35704698253613,-0.9964377986249083,1.031585517831941,0.638222212,0.21476741855892928,0.2101505855075585,0.15436619496300652,-0.988013703271692,1.1437361306659477,0.20520674866570435,,,,,,,,,,
2022-11-16 10:50:16.177969-07:00,11.800081,1.38,1.03,-0.68,0.6,15.0,975.83,25.2,25.0,0.0,-0.000216731,0.000174809,0.00308303,32.8213874,-111.78698,324.681635,0.713596924,-0.298017918,-0.187165272,,,,,,,,,,,,,,2022-11-16 17:50:16.177969+00:00,1.1797511007607835,0.014601782448285437,1.2339429122038976,-0.6926003744331134,1.0212344647108944,0.60308303,304.14508812568886,0.20661201770157134,0.21141454508250668,,,,,,,,0.627808888399523,0.7783675222197772,,,,,,,,,,,,
2022-11-16 10:50:16.377751-07:00,11.999863,1.34,0.82,-0.86,0.61,15.05,975.85,25.1,25.0,0.0,-0.000192928,0.000443229,0.00297588,32.8213874,-111.78698,324.681299,0.725264588,-0.29491745,-0.192654533,,,,,,,,,,,,,,2022-11-16 17:50:16.377751+00:00,1.1795706002414437,0.01459854677083864,1.1878200889310675,-0.8698673643246225,0.8088555694010787,0.61297588,317.08145152169334,0.20828646858605143,0.21308719706484996,,,,,,,,0.9169037577539337,0.3991083800381991,,,,,,,,,,,,
2022-11-16 10:50:16.577473-07:00,12.199585,1.5,0.39,-1.39,0.4,15.13,975.83,25.0,24.0,0.0,-0.000168517,5.43986e-05,0.00229723,32.8213873,-111.78698,324.67959,0.734294429,-0.292984582,-0.188315978,,,,,,,,,,,,,,2022-11-16 17:50:16.577473+00:00,1.1792190914535168,0.014593128277098485,1.4435798707386138,-1.394829498697685,0.371985903986264,0.40229723,345.0673797462639,0.21547363606465147,0.21997592798754956,,,,,,,,0.3071985596394448,0.9516454407789965,,,,,,,,,,,,
2022-11-16 10:50:16.777511-07:00,12.399623,1.9,-0.3,-1.87,0.14,15.31,975.84,24.72,22.0,0.0,-0.000617009,-0.000461306,0.00235189,32.8213873,-111.78698,324.67928500000005,0.743476902,-0.29244364,-0.198188166,,,,,,,,,,,,,,2022-11-16 17:50:16.777511+00:00,1.1784953315430282,0.014581209509269577,1.894471498461135,-1.8664111464913538,-0.3248564155660303,0.14235189,369.87364854832686,0.22456876995032324,0.22856595346068728,,,,,,,,0.5987941139983961,-0.8009029960244098,,,,,,,,,,,,
2022-11-16 10:50:16.977640-07:00,12.599752,2.31,-0.37,-2.28,0.06,15.25,975.83,24.78,24.0,0.0,-0.000333449,-7.90338e-05,0.00217258,32.8213873,-111.78698,324.681238,0.752482767,-0.291260374,-0.194031491,2.02295,7.0639,3103.42,27.0746,11484.0,-0.263336,-1.0,20.0,-1287.0,83.0,,0.0,,2022-11-16 17:50:16.977640+00:00,1.1787284316373778,0.014585148958645794,2.309962426610975,-2.275023223309418,-0.4002446074056332,0.06217258,369.9779334632263,0.23406575613080166,0.23767408567325077,1.910956467088532,362.6695726598615,-1.8845937551262366,-0.13112822979101732,0.184175892,0.22936261706951702,0.225301915718276,0.23062950637315222,-0.9730416387750712,1.8035461570050109,0.2136666856264871,,,,,,,,,,
2022-11-16 10:50:17.177988-07:00,12.8001,2.08,-0.26,-2.06,0.11,15.41,975.84,24.52,26.0,0.0,-0.000201935,-8.20453e-05,0.00220447,32.8213872,-111.78698,324.678156,0.760420651,-0.290244598,-0.193668195,,,,,,,,,,,,,,2022-11-16 17:50:17.177988+00:00,1.1780869258972204,0.014574570380057262,2.0764521464751233,-2.0564500437079336,-0.2875182330475506,0.11220447,367.9590958497876,0.22875520992991807,0.23266552433184645,,,,,,,,0.37641330046743504,-0.9264518483068683,,,,,,,,,,,,
2022-11-16 10:50:17.377476-07:00,12.999588,1.84,0.01,-1.83,0.2,15.22,975.84,24.9,24.0,0.0,-0.000280097,-0.000286805,0.00185329,32.8213872,-111.78698,324.67775900000004,0.774198716,-0.289098608,-0.195672187,,,,,,,,,,,,,,2022-11-16 17:50:17.377476+00:00,1.1788631388039739,0.014587189926542435,1.8303163931568118,-1.8302548634247922,-0.01500779692213652,0.20185329000000002,360.4698056917029,0.22364620651568579,0.2279315938942509,,,,,,,,0.7154237041663901,-0.6986908640570889,,,,,,,,,,,,
2022-11-16 10:50:17.577449-07:00,13.199561,2.34,-0.21,-2.33,0.04,14.74,975.85,25.59,24.0,0.0,-0.000217745,0.000719159,0.00162753,32.8213871,-111.78698,324.67489,0.784681425,-0.28483085,-0.193482738,,,,,,,,,,,,,,2022-11-16 17:50:17.577449+00:00,1.180840762060454,0.014619216121746926,2.338751606048936,-2.3261864186535415,-0.24210704340908434,0.04162753,365.94189124634096,0.235262555310423,0.23902240246910084,,,,,,,,0.9570915927293768,0.2897855812954548,,,,,,,,,,,,
2022-11-16 10:50:17.777914-07:00,13.400026,2.56,-0.34,-2.53,-0.1,13.95,975.86,26.97,23.0,0.0,7.0107e-05,-0.00023043,0.0016907,32.8213871,-111.78698,324.67638500000004,0.791137604,-0.28747834,-0.193159463,,,,,,,,,,,,,,2022-11-16 17:50:17.777914+00:00,1.1841021617633796,0.0146722040690611,2.5529612595603046,-2.5252946935067118,-0.3748305000431251,-0.0983093,368.4427928670122,0.24049867874747133,0.2440171508688245,,,,,,,,0.9567014806348209,0.29107091395593193,,,,,,,,,,,,
2022-11-16 10:50:17.978019-07:00,13.600131,2.61,-0.27,-2.59,-0.13,14.05,975.84,26.73,25.0,0.0,-2.56162e-06,0.000562414,0.00238273,32.821387,-111.78698,324.676874,0.799167054,-0.288749612,-0.188789438,,,,,,,,,,,,,,2022-11-16 17:50:17.978019+00:00,1.1836656105045331,0.01466538646286909,2.6034771171158124,-2.585419784713397,-0.30610069610863977,-0.12761727,366.75210023561317,0.24212045031711252,0.24562972706912506,,,,,,,,0.9999896275723983,0.004554640229057904,,,,,,,,,,,,
2022-11-16 10:50:18.177821-07:00,13.799933,2.39,-0.12,-2.38,-0.18,14.14,975.84,26.65,25.0,0.0,-4.18787e-05,0.000240998,0.00199832,32.821387,-111.78698,324.68050500000004,0.807659521,-0.286531343,-0.18775598,2.02064,7.15011,3112.8,27.0746,11490.0,-0.189892,-1.0,20.0,-1309.0,83.0,,0.0,,2022-11-16 17:50:18.177821+00:00,1.1832948008524555,0.014659341445215386,2.3827854914816333,-2.377831043438819,-0.1535780820105134,-0.17800168,363.6954563408842,0.23650079700049703,0.24034479947300288,2.3029288545660616,365.3829306496174,-2.2908533453344346,-0.22232095854062747,-0.068008842,0.23853761169464338,0.23461579974449082,0.985235206296107,0.1712062740517053,-0.6112469011053164,0.23164779661361776,,,,,,,,,,
2022-11-16 10:50:18.377590-07:00,13.999702,2.13,-0.11,-2.12,-0.05,14.41,975.85,26.18,23.0,0.0,0.000108325,7.57868e-06,0.00169862,32.821387,-111.78698,324.680872,0.820659365,-0.289577057,-0.18808954,,,,,,,,,,,,,,2022-11-16 17:50:18.377590+00:00,1.1821958790846574,0.014641283717144769,2.1228371340999663,-2.118199462490564,-0.1402445543272371,-0.048301380000000005,363.7879861807435,0.230026361933053,0.23422788603804365,,,,,,,,0.06979182990583797,-0.9975615772865325,,,,,,,,,,,,
2022-11-16 10:50:18.578305-07:00,14.200417,1.85,-0.11,-1.85,0.11,15.17,975.85,24.93,23.0,0.0,-7.81521e-05,0.000691773,0.00218542,32.8213869,-111.78698,324.680444,0.829558438,-0.289968593,-0.182852612,,,,,,,,,,,,,,2022-11-16 17:50:18.578305+00:00,1.1790796579827416,0.014590561494853877,1.8525832705725918,-1.8475217425226829,-0.13685096021362206,0.11218542,364.2363176238339,0.22393271072432017,0.22846849502422067,,,,,,,,0.9936789237556058,0.11225950509378178,,,,,,,,,,,,
2022-11-16 10:50:18.778241-07:00,14.400353,1.96,-0.24,-1.93,0.25,15.37,975.84,24.61,24.0,0.0,-0.000109998,-0.000928328,0.00172452,32.8213869,-111.78698,324.67809400000004,0.839438468,-0.290936105,-0.186527606,,,,,,,,,,,,,,2022-11-16 17:50:18.778241+00:00,1.178250254183079,0.01457722530226767,1.9457996610735309,-1.927205087863088,-0.2683595914971089,0.25172452,367.9273518798334,0.22563946543396685,0.2301048997350422,,,,,,,,0.9930530730220061,-0.11766730285661471,,,,,,,,,,,,
2022-11-16 10:50:18.977862-07:00,14.599974,2.16,-0.15,-2.15,-0.08,14.18,975.85,26.62,25.0,0.0,-0.000240412,0.0011684,0.00150868,32.8213868,-111.78698,324.67809400000004,0.850908669,-0.291950101,-0.187295326,,,,,,,,,,,,,,2022-11-16 17:50:18.977862+00:00,1.1831421953488466,0.01465670379656163,2.154082294208453,-2.146366913900792,-0.18215268632206158,-0.07849132,364.8508167312741,0.23067624275883647,0.23498444152066741,,,,,,,,0.9794803729976823,0.20153957157918417,,,,,,,,,,,,
2022-11-16 10:50:19.177915-07:00,14.800027,2.17,-0.13,-2.16,-0.09,14.16,975.83,26.69,24.0,0.0,0.000165887,-0.000185753,0.00128892,32.8213868,-111.78698,324.677881,0.857927586,-0.291960798,-0.182371081,2.02478,7.43746,3116.21,27.0754,11551.0,-0.158475,-1.0,22.0,-1294.0,83.0,,0.0,,2022-11-16 17:50:19.177915+00:00,1.1832003051902813,0.014657951360527617,2.164081293736738,-2.1579971069489288,-0.1621614390085607,-0.08871108,364.29738156041253,0.23090157971055222,0.2352404906519983,2.164153917977612,366.22010905432415,-2.1503360528842768,-0.23628490138042618,-0.004341097999999999,0.23527597126886907,0.23095756048020455,0.7458656286710573,0.6660964374376495,-1.608567970633544,0.1662292174399291,,,,,,,,,,
2022-11-16 10:50:19.377577-07:00,14.999689,1.99,-0.17,-1.98,-0.06,14.36,975.83,26.39,22.0,0.0,0.000278308,0.000678148,0.00143447,32.8213867,-111.78698,324.679437,0.868813342,-0.292793519,-0.192191572,,,,,,,,,,,,,,2022-11-16 17:50:19.377577+00:00,1.1823772379542268,0.014644538456079782,1.9865818762621508,-1.976516497050588,-0.19972503093032812,-0.05856553,365.7700955694256,0.22668322842119787,0.23127073525591507,,,,,,,,0.9251238523294584,-0.37966545517218503,,,,,,,,,,,,
2022-11-16 10:50:19.577840-07:00,15.199952,2.58,-0.33,-2.55,-0.05,14.42,975.83,26.22,23.0,0.0,0.000116362,0.00103382,0.00233792,32.8213867,-111.78698,324.683221,0.880391662,-0.293295413,-0.192111463,,,,,,,,,,,,,,2022-11-16 17:50:19.577840+00:00,1.1821305410307743,0.01464051939344416,2.5702244646071857,-2.5435946586579856,-0.36902575914407165,-0.04766208,368.2548995306752,0.24088728607646928,0.2447792891807223,,,,,,,,0.9937252012092339,-0.11184911480055446,,,,,,,,,,,,
2022-11-16 10:50:19.778149-07:00,15.400261,2.54,-0.33,-2.52,0.07,14.61,975.85,25.92,24.0,0.0,0.000141301,-0.000470657,0.00282215,32.8213867,-111.78698,324.683191,0.890475272,-0.294334742,-0.193546945,,,,,,,,,,,,,,2022-11-16 17:50:19.778149+00:00,1.181374225012455,0.014627901431595414,2.541960448865182,-2.515037753223947,-0.36898241618418093,0.07282215,368.3463494753154,0.24005470954865463,0.2440302379431879,,,,,,,,0.9577680731972719,0.2875418542820946,,,,,,,,,,,,
2022-11-16 10:50:19.978179-07:00,15.600291,2.55,-0.49,-2.51,0.03,14.48,975.83,26.19,25.0,0.0,-0.000169824,0.000981877,0.00302956,32.8213866,-111.78698,324.68523600000003,0.900170821,-0.295683232,-0.196895958,,,,,,,,,,,,,,2022-11-16 17:50:19.978179+00:00,1.1818839470299334,0.014636502547032968,2.5564560422648444,-2.50101030679238,-0.5295421997827148,0.03302956,371.9547531574576,0.239767392321262,0.2437346528007823,,,,,,,,0.9853701038512634,0.17042816209814127,,,,,,,,,,,,
2022-11-16 10:50:20.177616-07:00,15.799728,2.77,-0.39,-2.74,-0.04,14.36,975.84,26.35,23.0,0.0,-0.000806316,8.17278e-05,0.00332837,32.8213866,-111.78698,324.686304,0.906959571,-0.298838885,-0.185778136,2.02223,7.09397,3102.33,27.0757,11503.0,-0.139189,-1.0,19.0,-1282.0,83.0,,0.0,,2022-11-16 17:50:20.177616+00:00,1.1823893545855864,0.014644585794948154,2.767661945128282,-2.7334017771084196,-0.43412828451023244,-0.036671630000000004,369.0245358617723,0.24616450391726274,0.2498919228472595,2.5877343024163344,370.1041131986308,-2.5470133313118666,-0.4507596916019854,0.024901122000000005,0.24501120665305315,0.24103732735184216,0.1008428232610968,0.9949023695804182,-2.5794854785885364,0.23859916210997098,,,,,,,,,,
2022-11-16 10:50:20.377903-07:00,16.000015,2.72,-0.37,-2.69,-0.08,14.35,975.85,26.41,22.0,0.0,-0.000535764,0.000389129,0.002759,32.8213865,-111.78698,324.685632,0.916133447,-0.296000588,-0.188532518,,,,,,,,,,,,,,2022-11-16 17:50:20.377903+00:00,1.1824425982246403,0.01464530320235366,2.7150238115502137,-2.6833511285854432,-0.41349851028011914,-0.077241,368.7602467207318,0.244723753540902,0.24856608782023296,,,,,,,,0.587660375338999,0.8091077080688497,,,,,,,,,,,,
2022-11-16 10:50:20.577934-07:00,16.200046,2.37,-0.47,-2.31,0.13,14.53,975.84,26.11,24.0,0.0,-0.000396328,-0.000158676,0.00256653,32.8213865,-111.78698,324.683801,0.925504366,-0.293748218,-0.188937249,,,,,,,,,,,,,,2022-11-16 17:50:20.577934+00:00,1.181690640075438,0.014633204130490352,2.3575692642731516,-2.302265690849144,-0.5076470472526797,0.13256653000000002,372.43468077787674,0.23447627743112934,0.23883313185380325,,,,,,,,0.37168305438406773,-0.9283596862659054,,,,,,,,,,,,
2022-11-16 10:50:20.777500-07:00,16.399612,2.55,-0.37,-2.51,0.22,14.77,975.84,25.62,25.0,0.0,-0.000139368,0.000319551,0.0020498,32.8213865,-111.78698,324.68316000000004,0.937786699,-0.296695914,-0.188088793,,,,,,,,,,,,,,2022-11-16 17:50:20.777500+00:00,1.1807056242598706,0.014617166132887714,2.5368316124071515,-2.5032885577488373,-0.4111703130723502,0.2220498,369.32766229757,0.23970101766055754,0.24388377828646018,,,,,,,,0.9166155265799163,0.39976990436077453,,,,,,,,,,,,
2022-11-16 10:50:20.978227-07:00,16.600339,2.98,-0.62,-2.92,0.06,14.47,975.85,26.24,24.0,0.0,-0.000640402,0.000142945,0.00174396,32.8213864,-111.78698,324.68313,0.952091631,-0.296681239,-0.191007007,2.02516,7.38259,3085.27,27.0762,11503.0,-0.0653636,-1.0,19.0,-1282.0,83.0,,0.0,,2022-11-16 17:50:20.978227+00:00,1.1819492628801338,0.014637266448496632,2.9851004715887153,-2.909151766957372,-0.6690746014369184,0.06174396,372.9521976428471,0.25138648581042095,0.25492962812656705,2.771983791181822,369.96335478894673,-2.72843539343136,-0.47372323531258803,0.081889556,0.2501587520858708,0.2462795716354409,0.21785031067649066,0.9759821935558848,-2.766105114244172,0.2348916722132541,,,,,,,,,,
2022-11-16 10:50:21.177504-07:00,16.799616,3.1,-0.28,-3.08,-0.13,14.47,975.84,26.16,22.0,0.0,-0.000419428,-0.000260092,0.00177628,32.8213864,-111.78698,324.683313,0.961736342,-0.294795903,-0.193582644,,,,,,,,,,,,,,2022-11-16 17:50:21.177504+00:00,1.1819371508827687,0.014637219157885427,3.093004680345768,-3.0751264946269554,-0.33207679034247367,-0.12822372,366.1633733803514,0.2562604800403553,0.2597683458858678,,,,,,,,0.5270079304349989,-0.8498603657417019,,,,,,,,,,,,
2022-11-16 10:50:21.377776-07:00,16.999888,2.89,-0.4,-2.86,0.12,14.83,975.84,25.6,22.0,0.0,-0.00027637,0.000472291,0.00131121,32.8213863,-111.78698,324.681299,0.970236283,-0.297669048,-0.195400992,,,,,,,,,,,,,,2022-11-16 17:50:21.377776+00:00,1.180459626838329,0.014613162152597154,2.887412927294323,-2.852344456974492,-0.44864742445851796,0.12131120999999999,368.93885984608823,0.24957359723474146,0.2533788762766558,,,,,,,,0.8630885750517782,0.505052583019918,,,,,,,,,,,,
2022-11-16 10:50:21.577976-07:00,17.200088,2.83,-0.48,-2.79,0.12,14.79,975.85,25.67,24.0,0.0,-0.000106684,-0.000120272,0.00162557,32.8213863,-111.78698,324.68297700000005,0.979614524,-0.296971631,-0.190677222,,,,,,,,,,,,,,2022-11-16 17:50:21.577976+00:00,1.180635712265,0.0146158783774142,2.831127275623084,-2.78150608969314,-0.5277362255681952,0.12162557,370.7430568705955,0.24750359626800392,0.25141161673510415,,,,,,,,0.7481021296238614,-0.6635836071304378,,,,,,,,,,,,
2022-11-16 10:50:21.777578-07:00,17.39969,3.27,-0.38,-3.25,-0.1,14.53,975.85,26.1,25.0,0.0,-0.000169314,0.000340979,0.00123281,32.8213862,-111.78698,324.68120700000003,0.989292397,-0.295794143,-0.194850491,,,,,,,,,,,,,,2022-11-16 17:50:21.777578+00:00,1.1817027495466634,0.014633251394625915,3.2718246051672883,-3.2426136639385854,-0.43622571384188846,-0.09876719,367.6619452609873,0.26160449687299514,0.264901727598491,,,,,,,,0.8956588672078948,0.4447417155966716,,,,,,,,,,,,
2022-11-16 10:50:21.977848-07:00,17.59996,3.02,-0.34,-3.0,-0.06,14.49,975.83,26.21,24.0,0.0,-0.000178421,0.000738111,0.000640341,32.8213862,-111.78698,324.681085,0.997864698,-0.29973297,-0.19174706,2.02131,7.80165,3058.75,27.0767,11516.0,-0.160806,-1.0,20.0,-1307.0,83.0,,0.0,,2022-11-16 17:50:21.977848+00:00,1.181842858031636,0.01463583328797215,3.0184965254985654,-2.9928857746603286,-0.39237229041148736,-0.059359658999999995,367.46897477095695,0.25375295544401505,0.25748293178072273,3.1366490314928654,367.72262391290565,-3.1067553423735097,-0.41844143256921135,-0.024716675,0.260951042409657,0.25741644551855286,0.9720051793241355,0.2349594249377009,-1.1366886883672944,0.24695421777284324,,,,,,,,,,
2022-11-16 10:50:22.178020-07:00,17.800132,3.15,-0.19,-3.15,-0.02,14.46,975.83,26.26,23.0,0.0,-0.000586517,0.000700082,0.000991544,32.8213861,-111.78698,324.687158,1.00421505,-0.302503962,-0.192454255,,,,,,,,,,,,,,2022-11-16 17:50:22.178020+00:00,1.1819661335983445,0.014637841249699645,3.155072623418334,-3.1454861721753513,-0.24576411393347225,-0.019008456,364.4675755919563,0.25840619504472667,0.2620077889161817,,,,,,,,0.7665410650080484,0.6421952940160235,,,,,,,,,,,,
2022-11-16 10:50:22.377579-07:00,17.999691,3.41,-0.43,-3.38,-0.07,14.73,975.84,25.8,24.0,0.0,-0.00056887,0.000606244,0.00192636,32.8213861,-111.78698,324.691278,1.01047225,-0.300176839,-0.193386261,,,,,,,,,,,,,,2022-11-16 17:50:22.377579+00:00,1.1808696795084823,0.01461983667845473,3.406724127757055,-3.371285011400145,-0.4901088190910135,-0.06807364,368.2715670700323,0.26581498396302355,0.2689511470177852,,,,,,,,0.7292272862789166,0.6842715578966343,,,,,,,,,,,,
2022-11-16 10:50:22.577629-07:00,18.199741,3.22,-0.11,-3.22,0.01,14.65,975.83,25.96,25.0,0.0,-0.000244749,0.000472693,0.000973872,32.8213861,-111.78698,324.687738,1.01750552,-0.297365972,-0.190256043,,,,,,,,,,,,,,2022-11-16 17:50:22.577629+00:00,1.1811858223913125,0.014625133501938767,3.2214189875115222,-3.217066197717253,-0.1674078032972641,0.010973872,362.9788373065904,0.26061667681571854,0.2642002996146183,,,,,,,,0.8880239013316618,0.45979729301475347,,,,,,,,,,,,
2022-11-16 10:50:22.777727-07:00,18.399839,3.16,-0.38,-3.14,-0.05,14.92,975.84,25.5,24.0,0.0,-0.000427653,0.00119593,0.00137658,32.821386,-111.78698,324.687311,1.023689,-0.294090094,-0.196728444,,,,,,,,,,,,,,2022-11-16 17:50:22.777727+00:00,1.1800908228448013,0.014607160314289382,3.1617845523776595,-3.131513905763001,-0.43646559276413777,-0.04862342,367.93468049658907,0.2580708661771054,0.2616557138864924,,,,,,,,0.9416083808585837,0.3367100489989516,,,,,,,,,,,,
2022-11-16 10:50:22.977340-07:00,18.599452,2.84,-0.43,-2.81,0.12,15.27,975.84,24.92,23.0,0.0,5.98365e-05,0.000837733,0.00147579,32.821386,-111.78698,324.687921,1.03565554,-0.292082941,-0.189172731,,,,,,,,,,,,,,2022-11-16 17:50:22.977340+00:00,1.1786587730979194,0.014583866863820402,2.8418741892894133,-2.800931143299732,-0.48065958665464736,0.12147579,369.7375134939949,0.24800805488009864,0.25213191995998474,,,,,,,,0.9974588327965923,-0.07124518844146392,,,,,,,,,,,,
2022-11-16 10:50:23.177778-07:00,18.79989,2.97,-0.16,-2.96,-0.04,14.66,975.85,25.96,23.0,0.0,-3.68794e-05,0.000691916,0.00143264,32.8213859,-111.78698,324.68667000000005,1.05044268,-0.292742672,-0.196168526,2.02309,7.59826,3039.93,27.0762,11546.0,-0.0974329,-1.0,23.0,-1302.0,83.0,,0.0,,2022-11-16 17:50:23.177778+00:00,1.181168989922463,0.014624559700670687,2.9636337302011717,-2.9558774094825604,-0.21427465294985004,-0.03856736,364.1461786299779,0.25246903970119344,0.2565533501473183,2.800133707415933,363.5431243449884,-2.782168605627703,-0.19501043121597855,0.07085298179999999,0.2519204759178015,0.24756612699967237,0.9985825530860017,0.05322485013828145,-0.34281452137602,0.2512077932523201,,,,,,,,,,
2022-11-16 10:50:23.377780-07:00,18.999892,2.72,-0.01,-2.72,-0.04,14.21,975.84,26.69,24.0,0.0,5.12282e-05,0.000479863,0.000337238,32.8213859,-111.78698,324.67681300000004,1.06472542,-0.292768989,-0.200999192,,,,,,,,,,,,,,2022-11-16 17:50:23.377780+00:00,1.1830065539285286,0.014654643225600093,2.7195374982539087,-2.7188646874479985,-0.06048979878810702,-0.039662762000000004,361.2745167210607,0.24535070380235038,0.24994675807113048,,,,,,,,0.9943498401208469,-0.10615269874876546,,,,,,,,,,,,
2022-11-16 10:50:23.578180-07:00,19.200292,2.34,0.26,-2.3,0.36,14.3,975.85,26.52,24.0,0.0,-0.000123283,0.000802412,-0.000357339,32.8213858,-111.78698,324.6737,1.07109021,-0.292043019,-0.206289621,,,,,,,,,,,,,,2022-11-16 17:50:23.578180+00:00,1.182648276185716,0.014648654467855075,2.3138385669575126,-2.3036558821452244,0.21683747507684947,0.359642661,354.62273238331943,0.23393197043761393,0.2393146375240815,,,,,,,,0.9884022232260248,0.15185863532197133,,,,,,,,,,,,
2022-11-16 10:50:23.777413-07:00,19.399525,2.35,0.83,-2.11,0.61,14.27,975.84,26.62,23.0,0.0,-0.000131698,4.12937e-05,8.55417e-05,32.8213858,-111.78698,324.67260100000004,1.07582568,-0.291483178,-0.210788664,,,,,,,,,,,,,,2022-11-16 17:50:23.777413+00:00,1.182759596885749,0.014650618588030642,2.267292737610226,-2.1251705072015246,0.7901054824141455,0.6100855417,339.6056453477101,0.2292299010142385,0.2351448404251558,,,,,,,,0.29918625192883896,0.9541947320420362,,,,,,,,,,,,
2022-11-16 10:50:23.977764-07:00,19.599876,2.25,0.6,-2.08,0.64,14.35,975.85,26.49,23.0,0.0,-0.000280461,0.000824682,0.000752709,32.8213858,-111.78698,324.672723,1.08593073,-0.29352905,-0.202396548,,,,,,,,,,,,,,2022-11-16 17:50:23.977764+00:00,1.1824425982246403,0.01464530320235366,2.16394028601147,-2.090172900891661,0.560191758062845,0.640752709,344.99663384680696,0.22849510346835858,0.23440682473222496,,,,,,,,0.9467485584739748,0.3219738607829071,,,,,,,,,,,,
2022-11-16 10:50:24.178068-07:00,19.80018,2.15,0.8,-1.9,0.6,14.36,975.84,26.42,24.0,0.0,-0.000274288,9.51731e-06,0.000836274,32.8213857,-111.78698,324.67141100000003,1.09227022,-0.293142029,-0.192771447,2.02035,7.80984,3040.51,27.0772,11544.0,-0.133798,-1.0,21.0,-1289.0,83.0,,0.0,,2022-11-16 17:50:24.178068+00:00,1.1823893545855864,0.014644585794948154,2.061442386674856,-1.914895284879863,0.7633614881067776,0.600836274,338.2655993244544,0.2243753310366164,0.23063364554558646,2.29152205718627,346.40175435393485,-2.1952493674698266,0.48798912083648993,0.43905828094,0.23717480519757336,0.23143332876232847,0.034677367954698377,0.9993985592103555,-2.177006876655652,0.23115520154047153,,,,,,,,,,
2022-11-16 10:50:24.377987-07:00,20.000099,2.19,0.69,-2.05,0.37,14.34,975.84,26.54,25.0,0.0,-4.0137e-05,0.000217041,0.00129005,32.8213857,-111.786981,324.674127,1.10171074,-0.29117702,-0.195134586,,,,,,,,,,,,,,2022-11-16 17:50:24.377987+00:00,1.1824716106191588,0.014645925984137524,2.1627881013826045,-2.0626708263842857,0.6504163539344157,0.37129005,342.49851589050013,0.2277548893096848,0.2338304195935302,,,,,,,,0.983327220599549,0.18184492631900903,,,,,,,,,,,,
2022-11-16 10:50:24.577658-07:00,20.19977,2.8,-0.27,-2.79,-0.03,14.28,975.85,26.61,23.0,0.0,-1.904e-05,0.000895507,0.00232683,32.8213857,-111.786981,324.677545,1.11233329,-0.290922772,-0.191718872,,,,,,,,,,,,,,2022-11-16 17:50:24.577658+00:00,1.1827305674062698,0.01464999540563228,2.802146774252195,-2.7833373179918,-0.32412947833573474,-0.02767317,366.6423773602027,0.24731141898274403,0.25185829569136936,,,,,,,,0.9997740466900423,0.021256894529000096,,,,,,,,,,,,
2022-11-16 10:50:24.778115-07:00,20.400227,2.79,-0.13,-2.79,-0.02,14.3,975.84,26.65,23.0,0.0,-0.00024952,0.000750584,0.002166,32.8213856,-111.78698,324.67547,1.12374714,-0.289349492,-0.187884113,,,,,,,,,,,,,,2022-11-16 17:50:24.778115+00:00,1.1826361570252286,0.014648607102123765,2.7922946063100467,-2.7861632761649626,-0.1849415231306911,-0.017834,363.7976406122701,0.24729488626679458,0.2519640188894229,,,,,,,,0.9489388751784238,0.3154599993265515,,,,,,,,,,,,
2022-11-16 10:50:24.978135-07:00,20.600247,2.7,-0.14,-2.69,-0.05,14.13,975.83,26.86,24.0,0.0,0.000284029,0.00153959,0.000890655,32.8213856,-111.78698,324.672235,1.13506243,-0.288783295,-0.189335243,2.02359,7.33486,3044.76,27.0769,11484.0,-0.184153,-1.0,20.0,-1278.0,83.0,,0.0,,2022-11-16 17:50:24.978135+00:00,1.1833238641193948,0.01465996542588084,2.692084664160897,-2.6851592706635916,-0.19297546522721173,-0.049109345000000006,364.1106324522048,0.244381643227047,0.2492595202269734,2.6270562961199473,363.41253052993574,-2.6204472949800275,-0.1617147797869215,-0.014584295800000003,0.24761330415662702,0.2426215479852294,0.9834053215971956,-0.18142208645673832,0.3163758406818154,0.23959648223306196,,,,,,,,,,
2022-11-16 10:50:25.177796-07:00,20.799908,2.49,-0.01,-2.49,-0.01,13.94,975.85,27.2,26.0,0.0,0.000392769,0.000166855,0.000356976,32.8213856,-111.78698,324.674951,1.14201111,-0.287739325,-0.192481056,2.02359,7.33486,3044.76,27.0769,11484.0,-0.184153,-1.0,20.0,-1278.0,83.0,,0.0,,2022-11-16 17:50:25.177796+00:00,1.184131272387001,0.014672829149294719,2.489843898326168,-2.489139243923263,-0.059232274928249444,-0.009643024,361.363169618985,0.2387966870993127,0.24410190119259703,2.5220834864245476,361.35725269933243,-2.5183205805054234,-0.06802070249053174,0.0393616502,0.24500671127267207,0.23975800332416347,0.39099807520357666,-0.9203914956077649,2.2912448817634083,0.20652891382281302,,,,,,,,,,
2022-11-16 10:50:25.377685-07:00,20.999797,2.36,0.0,-2.36,0.03,14.0,975.84,27.13,24.0,0.0,9.5252e-05,0.00108677,0.00133806,32.8213855,-111.78698,324.679193,1.15061566,-0.287638696,-0.200617327,,,,,,,,,,,,,,2022-11-16 17:50:25.377685+00:00,1.1838717163047257,0.014668746971033481,2.3589115375504313,-2.35843736615652,-0.04729515731272045,0.03133806,361.1488326060162,0.23532310435024859,0.2408827847827725,,,,,,,,0.9961810012548498,-0.0873121568791254,,,,,,,,,,,,
2022-11-16 10:50:25.577504-07:00,21.199616,2.29,0.19,-2.27,0.24,14.06,975.84,27.09,23.0,0.0,0.000269511,0.000673353,0.00205656,32.8213855,-111.786981,324.677515,1.15835662,-0.289739178,-0.197466683,,,,,,,,,,,,,,2022-11-16 17:50:25.577504+00:00,1.1836243979558578,0.01466471454687613,2.277282725775195,-2.272703745618779,0.14434090814621403,0.24205656,356.3659882071861,0.23299369567741457,0.23882533127159458,,,,,,,,0.9283959398482639,-0.3715924903348544,,,,,,,,,,,,
2022-11-16 10:50:25.777481-07:00,21.399593,2.58,-0.24,-2.57,0.07,14.62,975.84,26.06,24.0,0.0,1.29822e-05,-0.000208273,0.00127395,32.8213855,-111.786981,324.675928,1.16839879,-0.290318682,-0.201525334,,,,,,,,,,,,,,2022-11-16 17:50:25.777481+00:00,1.1813210666049343,0.014627185738172411,2.5813873624188273,-2.5647800857827505,-0.2923419682971589,0.07127395,366.502694641974,0.24094516407338148,0.24611686591384052,,,,,,,,0.9980629654954705,0.062211871105017275,,,,,,,,,,,,
2022-11-16 10:50:25.977572-07:00,21.599684,2.42,-0.0,-2.41,0.14,14.34,975.84,26.58,25.0,0.0,-0.000110839,0.000713529,0.000839099,32.8213854,-111.786981,324.67431000000005,1.17531377,-0.290915842,-0.206469248,2.0206,7.59127,3035.52,27.0787,11516.0,-0.210526,-1.0,19.0,-1288.0,83.0,,0.0,,2022-11-16 17:50:25.977572+00:00,1.1824716106191588,0.014645925984137524,2.4092888978742306,-2.4087794403630856,-0.049543931052396184,0.14083909900000002,361.17829715338837,0.23659079895886384,0.2421873824341443,2.507798168980371,361.677482177696,-2.5025440331708504,-0.07959704090136403,0.0973553038,0.24462677765696855,0.23919663276411218,0.9881489227006174,0.1534982298451982,-0.4627898094182284,0.23892943228951138,,,,,,,,,,
2022-11-16 10:50:26.177764-07:00,21.799876,2.61,-0.0,-2.61,0.09,14.06,975.85,27.1,26.0,0.0,-0.000375259,-8.97205e-05,0.00126978,32.8213854,-111.786981,324.67269300000004,1.18772721,-0.293751799,-0.204141459,,,,,,,,,,,,,,2022-11-16 17:50:26.177764+00:00,1.183636527243425,0.01466476201892622,2.610097506389143,-2.6095289526501246,-0.054476032707671145,0.09126978,361.19592214585316,0.2420293544744414,0.24734760509333453,,,,,,,,0.2325355865072439,-0.9725878885775475,,,,,,,,,,,,
2022-11-16 10:50:26.378203-07:00,22.000315,2.66,-0.09,-2.66,-0.06,14.15,975.83,26.94,24.0,0.0,-0.000313135,0.000605835,0.00133713,32.8213854,-111.786981,324.67309,1.19922271,-0.294695547,-0.210458252,,,,,,,,,,,,,,2022-11-16 17:50:26.378203+00:00,1.183241488632857,0.014658622653857296,2.660934352444457,-2.656927941439511,-0.14596418059580793,-0.05866287,363.14450874007815,0.24342415063645953,0.24865670357192898,,,,,,,,0.8883539892073731,0.459159220597111,,,,,,,,,,,,
2022-11-16 10:50:26.577660-07:00,22.199772,2.66,-0.18,-2.65,-0.03,14.2,975.84,26.81,23.0,0.0,0.000454019,-0.000116998,0.00110575,32.8213853,-111.786981,324.67235700000003,1.20716712,-0.297280256,-0.197195074,,,,,,,,,,,,,,2022-11-16 17:50:26.577660+00:00,1.1830477234623349,0.014655314214556276,2.6561824445976083,-2.645736699534608,-0.2353348587104088,-0.02889425,365.083008304385,0.243127113422365,0.24836119567851442,,,,,,,,0.24954166784187165,0.9683640617095912,,,,,,,,,,,,
2022-11-16 10:50:26.777801-07:00,22.399913,2.36,-0.17,-2.35,0.07,14.32,975.83,26.56,24.0,0.0,-0.000609143,0.000354404,0.00143077,32.8213853,-111.786981,324.672998,1.21526404,-0.296451198,-0.201477389,,,,,,,,,,,,,,2022-11-16 17:50:26.777801+00:00,1.1825417597809156,0.014647219063287326,2.355844967367944,-2.3455115169777616,-0.22041151058315178,0.07143077,365.3684118889791,0.23493706722733457,0.24073644745661665,,,,,,,,0.5028867165130024,0.8643523299874717,,,,,,,,,,,,
2022-11-16 10:50:26.977376-07:00,22.599488,2.19,-0.02,-2.19,0.11,14.27,975.83,26.7,25.0,0.0,-0.000404223,-2.78973e-05,0.00335385,32.8213853,-111.786981,324.678735,1.22333709,-0.297072202,-0.203064137,,,,,,,,,,,,,,2022-11-16 17:50:26.977376+00:00,1.1827474764603012,0.014650571209358887,2.1901315639414727,-2.1891017389500314,-0.06715537133149159,0.11335385,361.7571193467718,0.230856073267458,0.23703943225254628,,,,,,,,0.06885085388869785,-0.9976269643102061,,,,,,,,,,,,
