Timestamp,Seconds,S,Um,Vm,Wm,T,P,H,MD,Sts,Vx,Vy,Vz,Lat,Lon,Alt,Yaw,Roll,Pitch,CH4,C2H6,H2O,T_a,Batt,R,C2C1,Power,Current,SOC,Lat_a,Lon_a,TS,Timestamp_UTC
2022-11-16 10:50:04.377888-07:00,0.0,2.15,0.19,-2.11,0.35,14.64,975.86,25.47,23.0,0.0,-0.000119887,0.00104258,0.00755484,32.8213884,-111.786981,323.826965,0.0462467499,-0.28595342,-0.217662711,,,,,,,,,,,,,,2022-11-16 17:50:04.377888+00:00
2022-11-16 10:50:04.578092-07:00,0.200204,2.08,0.5,-1.96,0.48,14.53,975.85,25.66,25.0,0.0,-4.07068e-05,0.000133756,0.00695681,32.8213884,-111.786981,323.826813,0.0602327994,-0.284265114,-0.208050968,,,,,,,,,,,,,,2022-11-16 17:50:04.578092+00:00
2022-11-16 10:50:04.777953-07:00,0.400065,3.0,-0.31,-2.98,-0.1,14.65,975.85,25.42,26.0,0.0,8.80079e-05,0.000481717,0.00681202,32.8213883,-111.78698,323.824249,0.0740741034,-0.284316006,-0.217277016,,,,,,,,,,,,,,2022-11-16 17:50:04.777953+00:00
2022-11-16 10:50:04.978283-07:00,0.600395,2.34,0.09,-2.32,0.22,14.66,975.86,25.36,23.0,0.0,-0.000153797,0.0011246,0.00637765,32.8213883,-111.78698,323.826355,0.0865803328,-0.286445883,-0.21671679,2.02107,6.97715,3026.59,27.0695,11497.0,-0.288984,-1.0,20.0,-1285.0,83.0,,0.0,,2022-11-16 17:50:04.978283+00:00
2022-11-16 10:50:05.177671-07:00,0.799783,1.79,0.91,-1.44,0.53,14.56,975.83,25.65,22.0,0.0,0.000359893,0.000268063,0.00762343,32.8213883,-111.78698,323.829285,0.0961771206,-0.28843977,-0.20768651,2.02107,6.97715,3026.59,27.0695,11497.0,-0.288984,-1.0,20.0,-1285.0,83.0,,0.0,,2022-11-16 17:50:05.177671+00:00
2022-11-16 10:50:05.377530-07:00,0.999642,2.08,1.3,-1.52,0.55,14.59,975.85,25.56,23.0,0.0,0.000211012,0.00104093,0.00714801,32.8213883,-111.78698,323.823364,0.105002606,-0.289136055,-0.215837223,,,,,,,,,,,,,,2022-11-16 17:50:05.377530+00:00
2022-11-16 10:50:05.577418-07:00,1.19953,1.79,0.97,-1.43,0.45,14.61,975.83,25.6,25.0,0.0,0.000215064,0.000302789,0.00681835,32.8213883,-111.78698,323.825653,0.116070483,-0.29071583,-0.202588289,,,,,,,,,,,,,,2022-11-16 17:50:05.577418+00:00
2022-11-16 10:50:05.778195-07:00,1.400307,1.84,1.11,-1.32,0.63,14.65,975.85,25.46,23.0,0.0,0.000367147,0.000481076,0.00656117,32.8213883,-111.78698,323.826996,0.125958828,-0.29156394,-0.212787429,,,,,,,,,,,,,,2022-11-16 17:50:05.778195+00:00
2022-11-16 10:50:05.978005-07:00,1.600117,1.98,1.18,-1.48,0.57,14.54,975.84,25.67,23.0,0.0,0.000161511,0.000305031,0.00610685,32.8213883,-111.78698,323.825165,0.134399008,-0.292486,-0.208086253,,,,,,,,,,,,,,2022-11-16 17:50:05.978005+00:00
2022-11-16 10:50:06.178472-07:00,1.800584,1.87,0.58,-1.74,0.34,14.53,975.85,25.69,23.0,0.0,8.96725e-05,-0.000148388,0.00586523,32.8213883,-111.78698,323.826752,0.14704578,-0.290232354,-0.214456394,,,,,,,,,,,,,,2022-11-16 17:50:06.178472+00:00
2022-11-16 10:50:06.377826-07:00,1.999938,1.66,0.22,-1.64,0.11,14.62,975.85,25.55,25.0,0.0,0.000544106,0.000161221,0.00545537,32.8213883,-111.78698,323.827301,0.15862343,-0.286382883,-0.208830628,,,,,,,,,,,,,,2022-11-16 17:50:06.377826+00:00
2022-11-16 10:50:06.577876-07:00,2.199988,1.8,-0.0,-1.8,-0.01,14.78,975.86,25.31,25.0,0.0,0.000449301,-0.000246116,0.00653542,32.8213883,-111.78698,323.830841,0.169690208,-0.287782723,-0.204272261,,,,,,,,,,,,,,2022-11-16 17:50:06.577876+00:00
2022-11-16 10:50:06.778216-07:00,2.400328,1.33,0.2,-1.3,0.19,14.93,975.84,25.04,23.0,0.0,0.000134636,0.000213497,0.00695583,32.8213883,-111.78698,323.832214,0.183055246,-0.288484219,-0.21294834,,,,,,,,,,,,,,2022-11-16 17:50:06.778216+00:00
2022-11-16 10:50:06.978088-07:00,2.6002,1.59,1.05,-1.12,0.41,14.74,975.84,25.32,23.0,0.0,-0.000180394,-8.86578e-05,0.00610686,32.8213883,-111.78698,323.828461,0.196458305,-0.290417102,-0.197189511,,,,,,,,,,,,,,2022-11-16 17:50:06.978088+00:00
2022-11-16 10:50:07.177356-07:00,2.799468,1.56,1.1,-0.98,0.51,14.75,975.84,25.33,24.0,0.0,-0.000204414,-0.000316505,0.00497902,32.8213883,-111.78698,323.826019,0.206716107,-0.292432434,-0.202446441,2.02203,6.88849,3010.74,27.0704,11562.0,-0.196628,-1.0,24.0,-1307.0,83.0,,0.0,,2022-11-16 17:50:07.177356+00:00
2022-11-16 10:50:07.377952-07:00,3.000064,1.46,0.92,-0.97,0.58,15.04,975.84,24.86,26.0,0.0,-0.00013474,0.000106291,0.00552452,32.8213883,-111.78698,323.82959,0.218928621,-0.296036266,-0.19849007,,,,,,,,,,,,,,2022-11-16 17:50:07.377952+00:00
2022-11-16 10:50:07.577970-07:00,3.200082,1.38,0.78,-1.05,0.45,15.14,975.84,24.74,24.0,0.0,0.000234199,0.000175832,0.00582168,32.8213883,-111.78698,323.829346,0.229720106,-0.29161153,-0.200202617,,,,,,,,,,,,,,2022-11-16 17:50:07.577970+00:00
2022-11-16 10:50:07.777542-07:00,3.399654,1.26,0.89,-0.74,0.5,15.22,975.85,24.54,23.0,0.0,0.000253121,3.12903e-05,0.00604199,32.8213883,-111.78698,323.826782,0.241176283,-0.295013276,-0.203391908,,,,,,,,,,,,,,2022-11-16 17:50:07.777542+00:00
2022-11-16 10:50:07.978181-07:00,3.600293,1.45,0.92,-0.9,0.66,14.89,975.84,25.1,24.0,0.0,3.01698e-05,-0.00026412,0.00590851,32.8213883,-111.78698,323.829315,0.251736975,-0.294728375,-0.197337949,2.02269,6.93232,3023.35,27.0699,11554.0,-0.197396,-1.0,23.0,-1294.0,83.0,,0.0,,2022-11-16 17:50:07.978181+00:00
2022-11-16 10:50:08.177443-07:00,3.799555,1.62,0.93,-1.24,0.49,14.76,975.85,25.39,25.0,0.0,-0.000112249,-0.000475676,0.00590447,32.8213883,-111.78698,323.829224,0.261814569,-0.292608264,-0.205234363,2.02269,6.93232,3023.35,27.0699,11554.0,-0.197396,-1.0,23.0,-1294.0,83.0,,0.0,,2022-11-16 17:50:08.177443+00:00
2022-11-16 10:50:08.377794-07:00,3.999906,1.69,0.41,-1.58,0.45,14.88,975.84,25.13,25.0,0.0,-0.000638415,-5.83504e-05,0.00576232,32.8213883,-111.78698,323.828552,0.278666918,-0.292752661,-0.203675163,,,,,,,,,,,,,,2022-11-16 17:50:08.377794+00:00
2022-11-16 10:50:08.577838-07:00,4.19995,1.65,0.35,-1.53,0.51,15.15,975.85,24.75,23.0,0.0,-0.000831295,-0.000258897,0.00528203,32.8213883,-111.78698,323.83075,0.290216693,-0.292005971,-0.205200906,,,,,,,,,,,,,,2022-11-16 17:50:08.577838+00:00
2022-11-16 10:50:08.777435-07:00,4.399547,1.55,0.86,-1.08,0.7,15.12,975.85,24.78,24.0,0.0,-0.000399081,-0.000440226,0.0052722,32.8213883,-111.78698,323.828918,0.305076689,-0.292885012,-0.201351696,,,,,,,,,,,,,,2022-11-16 17:50:08.777435+00:00
2022-11-16 10:50:08.978203-07:00,4.600315,1.56,0.9,-1.12,0.61,15.05,975.84,24.84,25.0,0.0,-0.000572861,-0.000139687,0.00599528,32.8213883,-111.78698,323.831024,0.312237083,-0.290506175,-0.209076503,2.0214,7.58986,3028.61,27.0708,11507.0,-0.212985,-1.0,20.0,-1289.0,83.0,,0.0,,2022-11-16 17:50:08.978203+00:00
2022-11-16 10:50:09.178021-07:00,4.800133,1.46,0.82,-1.0,0.67,15.12,975.84,24.81,24.0,0.0,5.74688e-05,0.000225239,0.00631115,32.8213883,-111.78698,323.831329,0.327773481,-0.29245631,-0.203103211,,,,,,,,,,,,,,2022-11-16 17:50:09.178021+00:00
2022-11-16 10:50:09.377511-07:00,4.999623,1.46,0.96,-0.9,0.62,15.18,975.85,24.63,23.0,0.0,-5.45419e-06,0.000900804,0.00517102,32.8213883,-111.78698,323.827637,0.338605296,-0.291213168,-0.203213442,,,,,,,,,,,,,,2022-11-16 17:50:09.377511+00:00
2022-11-16 10:50:09.577747-07:00,5.199859,1.48,0.95,-0.88,0.72,15.3,975.85,24.48,23.0,0.0,-0.000280386,0.000280872,0.00504382,32.8213883,-111.78698,323.827972,0.350696255,-0.291840829,-0.198251172,,,,,,,,,,,,,,2022-11-16 17:50:09.577747+00:00
2022-11-16 10:50:09.778235-07:00,5.400347,1.56,1.24,-0.8,0.51,15.1,975.84,24.83,24.0,0.0,-5.03476e-05,0.000874461,0.00481478,32.8213883,-111.78698,323.826355,0.362419342,-0.292451126,-0.198044437,,,,,,,,,,,,,,2022-11-16 17:50:09.778235+00:00
2022-11-16 10:50:09.977758-07:00,5.59987,1.46,0.98,-0.9,0.6,15.15,975.84,24.79,25.0,0.0,0.000107035,-8.41724e-05,0.00508552,32.8213883,-111.78698,323.829346,0.376619902,-0.288593877,-0.195690276,2.02293,7.68256,3042.11,27.0712,11484.0,-0.201181,-1.0,21.0,-1299.0,83.0,,0.0,,2022-11-16 17:50:09.977758+00:00
2022-11-16 10:50:10.177432-07:00,5.799544,1.64,1.0,-1.14,0.63,14.98,975.84,25.07,24.0,0.0,0.00025576,9.38483e-05,0.00489352,32.8213883,-111.78698,323.828674,0.389832272,-0.285956193,-0.198282628,2.02293,7.68256,3042.11,27.0712,11484.0,-0.201181,-1.0,21.0,-1299.0,83.0,,0.0,,2022-11-16 17:50:10.177432+00:00
2022-11-16 10:50:10.378250-07:00,6.000362,1.54,0.9,-1.16,0.47,14.77,975.84,25.36,23.0,0.0,1.24121e-06,1.8915e-05,0.00480617,32.8213883,-111.78698,323.829742,0.396940012,-0.284212502,-0.195924585,,,,,,,,,,,,,,2022-11-16 17:50:10.378250+00:00
2022-11-16 10:50:10.578241-07:00,6.200353,1.38,0.89,-0.88,0.58,15.18,975.83,24.68,23.0,0.0,-0.000129133,-0.00079692,0.00558008,32.8213883,-111.78698,323.833069,0.409208869,-0.288970326,-0.194448669,,,,,,,,,,,,,,2022-11-16 17:50:10.578241+00:00
2022-11-16 10:50:10.777973-07:00,6.400085,1.34,0.73,-0.87,0.71,15.42,975.84,24.32,24.0,0.0,0.000381692,0.000924929,0.00645274,32.8213883,-111.78698,323.832275,0.419934094,-0.288166923,-0.198212832,,,,,,,,,,,,,,2022-11-16 17:50:10.777973+00:00
2022-11-16 10:50:10.978257-07:00,6.600369,1.64,0.86,-1.24,0.64,15.41,975.85,24.38,25.0,0.0,0.000208488,-0.000635841,0.00599624,32.8213883,-111.78698,323.831146,0.43221996,-0.286112053,-0.195959216,2.02277,7.51825,3051.73,27.0713,11552.0,-0.177162,-1.0,23.0,-1306.0,83.0,,0.0,,2022-11-16 17:50:10.978257+00:00
2022-11-16 10:50:11.177829-07:00,6.799941,1.56,0.74,-1.28,0.48,14.92,975.84,25.16,24.0,0.0,0.000578963,0.000200509,0.00496424,32.8213883,-111.78698,323.83255,0.442764303,-0.285758894,-0.199904208,,,,,,,,,,,,,,2022-11-16 17:50:11.177829+00:00
2022-11-16 10:50:11.378098-07:00,7.00021,1.43,0.53,-1.31,0.22,14.44,975.83,25.95,23.0,0.0,0.000203594,-0.000107581,0.00514504,32.8213882,-111.78698,323.832886,0.454394985,-0.285074027,-0.195566918,,,,,,,,,,,,,,2022-11-16 17:50:11.378098+00:00
2022-11-16 10:50:11.577505-07:00,7.199617,1.46,0.08,-1.4,0.39,15.46,975.84,24.34,24.0,0.0,1.92122e-05,-0.000625322,0.00415565,32.8213882,-111.78698,323.827911,0.463237551,-0.283342959,-0.198027975,,,,,,,,,,,,,,2022-11-16 17:50:11.577505+00:00
2022-11-16 10:50:11.778022-07:00,7.400134,1.54,0.43,-1.36,0.6,15.19,975.85,24.76,25.0,0.0,0.000225118,0.000678746,0.00413991,32.8213882,-111.78698,323.825714,0.472735856,-0.286760674,-0.202254861,,,,,,,,,,,,,,2022-11-16 17:50:11.778022+00:00
2022-11-16 10:50:11.977546-07:00,7.599658,1.77,0.84,-1.52,0.36,14.69,975.83,25.5,24.0,0.0,-0.000262345,-0.000327168,0.00425772,32.8213882,-111.78698,323.830322,0.482816076,-0.28666571,-0.191040985,,,,,,,,,,,,,,2022-11-16 17:50:11.977546+00:00
2022-11-16 10:50:12.178077-07:00,7.800189,2.14,1.09,-1.77,0.5,14.69,975.84,25.55,23.0,0.0,0.000123733,-0.000420895,0.00475719,32.8213881,-111.78698,323.831329,0.493529048,-0.285025856,-0.203785527,,,,,,,,,,,,,,2022-11-16 17:50:12.178077+00:00
2022-11-16 10:50:12.377639-07:00,7.999751,2.66,1.23,-2.28,0.59,14.77,975.83,25.43,22.0,0.0,0.000582162,9.33056e-05,0.00488487,32.8213881,-111.78698,323.835052,0.503557512,-0.28753574,-0.202701374,,,,,,,,,,,,,,2022-11-16 17:50:12.377639+00:00
2022-11-16 10:50:12.578113-07:00,8.200225,2.72,0.98,-2.5,0.42,14.87,975.84,25.28,24.0,0.0,0.000256675,-0.000108811,0.00459358,32.8213881,-111.78698,323.834625,0.518048804,-0.285631835,-0.197732381,,,,,,,,,,,,,,2022-11-16 17:50:12.578113+00:00
2022-11-16 10:50:12.777535-07:00,8.399647,2.56,1.34,-2.11,0.54,14.71,975.83,25.57,24.0,0.0,0.0002367,-0.00028865,0.00453684,32.821388,-111.78698,323.831238,0.528198902,-0.285831704,-0.197829952,,,,,,,,,,,,,,2022-11-16 17:50:12.777535+00:00
2022-11-16 10:50:12.978315-07:00,8.600427,2.52,1.55,-1.88,0.63,14.2,975.84,26.36,23.0,0.0,0.000164591,0.000162969,0.00404325,32.821388,-111.78698,323.829681,0.538882976,-0.288342274,-0.194762632,2.01858,7.60072,3087.66,27.0725,11495.0,-0.295917,-1.0,19.0,-1280.0,83.0,,0.0,,2022-11-16 17:50:12.978315+00:00
2022-11-16 10:50:13.177759-07:00,8.799871,2.28,1.5,-1.61,0.63,14.24,975.84,26.3,22.0,0.0,8.41663e-05,-0.000130561,0.00424837,32.821388,-111.78698,323.831177,0.545543318,-0.289070439,-0.192568848,,,,,,,,,,,,,,2022-11-16 17:50:13.177759+00:00
2022-11-16 10:50:13.377408-07:00,8.99952,1.82,1.07,-1.34,0.62,14.79,975.84,25.42,23.0,0.0,6.53244e-05,-0.00012324,0.00384541,32.8213879,-111.78698,323.82782,0.558850122,-0.289702077,-0.187397366,,,,,,,,,,,,,,2022-11-16 17:50:13.377408+00:00
2022-11-16 10:50:13.577460-07:00,9.199572,1.36,0.66,-1.02,0.62,15.13,975.84,24.89,25.0,0.0,-0.00023268,0.000360698,0.00358423,32.8213879,-111.78698,323.826263,0.569783098,-0.293091207,-0.186532596,,,,,,,,,,,,,,2022-11-16 17:50:13.577460+00:00
2022-11-16 10:50:13.777830-07:00,9.399942,1.33,0.84,-0.83,0.61,15.09,975.85,24.92,24.0,0.0,-0.00015626,-0.000242478,0.00250078,32.821388,-111.78698,323.82547,0.580922506,-0.293969875,-0.177530401,,,,,,,,,,,,,,2022-11-16 17:50:13.777830+00:00
2022-11-16 10:50:13.977757-07:00,9.599869,1.42,0.79,-1.02,0.6,15.02,975.83,25.07,22.0,0.0,-0.000718071,0.000844255,0.00324264,32.8213879,-111.78698,323.828094,0.593911041,-0.295132027,-0.181379832,2.02048,7.31362,3103.73,27.0733,11486.0,-0.307897,-1.0,20.0,-1308.0,83.0,,0.0,,2022-11-16 17:50:13.977757+00:00
2022-11-16 10:50:14.177714-07:00,9.799826,1.46,0.89,-0.91,0.7,15.11,975.84,24.93,23.0,0.0,-0.000313523,-0.000135408,0.00328525,32.8213879,-111.78698,323.830139,0.607912727,-0.292091456,-0.178868217,,,,,,,,,,,,,,2022-11-16 17:50:14.177714+00:00
2022-11-16 10:50:14.378248-07:00,10.00036,1.35,0.75,-0.9,0.67,15.44,975.84,24.44,24.0,0.0,3.61248e-05,0.00105627,0.00231627,32.8213878,-111.78698,323.82782,0.618490772,-0.29173451,-0.179892511,,,,,,,,,,,,,,2022-11-16 17:50:14.378248+00:00
2022-11-16 10:50:14.577446-07:00,10.199558,1.17,0.17,-1.02,0.54,15.64,975.84,24.13,24.0,0.0,0.000298297,0.000130454,0.0028232,32.8213878,-111.78698,323.82843,0.629053977,-0.289666669,-0.177104366,,,,,,,,,,,,,,2022-11-16 17:50:14.577446+00:00
2022-11-16 10:50:14.778104-07:00,10.400216,1.68,-0.19,-1.66,0.18,15.71,975.85,24.02,23.0,0.0,0.000295765,-4.46902e-05,0.00249686,32.8213877,-111.78698,323.827698,0.640094982,-0.289974007,-0.182090735,,,,,,,,,,,,,,2022-11-16 17:50:14.778104+00:00
2022-11-16 10:50:14.977335-07:00,10.599447,1.45,0.3,-1.37,0.35,15.33,975.85,24.61,22.0,0.0,-0.000313459,0.000781306,0.0023316,32.8213876,-111.78698,323.825226,0.649633746,-0.293406806,-0.183936923,,,,,,,,,,,,,,2022-11-16 17:50:14.977335+00:00
2022-11-16 10:50:15.177627-07:00,10.799739,1.48,0.87,-0.95,0.72,15.13,975.85,24.92,23.0,0.0,3.16864e-05,-0.000172315,0.00208808,32.8213876,-111.78698,323.828156,0.660081076,-0.296932125,-0.18037875,2.02337,7.35233,3094.0,27.0739,11552.0,-0.240842,-1.0,22.0,-1297.0,83.0,,0.0,,2022-11-16 17:50:15.177627+00:00
2022-11-16 10:50:15.377900-07:00,11.000012,1.66,0.98,-1.16,0.69,14.99,975.84,25.11,25.0,0.0,-0.000243698,0.00107624,0.00219409,32.8213876,-111.78698,323.823334,0.666640564,-0.295987177,-0.188860489,,,,,,,,,,,,,,2022-11-16 17:50:15.377900+00:00
2022-11-16 10:50:15.577484-07:00,11.199596,1.98,1.18,-1.45,0.65,14.92,975.84,25.27,24.0,0.0,-0.000493098,0.000243279,0.00117061,32.8213875,-111.78698,323.820007,0.678855889,-0.297658038,-0.182176393,,,,,,,,,,,,,,2022-11-16 17:50:15.577484+00:00
2022-11-16 10:50:15.778092-07:00,11.400204,1.72,1.16,-1.06,0.7,14.96,975.84,25.17,23.0,0.0,-0.000568764,0.00038831,0.00161395,32.8213875,-111.78698,323.821899,0.689680047,-0.297827305,-0.188523526,,,,,,,,,,,,,,2022-11-16 17:50:15.778092+00:00
2022-11-16 10:50:15.978047-07:00,11.600159,1.49,1.03,-0.87,0.62,15.03,975.84,25.08,23.0,0.0,-0.000265142,-4.14255e-05,0.00226759,32.8213875,-111.78698,323.824677,0.701572316,-0.30081227,-0.188894973,2.02421,7.465,3084.66,27.074,11550.0,-0.221786,-1.0,23.0,-1290.0,83.0,,0.0,,2022-11-16 17:50:15.978047+00:00
2022-11-16 10:50:16.177969-07:00,11.800081,1.38,1.03,-0.68,0.6,15.0,975.83,25.2,25.0,0.0,-0.000216731,0.000174809,0.00308303,32.8213874,-111.78698,323.831635,0.713596924,-0.298017918,-0.187165272,,,,,,,,,,,,,,2022-11-16 17:50:16.177969+00:00
2022-11-16 10:50:16.377751-07:00,11.999863,1.34,0.82,-0.86,0.61,15.05,975.85,25.1,25.0,0.0,-0.000192928,0.000443229,0.00297588,32.8213874,-111.78698,323.831299,0.725264588,-0.29491745,-0.192654533,,,,,,,,,,,,,,2022-11-16 17:50:16.377751+00:00
2022-11-16 10:50:16.577473-07:00,12.199585,1.5,0.39,-1.39,0.4,15.13,975.83,25.0,24.0,0.0,-0.000168517,5.43986e-05,0.00229723,32.8213873,-111.78698,323.82959,0.734294429,-0.292984582,-0.188315978,,,,,,,,,,,,,,2022-11-16 17:50:16.577473+00:00
2022-11-16 10:50:16.777511-07:00,12.399623,1.9,-0.3,-1.87,0.14,15.31,975.84,24.72,22.0,0.0,-0.000617009,-0.000461306,0.00235189,32.8213873,-111.78698,323.829285,0.743476902,-0.29244364,-0.198188166,,,,,,,,,,,,,,2022-11-16 17:50:16.777511+00:00
2022-11-16 10:50:16.977640-07:00,12.599752,2.31,-0.37,-2.28,0.06,15.25,975.83,24.78,24.0,0.0,-0.000333449,-7.90338e-05,0.00217258,32.8213873,-111.78698,323.831238,0.752482767,-0.291260374,-0.194031491,2.02295,7.0639,3103.42,27.0746,11484.0,-0.263336,-1.0,20.0,-1287.0,83.0,,0.0,,2022-11-16 17:50:16.977640+00:00
2022-11-16 10:50:17.177988-07:00,12.8001,2.08,-0.26,-2.06,0.11,15.41,975.84,24.52,26.0,0.0,-0.000201935,-8.20453e-05,0.00220447,32.8213872,-111.78698,323.828156,0.760420651,-0.290244598,-0.193668195,,,,,,,,,,,,,,2022-11-16 17:50:17.177988+00:00
2022-11-16 10:50:17.377476-07:00,12.999588,1.84,0.01,-1.83,0.2,15.22,975.84,24.9,24.0,0.0,-0.000280097,-0.000286805,0.00185329,32.8213872,-111.78698,323.827759,0.774198716,-0.289098608,-0.195672187,,,,,,,,,,,,,,2022-11-16 17:50:17.377476+00:00
2022-11-16 10:50:17.577449-07:00,13.199561,2.34,-0.21,-2.33,0.04,14.74,975.85,25.59,24.0,0.0,-0.000217745,0.000719159,0.00162753,32.8213871,-111.78698,323.82489,0.784681425,-0.28483085,-0.193482738,,,,,,,,,,,,,,2022-11-16 17:50:17.577449+00:00
2022-11-16 10:50:17.777914-07:00,13.400026,2.56,-0.34,-2.53,-0.1,13.95,975.86,26.97,23.0,0.0,7.0107e-05,-0.00023043,0.0016907,32.8213871,-111.78698,323.826385,0.791137604,-0.28747834,-0.193159463,,,,,,,,,,,,,,2022-11-16 17:50:17.777914+00:00
2022-11-16 10:50:17.978019-07:00,13.600131,2.61,-0.27,-2.59,-0.13,14.05,975.84,26.73,25.0,0.0,-2.56162e-06,0.000562414,0.00238273,32.821387,-111.78698,323.826874,0.799167054,-0.288749612,-0.188789438,,,,,,,,,,,,,,2022-11-16 17:50:17.978019+00:00
2022-11-16 10:50:18.177821-07:00,13.799933,2.39,-0.12,-2.38,-0.18,14.14,975.84,26.65,25.0,0.0,-4.18787e-05,0.000240998,0.00199832,32.821387,-111.78698,323.830505,0.807659521,-0.286531343,-0.18775598,2.02064,7.15011,3112.8,27.0746,11490.0,-0.189892,-1.0,20.0,-1309.0,83.0,,0.0,,2022-11-16 17:50:18.177821+00:00
2022-11-16 10:50:18.377590-07:00,13.999702,2.13,-0.11,-2.12,-0.05,14.41,975.85,26.18,23.0,0.0,0.000108325,7.57868e-06,0.00169862,32.821387,-111.78698,323.830872,0.820659365,-0.289577057,-0.18808954,,,,,,,,,,,,,,2022-11-16 17:50:18.377590+00:00
2022-11-16 10:50:18.578305-07:00,14.200417,1.85,-0.11,-1.85,0.11,15.17,975.85,24.93,23.0,0.0,-7.81521e-05,0.000691773,0.00218542,32.8213869,-111.78698,323.830444,0.829558438,-0.289968593,-0.182852612,,,,,,,,,,,,,,2022-11-16 17:50:18.578305+00:00
2022-11-16 10:50:18.778241-07:00,14.400353,1.96,-0.24,-1.93,0.25,15.37,975.84,24.61,24.0,0.0,-0.000109998,-0.000928328,0.00172452,32.8213869,-111.78698,323.828094,0.839438468,-0.290936105,-0.186527606,,,,,,,,,,,,,,2022-11-16 17:50:18.778241+00:00
2022-11-16 10:50:18.977862-07:00,14.599974,2.16,-0.15,-2.15,-0.08,14.18,975.85,26.62,25.0,0.0,-0.000240412,0.0011684,0.00150868,32.8213868,-111.78698,323.828094,0.850908669,-0.291950101,-0.187295326,,,,,,,,,,,,,,2022-11-16 17:50:18.977862+00:00
2022-11-16 10:50:19.177915-07:00,14.800027,2.17,-0.13,-2.16,-0.09,14.16,975.83,26.69,24.0,0.0,0.000165887,-0.000185753,0.00128892,32.8213868,-111.78698,323.827881,0.857927586,-0.291960798,-0.182371081,2.02478,7.43746,3116.21,27.0754,11551.0,-0.158475,-1.0,22.0,-1294.0,83.0,,0.0,,2022-11-16 17:50:19.177915+00:00
2022-11-16 10:50:19.377577-07:00,14.999689,1.99,-0.17,-1.98,-0.06,14.36,975.83,26.39,22.0,0.0,0.000278308,0.000678148,0.00143447,32.8213867,-111.78698,323.829437,0.868813342,-0.292793519,-0.192191572,,,,,,,,,,,,,,2022-11-16 17:50:19.377577+00:00
2022-11-16 10:50:19.577840-07:00,15.199952,2.58,-0.33,-2.55,-0.05,14.42,975.83,26.22,23.0,0.0,0.000116362,0.00103382,0.00233792,32.8213867,-111.78698,323.833221,0.880391662,-0.293295413,-0.192111463,,,,,,,,,,,,,,2022-11-16 17:50:19.577840+00:00
2022-11-16 10:50:19.778149-07:00,15.400261,2.54,-0.33,-2.52,0.07,14.61,975.85,25.92,24.0,0.0,0.000141301,-0.000470657,0.00282215,32.8213867,-111.78698,323.833191,0.890475272,-0.294334742,-0.193546945,,,,,,,,,,,,,,2022-11-16 17:50:19.778149+00:00
2022-11-16 10:50:19.978179-07:00,15.600291,2.55,-0.49,-2.51,0.03,14.48,975.83,26.19,25.0,0.0,-0.000169824,0.000981877,0.00302956,32.8213866,-111.78698,323.835236,0.900170821,-0.295683232,-0.196895958,,,,,,,,,,,,,,2022-11-16 17:50:19.978179+00:00
2022-11-16 10:50:20.177616-07:00,15.799728,2.77,-0.39,-2.74,-0.04,14.36,975.84,26.35,23.0,0.0,-0.000806316,8.17278e-05,0.00332837,32.8213866,-111.78698,323.836304,0.906959571,-0.298838885,-0.185778136,2.02223,7.09397,3102.33,27.0757,11503.0,-0.139189,-1.0,19.0,-1282.0,83.0,,0.0,,2022-11-16 17:50:20.177616+00:00
2022-11-16 10:50:20.377903-07:00,16.000015,2.72,-0.37,-2.69,-0.08,14.35,975.85,26.41,22.0,0.0,-0.000535764,0.000389129,0.002759,32.8213865,-111.78698,323.835632,0.916133447,-0.296000588,-0.188532518,,,,,,,,,,,,,,2022-11-16 17:50:20.377903+00:00
2022-11-16 10:50:20.577934-07:00,16.200046,2.37,-0.47,-2.31,0.13,14.53,975.84,26.11,24.0,0.0,-0.000396328,-0.000158676,0.00256653,32.8213865,-111.78698,323.833801,0.925504366,-0.293748218,-0.188937249,,,,,,,,,,,,,,2022-11-16 17:50:20.577934+00:00
2022-11-16 10:50:20.777500-07:00,16.399612,2.55,-0.37,-2.51,0.22,14.77,975.84,25.62,25.0,0.0,-0.000139368,0.000319551,0.0020498,32.8213865,-111.78698,323.83316,0.937786699,-0.296695914,-0.188088793,,,,,,,,,,,,,,2022-11-16 17:50:20.777500+00:00
2022-11-16 10:50:20.978227-07:00,16.600339,2.98,-0.62,-2.92,0.06,14.47,975.85,26.24,24.0,0.0,-0.000640402,0.000142945,0.00174396,32.8213864,-111.78698,323.83313,0.952091631,-0.296681239,-0.191007007,2.02516,7.38259,3085.27,27.0762,11503.0,-0.0653636,-1.0,19.0,-1282.0,83.0,,0.0,,2022-11-16 17:50:20.978227+00:00
2022-11-16 10:50:21.177504-07:00,16.799616,3.1,-0.28,-3.08,-0.13,14.47,975.84,26.16,22.0,0.0,-0.000419428,-0.000260092,0.00177628,32.8213864,-111.78698,323.833313,0.961736342,-0.294795903,-0.193582644,,,,,,,,,,,,,,2022-11-16 17:50:21.177504+00:00
2022-11-16 10:50:21.377776-07:00,16.999888,2.89,-0.4,-2.86,0.12,14.83,975.84,25.6,22.0,0.0,-0.00027637,0.000472291,0.00131121,32.8213863,-111.78698,323.831299,0.970236283,-0.297669048,-0.195400992,,,,,,,,,,,,,,2022-11-16 17:50:21.377776+00:00
2022-11-16 10:50:21.577976-07:00,17.200088,2.83,-0.48,-2.79,0.12,14.79,975.85,25.67,24.0,0.0,-0.000106684,-0.000120272,0.00162557,32.8213863,-111.78698,323.832977,0.979614524,-0.296971631,-0.190677222,,,,,,,,,,,,,,2022-11-16 17:50:21.577976+00:00
2022-11-16 10:50:21.777578-07:00,17.39969,3.27,-0.38,-3.25,-0.1,14.53,975.85,26.1,25.0,0.0,-0.000169314,0.000340979,0.00123281,32.8213862,-111.78698,323.831207,0.989292397,-0.295794143,-0.194850491,,,,,,,,,,,,,,2022-11-16 17:50:21.777578+00:00
2022-11-16 10:50:21.977848-07:00,17.59996,3.02,-0.34,-3.0,-0.06,14.49,975.83,26.21,24.0,0.0,-0.000178421,0.000738111,0.000640341,32.8213862,-111.78698,323.831085,0.997864698,-0.29973297,-0.19174706,2.02131,7.80165,3058.75,27.0767,11516.0,-0.160806,-1.0,20.0,-1307.0,83.0,,0.0,,2022-11-16 17:50:21.977848+00:00
2022-11-16 10:50:22.178020-07:00,17.800132,3.15,-0.19,-3.15,-0.02,14.46,975.83,26.26,23.0,0.0,-0.000586517,0.000700082,0.000991544,32.8213861,-111.78698,323.837158,1.00421505,-0.302503962,-0.192454255,,,,,,,,,,,,,,2022-11-16 17:50:22.178020+00:00
2022-11-16 10:50:22.377579-07:00,17.999691,3.41,-0.43,-3.38,-0.07,14.73,975.84,25.8,24.0,0.0,-0.00056887,0.000606244,0.00192636,32.8213861,-111.78698,323.841278,1.01047225,-0.300176839,-0.193386261,,,,,,,,,,,,,,2022-11-16 17:50:22.377579+00:00
2022-11-16 10:50:22.577629-07:00,18.199741,3.22,-0.11,-3.22,0.01,14.65,975.83,25.96,25.0,0.0,-0.000244749,0.000472693,0.000973872,32.8213861,-111.78698,323.837738,1.01750552,-0.297365972,-0.190256043,,,,,,,,,,,,,,2022-11-16 17:50:22.577629+00:00
2022-11-16 10:50:22.777727-07:00,18.399839,3.16,-0.38,-3.14,-0.05,14.92,975.84,25.5,24.0,0.0,-0.000427653,0.00119593,0.00137658,32.821386,-111.78698,323.837311,1.023689,-0.294090094,-0.196728444,,,,,,,,,,,,,,2022-11-16 17:50:22.777727+00:00
2022-11-16 10:50:22.977340-07:00,18.599452,2.84,-0.43,-2.81,0.12,15.27,975.84,24.92,23.0,0.0,5.98365e-05,0.000837733,0.00147579,32.821386,-111.78698,323.837921,1.03565554,-0.292082941,-0.189172731,,,,,,,,,,,,,,2022-11-16 17:50:22.977340+00:00
2022-11-16 10:50:23.177778-07:00,18.79989,2.97,-0.16,-2.96,-0.04,14.66,975.85,25.96,23.0,0.0,-3.68794e-05,0.000691916,0.00143264,32.8213859,-111.78698,323.83667,1.05044268,-0.292742672,-0.196168526,2.02309,7.59826,3039.93,27.0762,11546.0,-0.0974329,-1.0,23.0,-1302.0,83.0,,0.0,,2022-11-16 17:50:23.177778+00:00
2022-11-16 10:50:23.377780-07:00,18.999892,2.72,-0.01,-2.72,-0.04,14.21,975.84,26.69,24.0,0.0,5.12282e-05,0.000479863,0.000337238,32.8213859,-111.78698,323.826813,1.06472542,-0.292768989,-0.200999192,,,,,,,,,,,,,,2022-11-16 17:50:23.377780+00:00
2022-11-16 10:50:23.578180-07:00,19.200292,2.34,0.26,-2.3,0.36,14.3,975.85,26.52,24.0,0.0,-0.000123283,0.000802412,-0.000357339,32.8213858,-111.78698,323.8237,1.07109021,-0.292043019,-0.206289621,,,,,,,,,,,,,,2022-11-16 17:50:23.578180+00:00
2022-11-16 10:50:23.777413-07:00,19.399525,2.35,0.83,-2.11,0.61,14.27,975.84,26.62,23.0,0.0,-0.000131698,4.12937e-05,8.55417e-05,32.8213858,-111.78698,323.822601,1.07582568,-0.291483178,-0.210788664,,,,,,,,,,,,,,2022-11-16 17:50:23.777413+00:00
2022-11-16 10:50:23.977764-07:00,19.599876,2.25,0.6,-2.08,0.64,14.35,975.85,26.49,23.0,0.0,-0.000280461,0.000824682,0.000752709,32.8213858,-111.78698,323.822723,1.08593073,-0.29352905,-0.202396548,,,,,,,,,,,,,,2022-11-16 17:50:23.977764+00:00
2022-11-16 10:50:24.178068-07:00,19.80018,2.15,0.8,-1.9,0.6,14.36,975.84,26.42,24.0,0.0,-0.000274288,9.51731e-06,0.000836274,32.8213857,-111.78698,323.821411,1.09227022,-0.293142029,-0.192771447,2.02035,7.80984,3040.51,27.0772,11544.0,-0.133798,-1.0,21.0,-1289.0,83.0,,0.0,,2022-11-16 17:50:24.178068+00:00
2022-11-16 10:50:24.377987-07:00,20.000099,2.19,0.69,-2.05,0.37,14.34,975.84,26.54,25.0,0.0,-4.0137e-05,0.000217041,0.00129005,32.8213857,-111.786981,323.824127,1.10171074,-0.29117702,-0.195134586,,,,,,,,,,,,,,2022-11-16 17:50:24.377987+00:00
2022-11-16 10:50:24.577658-07:00,20.19977,2.8,-0.27,-2.79,-0.03,14.28,975.85,26.61,23.0,0.0,-1.904e-05,0.000895507,0.00232683,32.8213857,-111.786981,323.827545,1.11233329,-0.290922772,-0.191718872,,,,,,,,,,,,,,2022-11-16 17:50:24.577658+00:00
2022-11-16 10:50:24.778115-07:00,20.400227,2.79,-0.13,-2.79,-0.02,14.3,975.84,26.65,23.0,0.0,-0.00024952,0.000750584,0.002166,32.8213856,-111.78698,323.82547,1.12374714,-0.289349492,-0.187884113,,,,,,,,,,,,,,2022-11-16 17:50:24.778115+00:00
2022-11-16 10:50:24.978135-07:00,20.600247,2.7,-0.14,-2.69,-0.05,14.13,975.83,26.86,24.0,0.0,0.000284029,0.00153959,0.000890655,32.8213856,-111.78698,323.822235,1.13506243,-0.288783295,-0.189335243,2.02359,7.33486,3044.76,27.0769,11484.0,-0.184153,-1.0,20.0,-1278.0,83.0,,0.0,,2022-11-16 17:50:24.978135+00:00
2022-11-16 10:50:25.177796-07:00,20.799908,2.49,-0.01,-2.49,-0.01,13.94,975.85,27.2,26.0,0.0,0.000392769,0.000166855,0.000356976,32.8213856,-111.78698,323.824951,1.14201111,-0.287739325,-0.192481056,2.02359,7.33486,3044.76,27.0769,11484.0,-0.184153,-1.0,20.0,-1278.0,83.0,,0.0,,2022-11-16 17:50:25.177796+00:00
2022-11-16 10:50:25.377685-07:00,20.999797,2.36,0.0,-2.36,0.03,14.0,975.84,27.13,24.0,0.0,9.5252e-05,0.00108677,0.00133806,32.8213855,-111.78698,323.829193,1.15061566,-0.287638696,-0.200617327,,,,,,,,,,,,,,2022-11-16 17:50:25.377685+00:00
2022-11-16 10:50:25.577504-07:00,21.199616,2.29,0.19,-2.27,0.24,14.06,975.84,27.09,23.0,0.0,0.000269511,0.000673353,0.00205656,32.8213855,-111.786981,323.827515,1.15835662,-0.289739178,-0.197466683,,,,,,,,,,,,,,2022-11-16 17:50:25.577504+00:00
2022-11-16 10:50:25.777481-07:00,21.399593,2.58,-0.24,-2.57,0.07,14.62,975.84,26.06,24.0,0.0,1.29822e-05,-0.000208273,0.00127395,32.8213855,-111.786981,323.825928,1.16839879,-0.290318682,-0.201525334,,,,,,,,,,,,,,2022-11-16 17:50:25.777481+00:00
2022-11-16 10:50:25.977572-07:00,21.599684,2.42,-0.0,-2.41,0.14,14.34,975.84,26.58,25.0,0.0,-0.000110839,0.000713529,0.000839099,32.8213854,-111.786981,323.82431,1.17531377,-0.290915842,-0.206469248,2.0206,7.59127,3035.52,27.0787,11516.0,-0.210526,-1.0,19.0,-1288.0,83.0,,0.0,,2022-11-16 17:50:25.977572+00:00
2022-11-16 10:50:26.177764-07:00,21.799876,2.61,-0.0,-2.61,0.09,14.06,975.85,27.1,26.0,0.0,-0.000375259,-8.97205e-05,0.00126978,32.8213854,-111.786981,323.822693,1.18772721,-0.293751799,-0.204141459,,,,,,,,,,,,,,2022-11-16 17:50:26.177764+00:00
2022-11-16 10:50:26.378203-07:00,22.000315,2.66,-0.09,-2.66,-0.06,14.15,975.83,26.94,24.0,0.0,-0.000313135,0.000605835,0.00133713,32.8213854,-111.786981,323.82309,1.19922271,-0.294695547,-0.210458252,,,,,,,,,,,,,,2022-11-16 17:50:26.378203+00:00
2022-11-16 10:50:26.577660-07:00,22.199772,2.66,-0.18,-2.65,-0.03,14.2,975.84,26.81,23.0,0.0,0.000454019,-0.000116998,0.00110575,32.8213853,-111.786981,323.822357,1.20716712,-0.297280256,-0.197195074,,,,,,,,,,,,,,2022-11-16 17:50:26.577660+00:00
2022-11-16 10:50:26.777801-07:00,22.399913,2.36,-0.17,-2.35,0.07,14.32,975.83,26.56,24.0,0.0,-0.000609143,0.000354404,0.00143077,32.8213853,-111.786981,323.822998,1.21526404,-0.296451198,-0.201477389,,,,,,,,,,,,,,2022-11-16 17:50:26.777801+00:00
2022-11-16 10:50:26.977376-07:00,22.599488,2.19,-0.02,-2.19,0.11,14.27,975.83,26.7,25.0,0.0,-0.000404223,-2.78973e-05,0.00335385,32.8213853,-111.786981,323.828735,1.22333709,-0.297072202,-0.203064137,,,,,,,,,,,,,,2022-11-16 17:50:26.977376+00:00
2022-11-16 10:50:27.177650-07:00,22.799762,2.33,-0.13,-2.32,0.24,14.82,975.83,25.83,24.0,0.0,-0.000248581,-0.000665956,0.00271511,32.8213852,-111.786981,323.829071,1.23288636,-0.298430446,-0.209680352,,,,,,,,,,,,,,2022-11-16 17:50:27.177650+00:00
2022-11-16 10:50:27.377345-07:00,22.999457,2.3,0.23,-2.26,0.32,14.37,975.84,26.56,23.0,0.0,-0.00019662,0.000706404,0.00133698,32.8213852,-111.786981,323.827942,1.24030805,-0.296493745,-0.214599509,,,,,,,,,,,,,,2022-11-16 17:50:27.377345+00:00
2022-11-16 10:50:27.577899-07:00,23.200011,2.47,0.04,-2.47,0.07,14.15,975.84,26.94,23.0,0.0,-0.000159452,-0.000633595,0.000360684,32.8213851,-111.786981,323.8284,1.25166088,-0.292454475,-0.200104912,,,,,,,,,,,,,,2022-11-16 17:50:27.577899+00:00
2022-11-16 10:50:27.777387-07:00,23.399499,2.21,0.15,-2.19,0.18,14.37,975.83,26.56,24.0,0.0,-0.000260062,0.000335064,0.000843515,32.8213851,-111.786981,323.828247,1.26016743,-0.293485222,-0.215804499,,,,,,,,,,,,,,2022-11-16 17:50:27.777387+00:00
2022-11-16 10:50:27.978154-07:00,23.600266,2.12,0.21,-2.1,0.17,14.48,975.84,26.41,25.0,0.0,-0.000141821,-3.93293e-05,0.00109723,32.821385,-111.786981,323.832245,1.26558035,-0.292042558,-0.202034706,2.02095,7.20771,2997.86,27.0792,11477.0,-0.12456,-1.0,18.0,-1304.0,83.0,,0.0,,2022-11-16 17:50:27.978154+00:00
2022-11-16 10:50:28.178264-07:00,23.800376,1.96,0.18,-1.93,0.32,14.71,975.84,26.05,23.0,0.0,-5.3138e-05,0.000427369,0.00031804,32.821385,-111.786981,323.827698,1.27156194,-0.29241561,-0.207606749,,,,,,,,,,,,,,2022-11-16 17:50:28.178264+00:00
2022-11-16 10:50:28.378274-07:00,24.000386,1.81,0.11,-1.76,0.4,14.89,975.84,25.72,23.0,0.0,-0.000374789,0.000624055,0.000274201,32.821385,-111.786981,323.827271,1.27928222,-0.294924577,-0.208711219,,,,,,,,,,,,,,2022-11-16 17:50:28.378274+00:00
2022-11-16 10:50:28.577591-07:00,24.199703,2.14,0.06,-2.11,0.33,14.61,975.83,26.22,24.0,0.0,-0.000248389,0.000335115,-1.71224e-06,32.8213849,-111.786981,323.827576,1.28883123,-0.293160868,-0.199274639,,,,,,,,,,,,,,2022-11-16 17:50:28.577591+00:00
2022-11-16 10:50:28.778208-07:00,24.40032,2.58,-0.11,-2.58,0.06,14.66,975.85,26.22,26.0,0.0,-0.000218533,-0.000341743,7.26426e-05,32.8213849,-111.786981,323.826233,1.2989375,-0.294263137,-0.207640273,,,,,,,,,,,,,,2022-11-16 17:50:28.778208+00:00
2022-11-16 10:50:28.978280-07:00,24.600392,2.63,-0.19,-2.62,-0.01,14.64,975.84,26.1,24.0,0.0,-0.000110383,0.000602023,0.00157377,32.8213849,-111.786981,323.83194,1.30759201,-0.295580944,-0.199513937,,,,,,,,,,,,,,2022-11-16 17:50:28.978280+00:00
2022-11-16 10:50:29.177825-07:00,24.799937,2.37,0.07,-2.36,0.18,14.67,975.84,26.12,22.0,0.0,-0.000242631,0.000226672,0.000924797,32.8213848,-111.786981,323.830811,1.31222781,-0.297235979,-0.200261728,2.02329,7.48704,2993.79,27.0803,11543.0,-0.115567,-1.0,21.0,-1299.0,83.0,,0.0,,2022-11-16 17:50:29.177825+00:00
2022-11-16 10:50:29.377724-07:00,24.999836,2.09,0.65,-1.95,0.35,14.13,975.85,27.05,24.0,0.0,-0.000196426,0.00023973,0.00122911,32.8213848,-111.786981,323.831543,1.32099896,-0.296438762,-0.193507071,,,,,,,,,,,,,,2022-11-16 17:50:29.377724+00:00
2022-11-16 10:50:29.577467-07:00,25.199579,2.06,0.08,-2.05,0.16,14.5,975.83,26.37,25.0,0.0,-0.000507452,0.000212792,0.00105576,32.8213847,-111.786981,323.830444,1.32647461,-0.294739152,-0.193150738,,,,,,,,,,,,,,2022-11-16 17:50:29.577467+00:00
2022-11-16 10:50:29.777482-07:00,25.399594,2.25,0.93,-2.01,0.39,14.08,975.85,27.1,24.0,0.0,-9.14959e-05,-0.000586345,0.000409453,32.8213847,-111.786981,323.830536,1.33167141,-0.294687392,-0.199026336,,,,,,,,,,,,,,2022-11-16 17:50:29.777482+00:00
2022-11-16 10:50:29.977932-07:00,25.600044,2.03,1.12,-1.61,0.52,14.34,975.84,26.69,22.0,0.0,-0.000274304,0.000707207,-3.94757e-05,32.8213847,-111.786981,323.829254,1.3408928,-0.293413353,-0.196230011,2.02293,7.54382,2999.83,27.08,11543.0,-0.0998142,-1.0,21.0,-1299.0,83.0,,0.0,,2022-11-16 17:50:29.977932+00:00
2022-11-16 10:50:30.177844-07:00,25.799956,2.01,0.89,-1.76,0.4,14.28,975.85,26.87,22.0,0.0,0.000128965,-0.000559002,-0.000144464,32.8213846,-111.786981,323.828705,1.35109314,-0.292261761,-0.201188678,,,,,,,,,,,,,,2022-11-16 17:50:30.177844+00:00
2022-11-16 10:50:30.377838-07:00,25.99995,1.99,1.04,-1.66,0.32,14.27,975.84,26.76,24.0,0.0,4.88085e-06,0.000442565,0.000566417,32.8213846,-111.786981,323.831482,1.36254794,-0.296934982,-0.196648976,,,,,,,,,,,,,,2022-11-16 17:50:30.377838+00:00
2022-11-16 10:50:30.577375-07:00,26.199487,1.85,0.9,-1.58,0.33,14.48,975.84,26.48,25.0,0.0,-0.000472257,-8.16246e-05,0.00065053,32.8213846,-111.786981,323.828522,1.36922526,-0.293730522,-0.199696059,,,,,,,,,,,,,,2022-11-16 17:50:30.577375+00:00
2022-11-16 10:50:30.778314-07:00,26.400426,1.54,0.49,-1.44,0.19,14.66,975.83,26.19,24.0,0.0,-0.000367187,-0.000778624,-0.000542344,32.8213846,-111.786981,323.826324,1.37714719,-0.293603804,-0.194719903,,,,,,,,,,,,,,2022-11-16 17:50:30.778314+00:00
2022-11-16 10:50:30.977715-07:00,26.599827,1.63,-0.16,-1.61,0.24,14.98,975.84,25.64,22.0,0.0,-0.000539983,-0.000917222,-0.00019841,32.8213846,-111.786981,323.829254,1.38494487,-0.29522296,-0.203076223,,,,,,,,,,,,,,2022-11-16 17:50:30.977715+00:00
2022-11-16 10:50:31.177885-07:00,26.799997,1.3,0.03,-1.29,0.2,15.09,975.85,25.46,24.0,0.0,9.28747e-05,-0.000726953,-0.000370792,32.8213845,-111.786981,323.827667,1.39387611,-0.293206145,-0.19574289,2.02179,7.85689,3007.75,27.0804,11548.0,-0.105717,-1.0,18.0,-1297.0,83.0,,0.0,,2022-11-16 17:50:31.177885+00:00
2022-11-16 10:50:31.378102-07:00,27.000214,1.15,0.4,-1.0,0.4,15.17,975.84,25.28,25.0,0.0,0.000317638,-0.000914073,-7.66691e-06,32.8213845,-111.786981,323.82608,1.39999132,-0.294572289,-0.197151612,,,,,,,,,,,,,,2022-11-16 17:50:31.378102+00:00
2022-11-16 10:50:31.578050-07:00,27.200162,1.27,0.6,-0.96,0.57,15.14,975.84,25.38,24.0,0.0,-0.000501006,-0.000879193,-0.000379499,32.8213845,-111.786981,323.82428,1.40708158,-0.298419036,-0.19524946,,,,,,,,,,,,,,2022-11-16 17:50:31.578050+00:00
2022-11-16 10:50:31.777362-07:00,27.399474,1.31,0.31,-1.17,0.5,15.16,975.85,25.35,23.0,0.0,-0.00103581,-0.000535316,-0.000170122,32.8213844,-111.786982,323.829529,1.4167304,-0.296139741,-0.19406775,,,,,,,,,,,,,,2022-11-16 17:50:31.777362+00:00
2022-11-16 10:50:31.977481-07:00,27.599593,1.44,0.17,-1.35,0.48,15.14,975.84,25.42,23.0,0.0,-0.000805552,-0.000581039,-6.47023e-05,32.8213844,-111.786982,323.826569,1.42346393,-0.295342142,-0.197056242,2.02418,8.07482,3006.8,27.0808,11472.0,-0.0133187,-1.0,17.0,-1298.0,83.0,,0.0,,2022-11-16 17:50:31.977481+00:00
2022-11-16 10:50:32.178260-07:00,27.800372,1.46,0.58,-1.18,0.63,15.25,975.83,25.24,24.0,0.0,-0.00135086,-0.000560814,-0.000632735,32.8213843,-111.786982,323.826385,1.43288133,-0.297625438,-0.196562024,,,,,,,,,,,,,,2022-11-16 17:50:32.178260+00:00
2022-11-16 10:50:32.378282-07:00,28.000394,1.39,0.84,-0.93,0.59,15.18,975.84,25.31,25.0,0.0,-0.00104942,-0.000864927,-5.0823e-05,32.8213843,-111.786982,323.82489,1.441183,-0.295144802,-0.196550618,,,,,,,,,,,,,,2022-11-16 17:50:32.378282+00:00
2022-11-16 10:50:32.577908-07:00,28.20002,1.59,0.92,-1.12,0.66,15.4,975.83,24.99,24.0,0.0,-0.000629852,-0.000368093,-0.000556702,32.8213843,-111.786982,323.826843,1.45026601,-0.295673183,-0.190123347,,,,,,,,,,,,,,2022-11-16 17:50:32.577908+00:00
2022-11-16 10:50:32.778062-07:00,28.400174,2.04,1.07,-1.65,0.54,14.58,975.82,26.38,23.0,0.0,-0.00065456,0.000741674,-0.00013775,32.8213842,-111.786982,323.832092,1.4583104,-0.29336659,-0.187124397,,,,,,,,,,,,,,2022-11-16 17:50:32.778062+00:00
2022-11-16 10:50:32.977458-07:00,28.59957,2.1,1.07,-1.75,0.44,14.3,975.83,26.8,24.0,0.0,-5.83016e-05,-0.00037179,0.00088355,32.8213842,-111.786982,323.833496,1.46873925,-0.294045605,-0.181570064,,,,,,,,,,,,,,2022-11-16 17:50:32.977458+00:00
2022-11-16 10:50:33.178267-07:00,28.800379,1.93,1.2,-1.36,0.67,14.66,975.84,26.18,25.0,0.0,-5.11229e-05,0.000457125,0.000630624,32.8213842,-111.786982,323.833649,1.47726392,-0.293306458,-0.187431651,,,,,,,,,,,,,,2022-11-16 17:50:33.178267+00:00
2022-11-16 10:50:33.377569-07:00,28.999681,1.97,1.2,-1.39,0.71,14.55,975.83,26.37,24.0,0.0,-0.000323344,-0.000599454,0.00200015,32.8213842,-111.786982,323.837982,1.48281922,-0.292930462,-0.185402167,,,,,,,,,,,,,,2022-11-16 17:50:33.377569+00:00
2022-11-16 10:50:33.577421-07:00,29.199533,2.02,1.18,-1.5,0.64,14.43,975.82,26.6,23.0,0.0,-0.000366855,-0.0011566,0.00154448,32.8213842,-111.786982,323.837219,1.49087223,-0.29388575,-0.191611789,,,,,,,,,,,,,,2022-11-16 17:50:33.577421+00:00
2022-11-16 10:50:33.778028-07:00,29.40014,1.97,0.8,-1.68,0.64,14.77,975.84,26.06,23.0,0.0,-0.000867903,-0.000265221,0.000406215,32.8213841,-111.786982,323.835907,1.50121445,-0.292415849,-0.199250467,,,,,,,,,,,,,,2022-11-16 17:50:33.778028+00:00
2022-11-16 10:50:33.978203-07:00,29.600315,2.16,0.18,-2.07,0.56,15.02,975.85,25.64,26.0,0.0,-4.72472e-05,-0.000872559,0.000369221,32.8213841,-111.786982,323.834778,1.50993501,-0.292586742,-0.200748768,2.02357,8.37642,3049.98,27.0822,11511.0,0.0753002,-1.0,18.0,-1273.0,83.0,,0.0,,2022-11-16 17:50:33.978203+00:00
2022-11-16 10:50:34.177713-07:00,29.799825,2.55,0.93,-2.31,0.59,14.24,975.83,26.96,26.0,0.0,-4.42855e-05,0.000367131,0.00105249,32.8213841,-111.786982,323.836792,1.51432535,-0.294645258,-0.213128047,2.02357,8.37642,3049.98,27.0822,11511.0,0.0753002,-1.0,18.0,-1273.0,83.0,,0.0,,2022-11-16 17:50:34.177713+00:00
2022-11-16 10:50:34.377622-07:00,29.999734,2.5,0.72,-2.32,0.57,14.47,975.85,26.61,23.0,0.0,-0.000249867,-0.000125765,-0.000154079,32.821384,-111.786982,323.829163,1.52307189,-0.296769256,-0.198074053,,,,,,,,,,,,,,2022-11-16 17:50:34.377622+00:00
2022-11-16 10:50:34.578155-07:00,30.200267,2.36,0.39,-2.24,0.62,14.44,975.85,26.65,23.0,0.0,-0.00030473,0.000445015,-0.000755508,32.821384,-111.786982,323.825745,1.52472881,-0.293457225,-0.201524507,,,,,,,,,,,,,,2022-11-16 17:50:34.578155+00:00
2022-11-16 10:50:34.777352-07:00,30.399464,2.0,0.16,-1.92,0.53,14.98,975.84,25.67,24.0,0.0,-0.000237531,-0.000170035,-0.000282871,32.821384,-111.786982,323.828156,1.52969349,-0.292722397,-0.193815445,,,,,,,,,,,,,,2022-11-16 17:50:34.777352+00:00
2022-11-16 10:50:34.977772-07:00,30.599884,2.27,-0.28,-2.24,0.25,15.31,975.85,25.21,26.0,0.0,-9.41524e-05,-5.55978e-05,0.000976119,32.8213839,-111.786982,323.830933,1.5381597,-0.291730018,-0.199207658,,,,,,,,,,,,,,2022-11-16 17:50:34.977772+00:00
2022-11-16 10:50:35.177596-07:00,30.799708,2.47,-0.38,-2.44,0.13,15.13,975.84,25.43,24.0,0.0,0.000155704,0.000102921,0.00264172,32.8213839,-111.786982,323.832947,1.54119683,-0.289286228,-0.203518081,2.01886,8.71606,3061.9,27.0827,11464.0,-0.17571,-1.0,17.0,-1280.0,83.0,,0.0,,2022-11-16 17:50:35.177596+00:00
2022-11-16 10:50:35.377909-07:00,31.000021,2.84,-0.33,-2.82,-0.02,14.67,975.84,26.3,23.0,0.0,0.000207306,9.76521e-05,0.00155533,32.8213838,-111.786982,323.829529,1.55084937,-0.285618323,-0.212299854,,,,,,,,,,,,,,2022-11-16 17:50:35.377909+00:00
2022-11-16 10:50:35.577725-07:00,31.199837,2.8,-0.39,-2.77,-0.06,14.47,975.85,26.57,23.0,0.0,0.000497704,0.000589391,0.00121855,32.8213838,-111.786982,323.829895,1.55581398,-0.287684733,-0.207826837,,,,,,,,,,,,,,2022-11-16 17:50:35.577725+00:00
2022-11-16 10:50:35.777644-07:00,31.399756,2.39,-0.09,-2.39,-0.05,14.16,975.84,27.19,25.0,0.0,-0.000581328,1.44646e-06,0.00184526,32.8213838,-111.786982,323.829742,1.56735714,-0.288404617,-0.196469309,,,,,,,,,,,,,,2022-11-16 17:50:35.777644+00:00
2022-11-16 10:50:35.977414-07:00,31.599526,2.03,0.25,-2.0,0.21,14.44,975.83,26.65,25.0,0.0,-0.000513607,-0.000438502,0.00107118,32.8213838,-111.786982,323.829224,1.57204203,-0.289370237,-0.19255903,,,,,,,,,,,,,,2022-11-16 17:50:35.977414+00:00
2022-11-16 10:50:36.178149-07:00,31.800261,2.53,-0.05,-2.53,-0.06,14.4,975.83,26.77,23.0,0.0,-0.000205283,0.000139324,0.000534636,32.8213838,-111.786982,323.825653,1.58256412,-0.287189074,-0.191153297,,,,,,,,,,,,,,2022-11-16 17:50:36.178149+00:00
2022-11-16 10:50:36.377829-07:00,31.999941,2.68,-0.28,-2.66,-0.1,14.24,975.82,27.05,23.0,0.0,1.78822e-05,-7.16943e-05,0.000118025,32.8213838,-111.786982,323.825348,1.58913397,-0.286386078,-0.198328546,,,,,,,,,,,,,,2022-11-16 17:50:36.377829+00:00
2022-11-16 10:50:36.577515-07:00,32.199627,2.59,-0.41,-2.56,-0.11,14.26,975.83,27.06,25.0,0.0,9.56517e-05,0.000561423,0.000570605,32.8213838,-111.786982,323.827728,1.59664229,-0.283007679,-0.190331295,,,,,,,,,,,,,,2022-11-16 17:50:36.577515+00:00
2022-11-16 10:50:36.777410-07:00,32.399522,2.43,-0.18,-2.42,-0.12,14.38,975.84,26.8,26.0,0.0,-0.000231692,-0.000639749,0.000997964,32.8213838,-111.786982,323.829926,1.61576989,-0.279340856,-0.206369169,,,,,,,,,,,,,,2022-11-16 17:50:36.777410+00:00
2022-11-16 10:50:36.978075-07:00,32.600187,2.23,-0.27,-2.22,-0.03,14.49,975.83,26.62,26.0,0.0,0.000849809,0.0035605,-0.000338911,32.8213838,-111.786982,323.824371,1.55363455,-0.268385972,-0.220645044,,,,,,,,,,,,,,2022-11-16 17:50:36.978075+00:00
2022-11-16 10:50:37.177977-07:00,32.800089,2.35,-0.18,-2.34,-0.04,14.54,975.84,26.53,24.0,0.0,0.00354903,-0.0193215,0.00146625,32.8213838,-111.786982,323.830841,1.68267713,-0.313817587,-0.321035325,2.01979,7.79134,3075.57,27.0845,11543.0,-0.211551,-1.0,22.0,-1298.0,83.0,,0.0,,2022-11-16 17:50:37.177977+00:00
2022-11-16 10:50:37.377362-07:00,32.999474,2.53,-0.14,-2.53,-0.01,14.62,975.84,26.39,23.0,0.0,-0.00362119,0.0120992,0.00299353,32.8213837,-111.786982,323.832581,1.61730653,-0.286103769,-0.408460218,,,,,,,,,,,,,,2022-11-16 17:50:37.377362+00:00
2022-11-16 10:50:37.577990-07:00,33.200102,2.51,-0.17,-2.5,0.05,14.61,975.83,26.45,27.0,0.0,-0.000725718,-0.0115304,0.00400964,32.8213837,-111.786982,323.838806,1.58231481,-0.284224597,-0.211163033,,,,,,,,,,,,,,2022-11-16 17:50:37.577990+00:00
2022-11-16 10:50:37.777809-07:00,33.399921,2.28,0.23,-2.24,0.33,14.53,975.85,26.55,24.0,0.0,0.00276127,-0.0371695,0.00629486,32.8213837,-111.786982,323.840607,1.52151485,-0.33479443,-1.04292374,,,,,,,,,,,,,,2022-11-16 17:50:37.777809+00:00
2022-11-16 10:50:37.977500-07:00,33.599612,1.98,0.39,-1.85,0.57,14.67,975.83,26.31,23.0,0.0,0.00633584,0.0306143,0.0063313,32.8213836,-111.786982,323.845581,1.59259153,-0.353770911,-0.919906347,2.02209,7.74224,3057.37,27.0847,11515.0,-0.199303,-1.0,17.0,-1305.0,83.0,,0.0,,2022-11-16 17:50:37.977500+00:00
2022-11-16 10:50:38.177727-07:00,33.799839,2.02,0.18,-1.98,0.35,14.62,975.84,26.5,24.0,0.0,0.000436746,0.0256183,0.00803011,32.8213836,-111.786982,323.852112,1.63990798,-0.33708438,-0.155073565,,,,,,,,,,,,,,2022-11-16 17:50:38.177727+00:00
2022-11-16 10:50:38.378183-07:00,34.000295,1.95,0.15,-1.91,0.37,14.69,975.84,26.35,24.0,0.0,0.00376471,0.00805451,0.00823802,32.8213836,-111.786982,323.841675,1.67958492,-0.349324644,-0.0357000904,,,,,,,,,,,,,,2022-11-16 17:50:38.378183+00:00
2022-11-16 10:50:38.577875-07:00,34.199987,2.25,-0.28,-2.23,-0.02,14.83,975.83,26.08,27.0,0.0,0.00220987,0.0025959,-0.00361423,32.8213836,-111.786982,323.802094,1.61381207,-0.337468459,-0.747039542,,,,,,,,,,,,,,2022-11-16 17:50:38.577875+00:00
2022-11-16 10:50:38.778173-07:00,34.400285,1.69,0.56,-1.48,0.61,14.9,975.86,25.95,26.0,0.0,-0.0058321,0.0364743,-0.0100894,32.8213836,-111.786982,323.788055,1.64600764,-0.289466371,-0.178265223,,,,,,,,,,,,,,2022-11-16 17:50:38.778173+00:00
2022-11-16 10:50:38.977347-07:00,34.599459,2.0,0.58,-1.81,0.61,14.71,975.84,26.31,23.0,0.0,-0.00181257,0.0227976,-0.0104265,32.8213837,-111.786982,323.78952,1.57328803,-0.327674571,0.0934232755,,,,,,,,,,,,,,2022-11-16 17:50:38.977347+00:00
2022-11-16 10:50:39.177516-07:00,34.799628,1.84,0.17,-1.77,0.45,15.02,975.83,25.79,22.0,0.0,-0.0037509,0.00382183,0.00141418,32.8213836,-111.786982,323.824829,1.73937476,-0.305737438,-0.350941156,2.0261,7.67315,3041.4,27.086,11466.0,-0.170002,-1.0,16.0,-1308.0,83.0,,0.0,,2022-11-16 17:50:39.177516+00:00
2022-11-16 10:50:39.377690-07:00,34.999802,2.43,-0.17,-2.41,0.25,15.05,975.82,25.7,26.0,0.0,-0.0113465,0.00716931,0.0123888,32.8213836,-111.786982,323.842529,1.44141246,-0.273776003,-0.265816735,,,,,,,,,,,,,,2022-11-16 17:50:39.377690+00:00
2022-11-16 10:50:39.577564-07:00,35.199676,2.17,-0.01,-2.14,0.35,15.09,975.83,25.65,26.0,0.0,-0.00663673,-7.52923e-05,0.0222557,32.8213836,-111.786982,323.86499,1.63949338,-0.275364972,-0.519913344,,,,,,,,,,,,,,2022-11-16 17:50:39.577564+00:00
2022-11-16 10:50:39.778227-07:00,35.400339,2.46,-0.31,-2.43,0.23,15.25,975.82,25.45,24.0,0.0,-0.00365379,0.022727,0.0287261,32.8213835,-111.786982,323.867737,1.52269996,-0.346025163,-0.273288804,,,,,,,,,,,,,,2022-11-16 17:50:39.778227+00:00
2022-11-16 10:50:39.977924-07:00,35.600036,2.89,-0.43,-2.85,0.06,14.97,975.83,25.91,24.0,0.0,-0.0106136,0.0144076,0.0282644,32.8213835,-111.786982,323.87207,1.72190608,-0.291972968,-0.073433605,2.0228,7.52872,3037.49,27.0861,11466.0,-0.175236,-1.0,16.0,-1308.0,83.0,,0.0,,2022-11-16 17:50:39.977924+00:00
2022-11-16 10:50:40.178307-07:00,35.800419,2.13,0.08,-2.08,0.47,15.05,975.82,25.75,23.0,0.0,-0.00873139,-0.00371831,0.024003,32.8213835,-111.786982,323.865631,1.73919053,-0.371168574,-0.240017845,,,,,,,,,,,,,,2022-11-16 17:50:40.178307+00:00
2022-11-16 10:50:40.377437-07:00,35.999549,1.98,0.79,-1.69,0.67,14.62,975.83,26.47,26.0,0.0,-0.0126758,0.002919,0.0246634,32.8213835,-111.786982,323.876221,1.6193043,-0.360121292,-0.238227279,,,,,,,,,,,,,,2022-11-16 17:50:40.377437+00:00
2022-11-16 10:50:40.577714-07:00,36.199826,2.38,0.03,-2.37,0.24,14.4,975.83,26.87,26.0,0.0,-0.00474133,0.000731608,0.0186764,32.8213834,-111.786982,323.858551,1.5779233,-0.336944526,-0.159019454,,,,,,,,,,,,,,2022-11-16 17:50:40.577714+00:00
2022-11-16 10:50:40.777905-07:00,36.400017,2.47,-0.06,-2.45,0.31,14.79,975.83,26.22,23.0,0.0,-0.0081785,-0.00208992,0.018795,32.8213834,-111.786982,323.885406,1.63888477,-0.353675116,-0.247086087,,,,,,,,,,,,,,2022-11-16 17:50:40.777905+00:00
2022-11-16 10:50:40.977860-07:00,36.599972,2.54,0.07,-2.51,0.39,14.24,975.82,27.17,23.0,0.0,-0.00898383,0.00420039,0.0273121,32.8213834,-111.786982,323.912537,1.68672904,-0.324742399,-0.23212899,2.02139,7.65026,3050.62,27.0862,11504.0,-0.174293,-1.0,18.0,-1322.0,83.0,,0.0,,2022-11-16 17:50:40.977860+00:00
2022-11-16 10:50:41.177430-07:00,36.799542,2.88,-0.32,-2.86,0.17,14.31,975.82,27.04,25.0,0.0,-0.00114542,0.00350752,0.0288549,32.8213834,-111.786982,323.913544,1.64374706,-0.334104314,-0.194271363,2.02139,7.65026,3050.62,27.0862,11504.0,-0.174293,-1.0,18.0,-1322.0,83.0,,0.0,,2022-11-16 17:50:41.177430+00:00
2022-11-16 10:50:41.377368-07:00,36.99948,3.16,-0.51,-3.11,0.12,14.38,975.82,26.92,24.0,0.0,-0.006473,-0.0268521,0.0266525,32.8213834,-111.786982,323.909637,1.38489248,-0.309896113,-0.606956636,,,,,,,,,,,,,,2022-11-16 17:50:41.377368+00:00
2022-11-16 10:50:41.578052-07:00,37.200164,3.05,-0.64,-2.98,0.09,14.34,975.83,26.99,23.0,0.0,-0.01255,0.0333226,0.0236916,32.8213834,-111.786982,323.904724,1.85861478,-0.322556541,-0.571482652,,,,,,,,,,,,,,2022-11-16 17:50:41.578052+00:00
2022-11-16 10:50:41.777994-07:00,37.400106,2.91,-0.39,-2.87,0.29,14.66,975.83,26.43,24.0,0.0,-0.0056055,0.0189415,0.0134343,32.8213834,-111.786982,323.882935,1.57009085,-0.320493269,0.124917682,,,,,,,,,,,,,,2022-11-16 17:50:41.777994+00:00
2022-11-16 10:50:41.977702-07:00,37.599814,3.06,-0.49,-3.01,0.28,14.68,975.84,26.44,24.0,0.0,-0.00116873,0.0230077,0.00855611,32.8213834,-111.786982,323.883087,1.81770823,-0.391477978,0.47317287,,,,,,,,,,,,,,2022-11-16 17:50:41.977702+00:00
2022-11-16 10:50:42.177459-07:00,37.799571,3.29,-0.37,-3.26,0.17,14.13,975.82,27.4,26.0,0.0,-0.00334719,-0.026465,0.0104809,32.8213835,-111.786982,323.900513,1.60671292,-0.396806916,0.333308521,2.02395,8.05927,3071.69,27.0871,11513.0,-0.169348,-1.0,20.0,-1307.0,83.0,,0.0,,2022-11-16 17:50:42.177459+00:00
2022-11-16 10:50:42.377425-07:00,37.999537,2.64,-0.67,-2.53,0.32,15.0,975.82,25.93,23.0,0.0,-0.0120503,-0.0117805,0.0181288,32.8213834,-111.786982,323.924011,1.91626388,-0.423222266,-0.281718531,,,,,,,,,,,,,,2022-11-16 17:50:42.377425+00:00
2022-11-16 10:50:42.577685-07:00,38.199797,3.03,-1.12,-2.81,0.01,15.25,975.83,25.48,25.0,0.0,-0.00792883,0.020408,0.0224373,32.8213833,-111.786982,323.930267,1.64867273,-0.379479079,-0.124000474,,,,,,,,,,,,,,2022-11-16 17:50:42.577685+00:00
2022-11-16 10:50:42.777411-07:00,38.399523,2.89,-1.1,-2.67,-0.01,15.34,975.82,25.34,24.0,0.0,-0.013277,-0.0153262,0.0255542,32.8213834,-111.786983,323.93277,1.55281596,-0.333467608,0.472714698,,,,,,,,,,,,,,2022-11-16 17:50:42.777411+00:00
2022-11-16 10:50:42.978058-07:00,38.60017,3.21,-0.96,-3.06,-0.09,14.23,975.82,27.22,23.0,0.0,-0.0118714,-0.0279908,0.0322437,32.8213834,-111.786983,323.958008,1.68454889,-0.364175717,-0.449356616,,,,,,,,,,,,,,2022-11-16 17:50:42.978058+00:00
2022-11-16 10:50:43.177440-07:00,38.799552,3.11,-1.37,-2.78,-0.33,14.02,975.81,27.6,26.0,0.0,-0.0122491,0.0145475,0.031512,32.8213832,-111.786983,323.95636,1.7747263,-0.359476572,-0.553928006,2.02373,7.52148,3063.79,27.0877,11475.0,-0.197717,-1.0,18.0,-1328.0,83.0,,0.0,,2022-11-16 17:50:43.177440+00:00
2022-11-16 10:50:43.378091-07:00,39.000203,3.01,-1.67,-2.5,-0.23,14.27,975.81,27.14,24.0,0.0,-0.00831618,0.0255628,0.0336563,32.8213831,-111.786983,323.968353,1.73490449,-0.350965312,0.148942901,,,,,,,,,,,,,,2022-11-16 17:50:43.378091+00:00
2022-11-16 10:50:43.578162-07:00,39.200274,1.82,-0.85,-1.61,-0.01,14.51,975.81,26.77,22.0,0.0,-0.00471506,-0.00590982,0.0297461,32.8213832,-111.786983,323.955597,1.69487976,-0.365377108,0.099520622,,,,,,,,,,,,,,2022-11-16 17:50:43.578162+00:00
2022-11-16 10:50:43.777938-07:00,39.40005,0.73,0.32,-0.65,0.12,14.72,975.79,26.37,24.0,0.0,-0.00466899,-0.0147792,0.0231855,32.8213831,-111.786983,323.947327,1.70239994,-0.353754637,-0.521975826,,,,,,,,,,,,,,2022-11-16 17:50:43.777938+00:00
2022-11-16 10:50:43.977703-07:00,39.599815,1.65,1.23,-1.06,0.27,14.31,975.81,27.12,27.0,0.0,-0.0059248,0.0364603,0.0122925,32.8213831,-111.786983,323.9198,1.79371977,-0.363852324,-0.301599308,2.02338,8.8652,3062.08,27.0883,11531.0,-0.156351,-1.0,22.0,-1302.0,83.0,,0.0,,2022-11-16 17:50:43.977703+00:00
2022-11-16 10:50:44.177416-07:00,39.799528,2.08,0.57,-2.0,0.17,13.81,975.81,28.01,23.0,0.0,-0.00624499,0.018697,0.000379938,32.8213831,-111.786983,323.890778,1.6866238,-0.364309388,0.311586015,2.02338,8.8652,3062.08,27.0883,11531.0,-0.156351,-1.0,22.0,-1302.0,83.0,,0.0,,2022-11-16 17:50:44.177416+00:00
2022-11-16 10:50:44.378105-07:00,40.000217,0.59,-0.33,-0.49,-0.1,14.25,975.81,27.26,21.0,0.0,-0.0116562,0.00164655,-0.00925718,32.8213832,-111.786982,323.878967,1.62171992,-0.317361833,0.19422159,,,,,,,,,,,,,,2022-11-16 17:50:44.378105+00:00
2022-11-16 10:50:44.577788-07:00,40.1999,1.33,0.21,-1.32,0.04,13.94,975.8,27.78,23.0,0.0,-0.0125331,0.00704229,-0.00993649,32.8213832,-111.786983,323.871063,1.89768008,-0.307194379,0.424226605,,,,,,,,,,,,,,2022-11-16 17:50:44.577788+00:00
2022-11-16 10:50:44.777937-07:00,40.400049,2.06,-1.47,-1.43,-0.2,14.09,975.79,27.51,24.0,0.0,-0.0118332,-0.00102735,-0.00627111,32.8213831,-111.786983,323.889923,1.76856976,-0.317387393,0.260771066,,,,,,,,,,,,,,2022-11-16 17:50:44.777937+00:00
2022-11-16 10:50:44.977726-07:00,40.599838,1.6,0.26,-1.58,0.01,14.08,975.82,27.48,23.0,0.0,-0.012552,0.0173546,-0.00010653,32.8213831,-111.786983,323.877411,1.79685908,-0.315304272,0.203685608,,,,,,,,,,,,,,2022-11-16 17:50:44.977726+00:00
2022-11-16 10:50:45.177997-07:00,40.800109,1.36,0.13,-1.36,-0.09,13.94,975.8,27.73,23.0,0.0,-0.00735208,-0.00936788,-0.000911847,32.8213831,-111.786983,323.87442,1.73523627,-0.361567638,0.201312316,2.02027,8.8885,3054.1,27.0887,11543.0,-0.231933,-1.0,21.0,-1294.0,83.0,,0.0,,2022-11-16 17:50:45.177997+00:00
2022-11-16 10:50:45.377548-07:00,40.99966,1.26,0.21,-1.24,-0.01,14.36,975.82,27.07,22.0,0.0,-0.012978,-0.00835338,0.00490811,32.8213831,-111.786983,323.889038,1.69181002,-0.367361188,-0.167240367,,,,,,,,,,,,,,2022-11-16 17:50:45.377548+00:00
2022-11-16 10:50:45.577292-07:00,41.199404,1.11,0.69,-0.83,0.23,14.48,975.82,26.81,25.0,0.0,-0.0135899,0.00678627,0.00365293,32.821383,-111.786983,323.876984,1.69478679,-0.341972672,-0.101730318,,,,,,,,,,,,,,2022-11-16 17:50:45.577292+00:00
2022-11-16 10:50:45.777863-07:00,41.399975,0.84,0.56,-0.54,0.32,15.01,975.81,25.92,26.0,0.0,-0.00899609,0.003982,0.00332888,32.821383,-111.786983,323.878326,1.76020042,-0.372025201,0.00177421042,,,,,,,,,,,,,,2022-11-16 17:50:45.777863+00:00
2022-11-16 10:50:45.978213-07:00,41.600325,2.13,-0.26,-2.1,0.18,14.33,975.82,27.19,24.0,0.0,-0.012441,0.014479,0.00376471,32.821383,-111.786983,323.872955,1.46960576,-0.378076617,0.120247436,2.02115,8.2411,3044.75,27.0899,11471.0,-0.234212,-1.0,17.0,-1284.0,83.0,,0.0,,2022-11-16 17:50:45.978213+00:00
2022-11-16 10:50:46.178169-07:00,41.800281,3.35,-0.54,-3.3,-0.13,14.03,975.83,27.68,23.0,0.0,-0.0125819,-0.0055916,0.00122613,32.821383,-111.786983,323.881866,1.83171848,-0.358437908,0.24197882,,,,,,,,,,,,,,2022-11-16 17:50:46.178169+00:00
2022-11-16 10:50:46.377940-07:00,42.000052,3.18,-0.48,-3.15,-0.05,14.04,975.83,27.59,22.0,0.0,-0.0132985,-0.0114394,0.00419322,32.821383,-111.786983,323.886444,1.81009206,-0.357636403,-0.27921609,,,,,,,,,,,,,,2022-11-16 17:50:46.377940+00:00
2022-11-16 10:50:46.578023-07:00,42.200135,3.03,-0.56,-2.98,0.02,13.84,975.84,27.99,26.0,0.0,-0.0147538,0.00588962,0.00829221,32.8213829,-111.786983,323.918762,1.81556069,-0.326529504,-0.463622239,,,,,,,,,,,,,,2022-11-16 17:50:46.578023+00:00
2022-11-16 10:50:46.777722-07:00,42.399834,2.78,-0.54,-2.72,0.24,13.98,975.83,27.74,27.0,0.0,-0.00100346,0.0145377,0.0117592,32.8213829,-111.786983,323.91333,1.81742264,-0.311537707,-0.111930943,,,,,,,,,,,,,,2022-11-16 17:50:46.777722+00:00
2022-11-16 10:50:46.977487-07:00,42.599599,2.98,-0.59,-2.92,0.12,13.91,975.83,27.9,23.0,0.0,-0.0173663,-0.00553762,0.0109501,32.8213829,-111.786983,323.917664,1.80626433,-0.282940798,-0.101808239,,,,,,,,,,,,,,2022-11-16 17:50:46.977487+00:00
2022-11-16 10:50:47.177680-07:00,42.799792,2.9,-0.63,-2.82,0.19,14.08,975.83,27.57,22.0,0.0,-0.00455295,-0.00309922,0.006791,32.8213829,-111.786983,323.900208,1.87934464,-0.323203411,-0.671760119,2.02143,8.4641,3035.06,27.0905,11486.0,-0.238967,-1.0,20.0,-1295.0,83.0,,0.0,,2022-11-16 17:50:47.177680+00:00
2022-11-16 10:50:47.377475-07:00,42.999587,3.05,-0.72,-2.96,0.23,14.2,975.84,27.38,26.0,0.0,-0.0015463,0.0308337,0.00252393,32.8213828,-111.786983,323.901123,1.72756251,-0.397230565,-0.197496231,,,,,,,,,,,,,,2022-11-16 17:50:47.377475+00:00
2022-11-16 10:50:47.578182-07:00,43.200294,2.85,-0.56,-2.78,0.33,14.29,975.82,27.22,26.0,0.0,-0.0160463,0.00833767,0.00245765,32.8213829,-111.786983,323.90863,1.65928634,-0.346317305,0.188796322,,,,,,,,,,,,,,2022-11-16 17:50:47.578182+00:00
2022-11-16 10:50:47.778143-07:00,43.400255,2.78,-0.64,-2.7,0.03,14.09,975.83,27.58,23.0,0.0,-0.0160391,-0.0158219,0.00510379,32.8213828,-111.786983,323.915741,1.69400047,-0.345635976,-0.234266616,,,,,,,,,,,,,,2022-11-16 17:50:47.778143+00:00
2022-11-16 10:50:47.977472-07:00,43.599584,2.88,-0.66,-2.8,0.02,13.99,975.84,27.8,23.0,0.0,-0.0138571,0.00868268,0.00105196,32.8213828,-111.786983,323.905426,1.79046536,-0.368526257,-0.312575099,,,,,,,,,,,,,,2022-11-16 17:50:47.977472+00:00
2022-11-16 10:50:48.177354-07:00,43.799466,2.94,-0.54,-2.89,0.12,14.13,975.84,27.59,22.0,0.0,-0.0113269,0.00141482,0.00203167,32.8213827,-111.786983,323.918365,1.68985057,-0.37123307,0.113345276,2.02009,7.94282,3009.07,27.0906,11539.0,-0.30233,-1.0,21.0,-1308.0,83.0,,0.0,,2022-11-16 17:50:48.177354+00:00
2022-11-16 10:50:48.378268-07:00,44.00038,3.06,-0.46,-3.02,-0.03,14.1,975.83,27.64,24.0,0.0,-0.00929738,-0.0295185,0.00132402,32.8213827,-111.786983,323.904175,1.81706467,-0.389485084,-0.259655119,,,,,,,,,,,,,,2022-11-16 17:50:48.378268+00:00
2022-11-16 10:50:48.578102-07:00,44.200214,2.88,-0.38,-2.85,0.03,13.83,975.84,27.28,25.0,0.0,-0.0179839,0.00895374,-0.00280789,32.8213826,-111.786983,323.889832,1.7799919,-0.36747891,-0.433017492,,,,,,,,,,,,,,2022-11-16 17:50:48.578102+00:00
2022-11-16 10:50:48.777359-07:00,44.399471,2.4,-0.38,-2.36,0.29,14.01,975.84,27.77,23.0,0.0,-0.0135148,-0.0378671,-0.00756789,32.8213826,-111.786983,323.874268,1.88586004,-0.330425409,-0.421396962,,,,,,,,,,,,,,2022-11-16 17:50:48.777359+00:00
2022-11-16 10:50:48.978225-07:00,44.600337,2.41,-0.35,-2.38,0.08,13.92,975.84,27.92,23.0,0.0,-0.00598033,-0.0103333,-0.010111,32.8213825,-111.786983,323.866669,1.66555731,-0.381273341,-0.928730712,2.02121,8.49095,2992.09,27.0911,11540.0,-0.286585,-1.0,21.0,-1298.0,83.0,,0.0,,2022-11-16 17:50:48.978225+00:00
2022-11-16 10:50:49.178276-07:00,44.800388,2.83,-0.37,-2.8,-0.13,13.5,975.84,28.65,28.0,0.0,-0.00991731,0.00793881,-0.010287,32.8213825,-111.786983,323.866547,1.76729283,-0.34588174,-0.77540985,,,,,,,,,,,,,,2022-11-16 17:50:49.178276+00:00
2022-11-16 10:50:49.378058-07:00,45.00017,2.61,-0.49,-2.56,-0.02,13.75,975.85,28.16,27.0,0.0,-0.0166457,-0.00403101,-0.0107602,32.8213825,-111.786983,323.860657,1.79402668,-0.311114909,-0.597662369,,,,,,,,,,,,,,2022-11-16 17:50:49.378058+00:00
2022-11-16 10:50:49.577973-07:00,45.200085,2.56,-0.52,-2.51,0.01,13.79,975.83,28.13,24.0,0.0,-0.00903406,0.0243386,-0.0089216,32.8213825,-111.786983,323.860199,1.70394493,-0.352323062,-0.532628438,,,,,,,,,,,,,,2022-11-16 17:50:49.577973+00:00
2022-11-16 10:50:49.777698-07:00,45.39981,2.65,-0.55,-2.59,-0.0,13.95,975.85,27.87,24.0,0.0,-0.0088018,0.0225985,-0.0107686,32.8213825,-111.786983,323.84024,1.68443437,-0.377890521,-0.0554115291,,,,,,,,,,,,,,2022-11-16 17:50:49.777698+00:00
2022-11-16 10:50:49.978168-07:00,45.60028,2.47,-0.6,-2.4,0.1,14.21,975.84,26.73,24.0,0.0,-0.0136798,-0.00432296,-0.0160882,32.8213825,-111.786983,323.831696,1.73703963,-0.351986213,-0.14334545,2.02117,8.23566,2970.72,27.0927,11490.0,-0.307376,-1.0,22.0,-1294.0,83.0,,0.0,,2022-11-16 17:50:49.978168+00:00
2022-11-16 10:50:50.177395-07:00,45.799507,2.24,-0.41,-2.2,0.15,14.34,975.83,27.14,25.0,0.0,-0.0134461,0.00168764,-0.0166676,32.8213825,-111.786983,323.816284,1.78154329,-0.364337698,-0.397788877,2.02117,8.23566,2970.72,27.0927,11490.0,-0.307376,-1.0,22.0,-1294.0,83.0,,0.0,,2022-11-16 17:50:50.177395+00:00
2022-11-16 10:50:50.378092-07:00,46.000204,2.17,-0.44,-2.12,0.13,14.32,975.84,27.26,24.0,0.0,-0.0213827,0.0141177,-0.0226584,32.8213824,-111.786983,323.797607,1.76123211,-0.370814234,-0.158693605,,,,,,,,,,,,,,2022-11-16 17:50:50.378092+00:00
2022-11-16 10:50:50.578233-07:00,46.200345,1.99,-0.28,-1.97,0.13,14.32,975.84,26.47,22.0,0.0,-0.0189663,-0.000183152,-0.0218773,32.8213825,-111.786983,323.787384,1.68634881,-0.342220249,-0.0329193892,,,,,,,,,,,,,,2022-11-16 17:50:50.578233+00:00
