Timestamp,Seconds,S,Um,Vm,Wm,T,P,H,MD,Sts,Vx,Vy,Vz,Lat,Lon,Alt,Yaw,Roll,Pitch,CH4,C2H6,H20,T_a,Batt,R,C2C1,Power,Current,SOC,Lat_a,Lon_a,TS,Timestamp_UTC,Rho,Rho_err,Sc,V,U,W,WD,V_err,U_err,Sc_avg,WD_avg,V_avg,U_avg,W_avg,U_err_avg,V_err_avg,Nx,Ny,cross_wind,cross_wind_err,CH4_sub,CH4_res,CH4_adj,CH4_adj_err,BG_Samples_CH4,C2H6_sub,C2H6_res,C2H6_adj,C2H6_adj_err,BG_Samples_C2H6
2022-11-16 11:53:49.578129-07:00,0.0,4.99,-1.32,-4.81,0.11,15.16,975.11,22.59,23.0,0.0,-0.000352702,0.00822172,0.0186537,32.8213573,-111.78698,331.72445100000004,-5.76202792,-0.481752094,-0.0112201057,,,,,,,,,,,,,,2022-11-16 18:53:49.578129+00:00,1.1782264114706513,0.014587750430059802,4.97978724722604,-4.909999530201121,-0.8307741215636554,0.1286537,369.6035152523981,0.3110886314190271,0.30819000145108244,,,,,,,,0.9990811141522731,0.042859390385919745,,,,,,,,,,,,
2022-11-16 11:53:49.777560-07:00,0.199431,4.82,-0.71,-4.77,-0.01,15.31,975.1,22.41,23.0,0.0,-0.00222518,0.0202006,0.0172842,32.8213573,-111.78698,331.72265000000004,-5.74518437,-0.484639825,0.017097111,,,,,,,,,,,,,,2022-11-16 18:53:49.777560+00:00,1.1776016537420138,0.014577738217813316,4.80248005404245,-4.796913531110655,-0.2311606465709075,0.007284199999999999,362.7589180752843,0.3098697333151333,0.30420937365604617,,,,,,,,0.993987690941173,0.10949187302003333,,,,,,,,,,,,
2022-11-16 11:53:49.977348-07:00,0.399219,5.22,-0.61,-5.18,-0.13,14.9,975.1,23.79,22.0,0.0,-0.00375556,0.040177,0.0345819,32.8213573,-111.78698,331.784845,-5.72333325,-0.482657079,0.0176757411,,,,,,,,,,,,,,2022-11-16 18:53:49.977348+00:00,1.1792778095414733,0.014605009050002497,5.175689350660687,-5.174833140281422,-0.09413939020179564,-0.0954181,361.04219686092245,0.3228105039483079,0.32023834765446996,,,,,,,,0.995659600495102,0.0930696510250992,,,,,,,,,,,,
2022-11-16 11:53:50.177643-07:00,0.599514,5.37,-0.26,-5.36,-0.2,14.6,975.11,24.25,21.0,0.0,-0.00300235,0.0530854,0.0387523,32.8213574,-111.78698,331.769464,-5.70306094,-0.486556735,0.0747237048,,,,,,,,,,,,,,2022-11-16 18:53:50.177643+00:00,1.180519397710177,0.014625075595481464,5.313132822351358,-5.306220963507692,0.2709233736295395,-0.1612477,357.0771480598714,0.3286798132253258,0.3261823548491155,,,,,,,,0.9984044805695732,0.05646674400565969,,,,,,,,,,,,
2022-11-16 11:53:50.378275-07:00,0.800146,5.37,-0.46,-5.34,-0.09,14.68,975.09,23.34,22.0,0.0,-0.00455462,0.064765,0.0274253,32.8213575,-111.78698,331.74093000000005,-5.68279844,-0.483076536,0.0390660571,,,,,,,,,,,,,,2022-11-16 18:53:50.378275+00:00,1.1801670756548628,0.014619637332027716,5.294957730333424,-5.294540395778813,0.06647829332960244,-0.0625747,359.28063151700616,0.32805931985809356,0.3262248268990108,,,,,,,,0.997536308640582,0.07015207013140494,,,,,,,,,,,,
2022-11-16 11:53:50.577592-07:00,0.999463,5.57,-0.55,-5.54,-0.24,14.7,975.1,23.27,23.0,0.0,-0.00507647,0.0781619,0.0176159,32.8213576,-111.78698,331.737634,-5.66402828,-0.476186271,0.0801768154,,,,,,,,,,,,,,2022-11-16 18:53:50.577592+00:00,1.1800971792198067,0.014618349148059555,5.489075453273101,-5.489072575359403,-0.00562086849165766,-0.2223841,360.058671464948,0.3346856109136366,0.3348554866803719,,,,,,,,0.9978975188522691,0.06481158745537163,,,,,,,,,,,,
2022-11-16 11:53:50.777561-07:00,1.199432,4.95,-0.91,-4.87,-0.06,15.2,975.1,23.31,22.0,0.0,-0.00506988,0.0812455,0.00734208,32.8213576,-111.78698,331.707605,-5.64391635,-0.484148657,0.103102495,,,,,,,,,,,,,,2022-11-16 18:53:50.777561+00:00,1.178050886209195,0.014585044728351143,4.873798878243592,-4.854640843568615,-0.4317149354885797,-0.05265792,365.0818479849785,0.3130751116838059,0.3091567872616783,,,,,,,,0.9980586643415519,0.06228083599918571,,,,,,,,,,,,
2022-11-16 11:53:50.978336-07:00,1.400207,4.91,-1.18,-4.76,0.26,15.79,975.1,21.7,22.0,0.0,-0.00631656,0.089121,-0.00310368,32.8213577,-111.78698,331.70952800000003,-5.62452629,-0.478489439,0.0759786531,2.0251,-5.95019,2892.42,29.2744,11515.0,0.368719,-1.0,23.0,-1317.0,82.0,,0.0,,2022-11-16 18:53:50.978336+00:00,1.175645369413793,0.014545941204555055,4.81684161816884,-4.76361267279497,-0.7141130709562505,0.25689632,368.5257211610064,0.3096727088573692,0.30589147762397306,4.784272666950844,366.5204414661507,-4.746036071631606,-0.5154236557223744,0.061792412,0.3055411846060697,0.31013562742276346,0.9974977040651329,0.07069887117053902,-0.84967330600294,0.3040179409094782,,,,,,,,,,
2022-11-16 11:53:51.177438-07:00,1.599309,4.17,-1.14,-4.0,0.35,15.92,975.09,22.19,22.0,0.0,-0.004826,0.096281,0.00107762,32.8213577,-111.78698,331.72307700000005,-5.60630091,-0.478915175,0.105433728,2.0251,-5.95019,2892.42,29.2744,11515.0,0.368719,-1.0,23.0,-1317.0,82.0,,0.0,,2022-11-16 18:53:51.177438+00:00,1.1751046092148585,0.014537306869821433,4.065472067126641,-3.9959549248307105,-0.7486036116050714,0.35107762,370.61081865259666,0.2872281323269015,0.27674533983746175,4.486233372941977,368.2463574781792,-4.4388198315604095,-0.6351121157437464,0.143630872,0.2936822788118749,0.30053191468438606,0.9987461486675684,0.05006126767970769,-0.8565287273409182,0.2929472408999625,,,,,,,,,,
2022-11-16 11:53:51.378099-07:00,1.79997,4.77,-1.13,-4.64,-0.03,14.97,975.1,22.87,22.0,0.0,-0.00398162,0.101045,0.00603014,32.8213577,-111.78698,331.74541600000003,-5.58470833,-0.485598756,0.130195697,,,,,,,,,,,,,,2022-11-16 18:53:51.378099+00:00,1.1789912988977556,0.014600345795612774,4.676175317942046,-4.626899341604331,-0.6770657920703125,-0.02396986,368.32514806722406,0.3060165733321041,0.3010568316268636,,,,,,,,0.9992245486143929,0.03937386755657489,,,,,,,,,,,,
2022-11-16 11:53:51.578246-07:00,2.000117,4.11,-0.99,-3.98,0.17,15.45,975.09,22.96,24.0,0.0,-0.00455835,0.104236,0.0168082,32.8213578,-111.78698,331.753625,-5.56314875,-0.481796543,0.159208539,,,,,,,,,,,,,,2022-11-16 18:53:51.578246+00:00,1.177018327739914,0.014568402824128286,3.9988789832287654,-3.952991375003422,-0.6040631685985179,0.1868082,368.6882515250905,0.28666704722174957,0.2755609577093981,,,,,,,,0.9990451668214838,0.0436892967514191,,,,,,,,,,,,
2022-11-16 11:53:51.777705-07:00,2.199576,3.98,-1.08,-3.81,0.39,16.0,975.08,21.49,22.0,0.0,-0.00521357,0.105327,0.0253378,32.8213578,-111.78698,331.779291,-5.54822646,-0.475557474,0.142611269,,,,,,,,,,,,,,2022-11-16 18:53:51.777705+00:00,1.1747674415806917,0.01453198063384891,3.857481130319177,-3.7912420412299164,-0.711789614689154,0.41533780000000003,370.6332574043625,0.28196494994292504,0.26974001759077715,,,,,,,,0.9987771763593597,0.04943836550316429,,,,,,,,,,,,
2022-11-16 11:53:51.977884-07:00,2.399755,4.79,-0.93,-4.7,0.17,15.08,975.1,22.71,21.0,0.0,-0.005835,0.110138,0.0270044,32.8213578,-111.78698,331.762964,-5.532865,-0.480150446,0.159434243,,,,,,,,,,,,,,2022-11-16 18:53:51.977884+00:00,1.1785413490560364,0.014593023869332436,4.68213126561444,-4.657632498652495,-0.4783437006383519,0.19700440000000002,365.8637777281762,0.30790061654554923,0.30274029949032527,,,,,,,,0.998599560657915,0.052904796132478435,,,,,,,,,,,,
2022-11-16 11:53:52.177714-07:00,2.599585,5.02,-1.24,-4.86,-0.11,14.48,975.1,23.62,21.0,0.0,-0.00758248,0.109852,0.0140639,32.8213578,-111.78698,331.73021900000003,-5.51833833,-0.478971562,0.181800197,2.02133,-6.06836,2886.06,29.2738,11499.0,0.268663,-1.0,19.0,-1286.0,82.0,,0.0,,2022-11-16 18:53:52.177714+00:00,1.1809998019623174,0.014633051575268227,4.908354477498112,-4.846867966574722,-0.7744769792366882,-0.0959361,369.0784980363974,0.31289344898836113,0.31026631966342666,4.610871286047986,367.47478826766627,-4.569721687227082,-0.5901800782230093,0.10588747400000002,0.29959798923782616,0.305219774347829,0.9976262874027926,0.06886066135988449,-0.9034532179497745,0.298180870674997,,,,,,,,,,
2022-11-16 11:53:52.378251-07:00,2.800122,4.9,-1.06,-4.78,0.01,14.68,975.09,23.31,22.0,0.0,-0.00868686,0.110856,0.00551671,32.8213578,-111.78698,331.72738000000004,-5.49978807,-0.480566864,0.170776326,,,,,,,,,,,,,,2022-11-16 18:53:52.378251+00:00,1.1801670756548628,0.014619637332027716,4.7872024755391385,-4.748732117688231,-0.6056821082418602,0.01551671,367.26860569583926,0.31040986376100377,0.30644236381820544,,,,,,,,0.9969437931606073,0.07812216893136163,,,,,,,,,,,,
2022-11-16 11:53:52.577895-07:00,2.999766,4.93,-0.84,-4.86,-0.01,15.0,975.11,22.83,23.0,0.0,-0.0088521,0.113894,0.00751456,32.8213578,-111.78698,331.74447000000004,-5.4833004,-0.48212097,0.187111471,,,,,,,,,,,,,,2022-11-16 18:53:52.577895+00:00,1.1788806409547232,0.014598395207182242,4.819187081269062,-4.804133811990045,-0.3806079883089921,-0.0024854400000000002,364.5298024735562,0.3129299925013058,0.30880094562639626,,,,,,,,0.9969932400021914,0.0774885758672391,,,,,,,,,,,,
2022-11-16 11:53:52.777979-07:00,3.19985,4.64,-1.12,-4.5,0.1,15.02,975.1,22.76,22.0,0.0,-0.00855378,0.11631,0.0138196,32.8213578,-111.78698,331.75063500000005,-5.46539503,-0.480760206,0.22058688,,,,,,,,,,,,,,2022-11-16 18:53:52.777979+00:00,1.1787867336586784,0.014597016731899363,4.523593324312999,-4.469906462130627,-0.694861701039848,0.1138196,368.83609396395946,0.3018447522702637,0.2958015031354952,,,,,,,,0.9973066380839324,0.0733448678076678,,,,,,,,,,,,
2022-11-16 11:53:52.977556-07:00,3.399427,4.92,-1.09,-4.8,-0.01,15.26,975.1,23.21,21.0,0.0,-0.0100585,0.117748,0.0211766,32.8213578,-111.78698,331.776971,-5.44747332,-0.48173618,0.227613638,,,,,,,,,,,,,,2022-11-16 18:53:52.977556+00:00,1.1778058078375278,0.014581058446415548,4.80677473004123,-4.7640506648707035,-0.6394564628713584,0.0111766,367.64485467042545,0.31108430447699253,0.3074403065367507,,,,,,,,0.9963712218985539,0.08511397166377979,,,,,,,,,,,,
2022-11-16 11:53:53.177750-07:00,3.599621,4.49,-1.16,-4.33,0.19,15.59,975.1,22.73,21.0,0.0,-0.00407737,0.051828,0.0193326,32.8213578,-111.78698,331.751703,-5.4327426,-0.484790642,0.238920603,2.02261,-5.98651,2890.98,29.2741,11539.0,0.0472092,-1.0,19.0,-1306.0,82.0,,0.0,,2022-11-16 18:53:53.177750+00:00,1.1764596974386001,0.014559172995435117,4.432276874653414,-4.368547321046452,-0.7489142790502111,0.2093326,369.72783913942993,0.29677736472283767,0.2894980824704299,4.827972191810969,369.1113020856127,-4.765754370285113,-0.7654409410448547,0.08333799,0.30577809259473393,0.30943935016069446,0.9969197135184191,0.07842885182350393,-1.136855806996013,0.3039031862662998,,,,,,,,,,
2022-11-16 11:53:53.378081-07:00,3.799952,5.19,-1.22,-5.05,-0.06,14.82,975.1,23.9,23.0,0.0,-0.00196149,0.0221221,0.012936,32.8213578,-111.78698,331.739099,-5.41056134,-0.486305553,0.218928986,,,,,,,,,,,,,,2022-11-16 18:53:53.378081+00:00,1.1796054208369668,0.014610342151421606,5.173660456966626,-5.1204141585326175,-0.7403521925940585,-0.047063999999999995,368.227285292886,0.31905512076995696,0.3179692762501449,,,,,,,,0.9960921494859886,0.0883200415103109,,,,,,,,,,,,
2022-11-16 11:53:53.578161-07:00,4.000032,5.24,-1.48,-5.03,0.12,14.86,975.1,23.82,23.0,0.0,-0.00290317,0.0409774,0.00942515,32.8213578,-111.78698,331.73446,-5.39276404,-0.481736505,0.233446747,,,,,,,,,,,,,,2022-11-16 18:53:53.578161+00:00,1.1794415924392254,0.014607675111427798,5.203555573080573,-5.1058532448451635,-1.0036200696687978,0.12942515,371.1204373613626,0.3184352085634215,0.318181294580849,,,,,,,,0.9974996837084056,0.07067093463108334,,,,,,,,,,,,
2022-11-16 11:53:53.778046-07:00,4.199917,5.29,-1.38,-5.1,0.09,14.54,975.12,23.45,22.0,0.0,-0.0015477,0.0240728,0.00711048,32.8213578,-111.78698,331.731287,-5.37361769,-0.487091406,0.206003738,,,,,,,,,,,,,,2022-11-16 18:53:53.778046+00:00,1.180777713315672,0.01462913334606768,5.25994968922361,-5.1827505256420565,-0.8978684325225703,0.09711048,369.82846597062263,0.320715484990223,0.3206531734232215,,,,,,,,0.997939623804703,0.0641600127846606,,,,,,,,,,,,
2022-11-16 11:53:53.977823-07:00,4.399694,5.26,-1.42,-5.06,-0.04,14.7,975.11,23.27,21.0,0.0,-0.00311632,0.0346531,0.00578339,32.8213578,-111.78698,331.725977,-5.35875812,-0.484699921,0.206105872,,,,,,,,,,,,,,2022-11-16 18:53:53.977823+00:00,1.1801092815393557,0.014618396312762958,5.2219468706268986,-5.135848080385945,-0.9443482487123397,-0.03421661,370.4188181615123,0.3194434505882224,0.3192123522864096,,,,,,,,0.9959807460403762,0.08956759188934098,,,,,,,,,,,,
2022-11-16 11:53:54.178014-07:00,4.599885,5.41,-1.29,-5.25,-0.09,14.62,975.1,23.37,22.0,0.0,-0.00468406,0.0621662,0.00335308,32.8213578,-111.78698,331.71697400000005,-5.34122815,-0.48792575,0.182718622,2.02287,-6.27152,2896.62,29.2732,11539.0,-0.0169877,-1.0,19.0,-1306.0,82.0,,0.0,,2022-11-16 18:53:54.178014+00:00,1.1804252459895797,0.014623692048283796,5.345381158401881,-5.285120461072371,-0.8003758120733044,-0.08664692,368.61140890546693,0.3256501523349009,0.3264491647709356,5.213075124614917,370.2155330133194,-5.129534152390448,-0.9238791838734433,0.085652459,0.31997857454715795,0.32013085613319586,0.9971734162109913,0.07513439959233767,-1.3066722306775511,0.31817737086696085,,,,,,,,,,
2022-11-16 11:53:54.377619-07:00,4.79949,5.08,-1.33,-4.89,0.25,14.9,975.11,22.91,23.0,0.0,-0.00746437,0.082677,0.0018075,32.8213578,-111.78698,331.71151100000003,-5.32219521,-0.491196839,0.160702689,,,,,,,,,,,,,,2022-11-16 18:53:54.377619+00:00,1.1792899034580926,0.01460505612681235,4.987523964307038,-4.909607316607291,-0.8781522027832939,0.2518075,370.14091817950555,0.3140486968269207,0.3121197581245653,,,,,,,,0.9959491908434498,0.0899177916670422,,,,,,,,,,,,
2022-11-16 11:53:54.577637-07:00,4.999508,5.34,-1.57,-5.1,0.2,15.03,975.11,22.72,24.0,0.0,-0.00764537,0.0891225,0.000207845,32.8213579,-111.78698,331.708185,-5.31307446,-0.490087017,0.165100815,,,,,,,,,,,,,,2022-11-16 18:53:54.577637+00:00,1.1787579175900602,0.014596398122072661,5.250573940515159,-5.134344378244576,-1.098651223275708,0.20020784500000002,372.0780538494894,0.32079649592571224,0.3214584241306578,,,,,,,,0.9963406550741852,0.0854710421507979,,,,,,,,,,,,
2022-11-16 11:53:54.777911-07:00,5.199782,5.76,-1.65,-5.52,-0.02,14.57,975.1,23.44,23.0,0.0,-0.00884442,0.10148,7.29293e-05,32.8213579,-111.78698,331.70507200000003,-5.2868638,-0.490987375,0.102604417,,,,,,,,,,,,,,2022-11-16 18:53:54.777911+00:00,1.1806303803643172,0.014627033354775845,5.66364827229693,-5.5470718781792945,-1.1431996022586959,-0.0199270707,371.6450823022592,0.33472030369735367,0.33900637332060685,,,,,,,,0.996223563030898,0.08682518333998769,,,,,,,,,,,,
2022-11-16 11:53:54.977798-07:00,5.399669,5.18,-1.58,-4.93,0.21,14.85,975.1,22.99,22.0,0.0,-0.0090585,0.113074,0.0083891,32.8213579,-111.78698,331.728876,-5.27418987,-0.49435978,0.125393142,,,,,,,,,,,,,,2022-11-16 18:53:54.977798+00:00,1.1794825452722963,0.014608341779664977,5.068671119065462,-4.94129021389312,-1.129193488881514,0.2183891,372.87230972810494,0.31537500539461566,0.31471235397125913,,,,,,,,0.996806456922283,0.07985541583414843,,,,,,,,,,,,
2022-11-16 11:53:55.178150-07:00,5.600021,5.5,-1.66,-5.25,0.16,14.97,975.12,23.58,21.0,0.0,-0.00934172,0.111735,0.0139222,32.821358,-111.78698,331.74523300000004,-5.26566588,-0.488266597,0.144673939,2.02329,-6.7816,2897.16,29.2728,11497.0,-0.075401,-1.0,23.0,-1282.0,82.0,,0.0,,2022-11-16 18:53:55.178150+00:00,1.1790154808544553,0.014600439888139463,5.39909648443,-5.268453983734323,-1.1805233879336419,0.1739222,372.6298723661292,0.32576519559294154,0.32795602815800384,5.281023351034554,372.6269166704348,-5.153521232124694,-1.1523979106776228,0.19738148585999998,0.32333592362361296,0.3221909105980333,0.9965232319900478,0.08331535335164497,-1.5777587329467166,0.32109929274792526,,,,,,,,,,
2022-11-16 11:53:55.378291-07:00,5.800162,5.12,-1.58,-4.86,0.3,15.15,975.12,22.5,22.0,0.0,-0.0106524,0.113998,0.026821,32.8213579,-111.78698,331.768793,-5.23097151,-0.492922097,0.0763645858,,,,,,,,,,,,,,2022-11-16 18:53:55.378291+00:00,1.178279362968386,0.01458846223898897,5.001689899342066,-4.8698113869659005,-1.1409815531189371,0.326821,373.1863670797849,0.3131932902985726,0.31198172140022207,,,,,,,,0.995662518018073,0.09303843406845591,,,,,,,,,,,,
2022-11-16 11:53:55.578114-07:00,5.999985,5.39,-1.63,-5.13,0.26,15.17,975.13,22.55,23.0,0.0,-0.0114192,0.116008,0.0277022,32.8213579,-111.78698,331.758752,-5.21824675,-0.499729528,0.124626118,,,,,,,,,,,,,,2022-11-16 18:53:55.578114+00:00,1.1782097114194916,0.014587179567601836,5.272010980038307,-5.1409786978508345,-1.1680915211953249,0.2877022,372.80095187589575,0.3219007580066829,0.32302314126797305,,,,,,,,0.9951902402401533,0.09796114398446885,,,,,,,,,,,,
2022-11-16 11:53:55.777620-07:00,6.199491,5.32,-1.6,-5.06,0.26,15.4,975.11,22.22,22.0,0.0,-0.0103232,0.110854,0.0195379,32.8213579,-111.78698,331.74120500000004,-5.20041135,-0.497417662,0.067364337,,,,,,,,,,,,,,2022-11-16 18:53:55.777620+00:00,1.1772464276246872,0.014571812493645022,5.2009659351009585,-5.073341332478069,-1.1451001625404826,0.2795379,372.7190575486424,0.31964758213494143,0.32010681402738755,,,,,,,,0.9956919332772153,0.09272310395301424,,,,,,,,,,,,
2022-11-16 11:53:55.977519-07:00,6.39939,5.09,-1.5,-4.85,0.3,15.64,975.1,21.85,21.0,0.0,-0.0103142,0.113132,0.0122401,32.8213579,-111.78698,331.73211100000003,-5.19471582,-0.504935246,0.0615838722,,,,,,,,,,,,,,2022-11-16 18:53:55.977519+00:00,1.1762560096901602,0.014555862779001295,4.968255226651819,-4.852758952054826,-1.0650307743933352,0.31224009999999996,372.3784027647778,0.31291336461907426,0.3113465490056292,,,,,,,,0.9958697810690585,0.09079305674700792,,,,,,,,,,,,
2022-11-16 11:53:56.178156-07:00,6.600027,5.26,-1.71,-4.96,0.42,15.77,975.11,21.71,21.0,0.0,-0.0123904,0.108843,0.0130103,32.8213578,-111.78698,331.735742,-5.18287247,-0.501340095,0.0600131813,2.02135,-5.77955,2885.36,29.2718,11501.0,-0.108802,-1.0,18.0,-1257.0,82.0,,0.0,,2022-11-16 18:53:56.178156+00:00,1.1757388089820835,0.014547309992254887,5.143915273283426,-4.985350413155257,-1.267337996262721,0.43301029999999996,374.2631739906666,0.31644077208748655,0.31651188519262097,5.312033476162201,373.27941139831603,-5.169385426913469,-1.2212698365689558,0.24651337,0.3241691841038703,0.32272117819153384,0.9935828303883065,0.11310684841141026,-1.7981256347481027,0.3200486668380857,,,,,,,,,,
2022-11-16 11:53:56.377699-07:00,6.79957,5.59,-1.76,-5.31,0.15,14.99,975.11,22.77,22.0,0.0,-0.010817,0.110448,0.0115876,32.8213577,-111.78698,331.73797,-5.15678546,-0.499030585,0.0180599193,,,,,,,,,,,,,,2022-11-16 18:53:56.377699+00:00,1.178921554421821,0.014599061024300952,5.489121807677989,-5.336250939150586,-1.2864229996158192,0.1615876,373.5538185129626,0.32791983846178424,0.33091526607089117,,,,,,,,0.9952383511011297,0.09747114700004587,,,,,,,,,,,,
2022-11-16 11:53:56.577553-07:00,6.999424,5.86,-1.84,-5.57,0.04,14.4,975.11,23.66,24.0,0.0,-0.00907132,0.113268,0.00619095,32.8213577,-111.78698,331.712396,-5.14201283,-0.503671152,0.0602469286,,,,,,,,,,,,,,2022-11-16 18:53:56.577553+00:00,1.1813404857976126,0.014638452581506192,5.757909138096809,-5.599225497728604,-1.3424572500324208,0.04619095,373.48260417453076,0.33668433365438266,0.3419654062228226,,,,,,,,0.9968083631579253,0.07983161741075816,,,,,,,,,,,,
2022-11-16 11:53:56.777936-07:00,7.199807,5.46,-1.6,-5.22,0.01,14.88,975.12,22.98,23.0,0.0,-0.0103089,0.106231,0.00473615,32.8213577,-111.78698,331.718683,-5.11838764,-0.500451705,0.0463740213,,,,,,,,,,,,,,2022-11-16 18:53:56.777936+00:00,1.1793838848168097,0.01460643612993699,5.35799309395153,-5.235696490101162,-1.138232075797662,0.01473615,372.2651623078863,0.3249975951436867,0.3266983576554732,,,,,,,,0.9953243940942077,0.09658856309625052,,,,,,,,,,,,
2022-11-16 11:53:56.978085-07:00,7.399956,5.08,-1.52,-4.85,0.15,14.92,975.11,22.88,22.0,0.0,-0.011182,0.111392,-0.00419889,32.8213577,-111.78698,331.688165,-5.10505067,-0.502033009,0.0294901034,2.0217,-6.12767,2878.12,29.2711,11539.0,-0.106008,-1.0,22.0,-1301.0,82.0,,0.0,,2022-11-16 18:53:56.978085+00:00,1.1792080282261377,0.014603723454121595,4.976272874772666,-4.854621932867808,-1.0935893256232145,0.14580110999999998,372.6949795084065,0.31300588969218723,0.31154920291803917,5.23382304547224,371.00911581177417,-5.131368367308835,-1.006737759182297,0.048938766,0.32264969147421113,0.322141707783425,0.9949992660107878,0.09988223384563198,-1.5142358666633506,0.3194469565162345,,,,,,,,,,
2022-11-16 11:53:57.177962-07:00,7.599833,5.24,-1.32,-5.07,-0.08,14.6,975.11,23.32,22.0,0.0,-0.0083243,0.106066,-0.0086801,32.8213577,-111.78698,331.697626,-5.09753452,-0.501820266,0.0766517408,,,,,,,,,,,,,,2022-11-16 18:53:57.177962+00:00,1.180519397710177,0.014625075595481464,5.1358420504063504,-5.061165486702159,-0.8726267718429228,-0.0886801,369.7825393181921,0.32010596811075365,0.31964152039413135,,,,,,,,0.9969344214789895,0.0782416722108655,,,,,,,,,,,,
2022-11-16 11:53:57.377936-07:00,7.799807,5.05,-1.02,-4.94,0.13,14.6,975.11,23.36,22.0,0.0,-0.00832307,0.104794,-0.00335428,32.8213577,-111.78698,331.70531600000004,-5.08129128,-0.509834567,0.0189195943,,,,,,,,,,,,,,2022-11-16 18:53:57.377936+00:00,1.180519397710177,0.014625075595481464,4.941098070133853,-4.906132429144441,-0.5867833726152646,0.12664572000000002,366.820293749855,0.31591475231611466,0.3133939701805891,,,,,,,,0.9968608250468204,0.07917383082163262,,,,,,,,,,,,
2022-11-16 11:53:57.577781-07:00,7.999652,5.2,-1.37,-5.01,0.18,14.93,975.12,22.9,23.0,0.0,-0.00733726,0.105884,-0.000172533,32.8213576,-111.78698,331.703058,-5.06947885,-0.504677328,0.0516470027,,,,,,,,,,,,,,2022-11-16 18:53:57.577781+00:00,1.1791791875304973,0.014603104273423574,5.091105036351649,-5.005576537873215,-0.9292760702064369,0.179827467,370.51712181985795,0.31819079963512664,0.3174525610646615,,,,,,,,0.997607695167738,0.06912949111713226,,,,,,,,,,,,
2022-11-16 11:53:57.777665-07:00,8.199536,5.5,-1.67,-5.24,0.05,14.64,975.11,23.33,22.0,0.0,-0.00929392,0.0988062,-0.0116894,32.8213576,-111.78698,331.66692500000005,-5.05274819,-0.506918374,0.0234339178,,,,,,,,,,,,,,2022-11-16 18:53:57.777665+00:00,1.1803553170405627,0.014622403146360588,5.4053826442421045,-5.267912987409831,-1.2113027234149996,0.0383106,372.9494871620679,0.32575771715571955,0.3278501797271436,,,,,,,,0.995605300171323,0.09364873875696307,,,,,,,,,,,,
2022-11-16 11:53:57.978241-07:00,8.400112,5.48,-1.72,-5.21,-0.07,15.51,975.11,22.03,21.0,0.0,-0.0130269,0.102717,-0.0132928,32.8213575,-111.78698,331.671625,-5.03259205,-0.505794877,7.04229856e-05,2.02241,-6.80489,2886.52,29.2704,11529.0,-0.0998932,-1.0,17.0,-1305.0,82.0,,0.0,,2022-11-16 18:53:57.978241+00:00,1.1767978129671708,0.014564519301660445,5.38969121098329,-5.238080770794932,-1.2693625125939796,-0.0832928,373.6220848747075,0.324794022510451,0.32683262342933367,5.1686323905024185,373.0825720715713,-5.033291946146964,-1.1677726994117763,0.0466878654,0.3184972650037573,0.3183902557935223,0.9920536662098801,0.12581543370960419,-1.791758996942799,0.31349612059874393,,,,,,,,,,
2022-11-16 11:53:58.178084-07:00,8.599955,5.3,-1.63,-5.04,-0.04,15.11,975.09,22.6,21.0,0.0,-0.00969631,0.0991596,-0.0117059,32.8213575,-111.78698,331.66744400000005,-5.01779165,-0.504787635,0.0593245725,,,,,,,,,,,,,,2022-11-16 18:53:58.178084+00:00,1.1784066099553845,0.014590981276976054,5.202633428630757,-5.064093114548127,-1.19262547343769,-0.0517059,373.25203492467,0.31923063562745163,0.31965224274763904,,,,,,,,0.9952530733872743,0.09732070649756262,,,,,,,,,,,,
2022-11-16 11:53:58.378233-07:00,8.800104,4.84,-1.63,-4.56,0.16,15.08,975.11,22.6,21.0,0.0,-0.00999157,0.0939316,-0.00970004,32.8213575,-111.78698,331.68126800000005,-5.00075857,-0.50567229,-0.0106196127,,,,,,,,,,,,,,2022-11-16 18:53:58.378233+00:00,1.1785534354199894,0.014593070867221825,4.754349632304295,-4.590796320108711,-1.2362967174057755,0.15029996,375.07213157655303,0.3039781040388628,0.30069871805000864,,,,,,,,0.9943901975385253,0.10577398091824196,,,,,,,,,,,,
2022-11-16 11:53:58.578247-07:00,9.000118,4.66,-1.65,-4.36,0.16,15.28,975.11,22.36,22.0,0.0,-0.0102111,0.0998826,-0.00228327,32.8213574,-111.78698,331.68297700000005,-4.99090597,-0.50604528,0.0164180041,,,,,,,,,,,,,,2022-11-16 18:53:58.578247+00:00,1.177736215688741,0.014579777082932994,4.56855051840514,-4.387132623735437,-1.27464551188795,0.15771673,376.2007907759248,0.2978587304771963,0.2930867483244853,,,,,,,,0.9948150160478646,0.10170095302251075,,,,,,,,,,,,
2022-11-16 11:53:58.777760-07:00,9.199631,4.82,-1.61,-4.54,0.04,15.26,975.11,22.35,23.0,0.0,-0.00987551,0.0975024,-0.00287403,32.8213574,-111.78698,331.682245,-4.98285991,-0.504034715,0.0583901834,,,,,,,,,,,,,,2022-11-16 18:53:58.777760+00:00,1.1778178866582418,0.014581105365558044,4.725245933814827,-4.565180636341775,-1.2194568022704506,0.03712597,374.9557314738563,0.3033707361431127,0.2998819357295161,,,,,,,,0.9949098260366167,0.10076923169196579,,,,,,,,,,,,
2022-11-16 11:53:58.978301-07:00,9.400172,4.3,-1.58,-4.0,0.2,15.55,975.11,21.94,22.0,0.0,-0.012179,0.0993946,0.0100336,32.8213574,-111.78698,331.70882600000004,-4.96213046,-0.507383517,-0.00389476697,2.02346,-6.58064,2877.62,29.2699,11512.0,-0.140018,-1.0,22.0,-1323.0,82.0,,0.0,,2022-11-16 18:53:58.978301+00:00,1.1766347651233235,0.014561869051364817,4.209156343022438,-4.022279462997333,-1.2402681329276792,0.21003360000000001,377.13712389910944,0.2872281323269015,0.2794219823144424,4.476251465032755,376.2621500742381,-4.297749294666489,-1.245403675401623,0.18671364000000001,0.28983521514042454,0.2954177440987821,0.9925764671919427,0.12162218866951154,-1.7588600559281917,0.28558141928536723,,,,,,,,,,
2022-11-16 11:53:59.178135-07:00,9.600006,4.17,-1.63,-3.82,0.38,15.7,975.1,21.67,21.0,0.0,-0.0123144,0.0991319,0.0202326,32.8213574,-111.78698,331.740533,-4.95413364,-0.50431908,0.0352765319,,,,,,,,,,,,,,2022-11-16 18:53:59.178135+00:00,1.1760116774741953,0.014551892516548336,4.063090239405434,-3.8473610827598463,-1.3063364774883583,0.4002326,378.75445157762226,0.2821108269769372,0.27304609045247347,,,,,,,,0.9923725635596798,0.12327487616700024,,,,,,,,,,,,
2022-11-16 11:53:59.377446-07:00,9.799317,4.9,-1.58,-4.64,0.1,14.99,975.1,22.7,21.0,0.0,-0.0112733,0.0919136,0.0284593,32.8213574,-111.78698,331.750177,-4.93435194,-0.507231438,0.0278328986,,,,,,,,,,,,,,2022-11-16 18:53:59.377446+00:00,1.1789094642827145,0.014599013986973056,4.815214290515937,-4.666792667498053,-1.1863114524336775,0.1284593,374.2626526446776,0.30652029456976276,0.3037393188812057,,,,,,,,0.9925621719549658,0.12173879744781854,,,,,,,,,,,,
2022-11-16 11:53:59.578077-07:00,9.999948,4.78,-1.51,-4.53,0.06,15.08,975.1,22.65,23.0,0.0,-0.0115529,0.0938343,0.022879,32.8213574,-111.78698,331.72951700000004,-4.91618781,-0.50851108,-0.00286041352,,,,,,,,,,,,,,2022-11-16 18:53:59.578077+00:00,1.1785413490560364,0.014593023869332436,4.686622810981034,-4.548905000391485,-1.1277839641620708,0.082879,373.924254411528,0.3031042835805016,0.29926062056428665,,,,,,,,0.992505799578223,0.12219753599640255,,,,,,,,,,,,
2022-11-16 11:53:59.777878-07:00,10.199749,4.92,-1.46,-4.7,-0.03,15.04,975.09,22.64,22.0,0.0,-0.0124506,0.0921912,0.0164212,32.8213573,-111.78698,331.728632,-4.90057305,-0.507961063,0.0484349516,,,,,,,,,,,,,,2022-11-16 18:53:59.777878+00:00,1.1786928393967144,0.01459563851859729,4.834258261517051,-4.7153509333781995,-1.0656071105877636,-0.013578799999999999,372.73418768080285,0.30843680109663163,0.3057318841600512,,,,,,,,0.9910033693182924,0.13383692315572784,,,,,,,,,,,,
2022-11-16 11:53:59.977642-07:00,10.399513,5.27,-1.66,-5.0,-0.11,14.97,975.1,22.7,21.0,0.0,-0.0116814,0.0895746,0.0152486,32.8213574,-111.78698,331.725122,-4.88735177,-0.512719814,0.0165256212,,,,,,,,,,,,,,2022-11-16 18:53:59.977642+00:00,1.1789912988977556,0.014600345795612774,5.184074015026932,-5.033673017704824,-1.2396609795052353,-0.0947514,373.83512238201286,0.3180881569343472,0.3183208894142646,,,,,,,,0.9916035961235831,0.12931476387009308,,,,,,,,,,,,
2022-11-16 11:54:00.178216-07:00,10.600087,5.37,-1.44,-5.17,-0.24,14.43,975.09,23.57,21.0,0.0,-0.0115015,0.092515,0.00851273,32.8213574,-111.78698,331.708948,-4.87804919,-0.516061439,0.0381341896,,,,,,,,,,,,,,2022-11-16 18:54:00.178216+00:00,1.1811930224137255,0.014636349898890936,5.278094875906878,-5.181209680997636,-1.0066537441498007,-0.23148727,370.99497683653954,0.3236929125838784,0.3244260376944257,,,,,,,,0.9923606609987126,0.12337065494759397,,,,,,,,,,,,
2022-11-16 11:54:00.377667-07:00,10.799538,5.13,-1.09,-5.01,-0.24,14.49,975.11,23.48,21.0,0.0,-0.0106835,0.0903357,0.00807516,32.8213574,-111.78698,331.714349,-4.87096824,-0.511396122,0.0502915097,,,,,,,,,,,,,,2022-11-16 18:54:00.377667+00:00,1.1809708548571252,0.014632429895544728,5.039044980175269,-4.994124579621526,-0.6713374676343381,-0.23192484,367.6561155025166,0.31843470602002066,0.3167978990444119,,,,,,,,0.9930792757639157,0.11744595373284057,,,,,,,,,,,,
2022-11-16 11:54:00.577516-07:00,10.999387,4.65,-0.98,-4.54,-0.16,14.45,975.11,23.51,23.0,0.0,-0.00880808,0.092361,0.00684418,32.8213575,-111.78698,331.70678100000003,-4.85740628,-0.516398194,0.036799601,,,,,,,,,,,,,,2022-11-16 18:54:00.577516+00:00,1.1811351067145464,0.01463510602985272,4.554128141857958,-4.5143163717468155,-0.6008584094787116,-0.15315582,367.5815436431036,0.3034527113918814,0.29799987044552934,,,,,,,,0.9954834666920924,0.09493507014109011,,,,,,,,,,,,
2022-11-16 11:54:00.777551-07:00,11.199422,4.5,-1.2,-4.34,-0.13,14.81,975.09,23.01,23.0,0.0,-0.0101534,0.0923958,-0.00201244,32.8213575,-111.78698,331.685449,-4.84272657,-0.519653694,0.0538874924,,,,,,,,,,,,,,2022-11-16 18:54:00.777551+00:00,1.1796342873515042,0.014610961948378765,4.413980992574717,-4.333416298641589,-0.8394828083280301,-0.13201244,370.96371079479746,0.29731524166428536,0.291101300752221,,,,,,,,0.9940162040355093,0.10923271540539861,,,,,,,,,,,,
2022-11-16 11:54:00.977409-07:00,11.39928,4.47,-2.17,-3.9,0.12,16.38,975.1,20.78,22.0,0.0,-0.0121389,0.0908845,0.00163063,32.8213575,-111.78698,331.701074,-4.81861738,-0.519989619,0.0508805938,,,,,,,,,,,,,,2022-11-16 18:54:00.977409+00:00,1.1732496564722874,0.014507047951585313,4.385467287669598,-3.9776149511508225,-1.8468629162993053,0.12163062999999999,384.90610925103186,0.2843512506087199,0.2778224977665441,,,,,,,,0.9911979190896643,0.13238838767928013,,,,,,,,,,,,
2022-11-16 11:54:01.177779-07:00,11.59965,4.4,-2.5,-3.62,0.03,16.36,975.07,20.83,22.0,0.0,-0.0080183,0.0661945,-0.000500123,32.8213575,-111.78698,331.689722,-4.80280758,-0.523321886,0.0578597563,,,,,,,,,,,,,,2022-11-16 18:54:01.177779+00:00,1.1732946084086036,0.01450822361856002,4.346108551591773,-3.7504114851467003,-2.1961496384123875,0.029499876999999997,390.3522007660496,0.27653017640139577,0.26877795306548485,,,,,,,,0.9927432307057421,0.12025339033859177,,,,,,,,,,,,
2022-11-16 11:54:01.377849-07:00,11.79972,4.23,-2.25,-3.58,0.14,15.85,975.09,21.49,22.0,0.0,-0.00296611,0.0223667,-0.000204448,32.8213575,-111.78698,331.68703600000003,-4.79118074,-0.526595562,0.0786333846,,,,,,,,,,,,,,2022-11-16 18:54:01.377849+00:00,1.1753892366288552,0.014541929719899439,4.209862629052447,-3.7330538330615943,-1.9460864407719705,0.13979555200000002,387.5335800270895,0.27543764543786364,0.2666446145389837,,,,,,,,0.9913212301593193,0.1314618523960997,,,,,,,,,,,,
2022-11-16 11:54:01.577840-07:00,11.999711,4.72,-2.43,-4.05,0.09,15.46,975.09,22.0,24.0,0.0,-0.00229855,0.0127921,0.00146718,32.8213575,-111.78698,331.687311,-4.77423139,-0.522286506,0.0660347504,,,,,,,,,,,,,,2022-11-16 18:54:01.577840+00:00,1.1769775454271827,0.014567739815434879,4.712612933990657,-4.2254040751973045,-2.086787259622323,0.09146718,386.28324202157876,0.2886855234631406,0.28420150559341034,,,,,,,,0.984237312793102,0.1768527978455911,,,,,,,,,,,,
2022-11-16 11:54:01.778172-07:00,12.200043,4.49,-2.32,-3.84,0.1,16.26,975.08,20.83,23.0,0.0,-0.00229719,0.0142486,0.00132863,32.8213575,-111.78698,331.68737200000004,-4.77529834,-0.521374922,0.0509206144,,,,,,,,,,,,,,2022-11-16 18:54:01.778172+00:00,1.1737120546389448,0.014514848520959014,4.4746852770685415,-4.005558030044949,-1.9945709304901629,0.10132863,386.4710470012427,0.2826381440016842,0.2761528073206905,,,,,,,,0.9872516978971884,0.15916684641946863,,,,,,,,,,,,
2022-11-16 11:54:01.977472-07:00,12.399343,4.93,-2.12,-4.45,0.07,15.57,975.09,21.87,22.0,0.0,-0.00183041,0.016394,0.00221484,32.8213574,-111.78698,331.695337,-4.75757028,-0.514129617,0.0123397023,,,,,,,,,,,,,,2022-11-16 18:54:01.977472+00:00,1.176529126439939,0.014560450722317788,4.914507715297662,-4.59410630346278,-1.7454435986888266,0.07221484,380.80333850834995,0.3007237746693434,0.2983780378555039,,,,,,,,0.9938246797416214,0.11096173185591379,,,,,,,,,,,,
2022-11-16 11:54:02.177617-07:00,12.599488,4.69,-1.79,-4.32,0.35,15.27,975.1,22.27,21.0,0.0,-0.00267555,0.0283956,-3.54229e-06,32.8213574,-111.78698,331.684656,-4.74884231,-0.510573713,0.00526103993,2.01957,-6.39089,2878.6,29.2688,11465.0,-0.0204373,-1.0,21.0,-1307.0,82.0,,0.0,,2022-11-16 18:54:02.177617+00:00,1.1777649713557359,0.01458039427905955,4.64994984474894,-4.424965245841256,-1.4288863257018438,0.34999645771,377.8960308933967,0.29674519106987157,0.29237090672776533,5.0054524872556945,380.2241114165896,-4.695189598909674,-1.7122463677498498,0.13519579784200003,0.30305264056366743,0.30469927646564354,0.9955902502970815,0.09380860042338673,-2.1451449548345005,0.30039772839017764,,,,,,,,,,
2022-11-16 11:54:02.377417-07:00,12.799288,5.24,-2.0,-4.84,0.13,14.93,975.1,22.73,22.0,0.0,-0.0025362,0.0239358,-5.12485e-05,32.8213574,-111.78698,331.68847,-4.73130837,-0.509041448,-0.0560999545,,,,,,,,,,,,,,2022-11-16 18:54:02.377417+00:00,1.179155002216125,0.014603010145803865,5.2149264974360765,-4.964537912025157,-1.5965029576313972,0.12994875150000001,377.8268240386803,0.3130686874615545,0.313266679719356,,,,,,,,0.9944332353562967,0.10536859313290751,,,,,,,,,,,,
2022-11-16 11:54:02.578167-07:00,13.000038,5.81,-2.24,-5.36,0.02,14.23,975.11,23.81,23.0,0.0,-0.00383777,0.0391557,0.00249031,32.8213574,-111.78698,331.696497,-4.71334566,-0.513660302,-0.0639443377,,,,,,,,,,,,,,2022-11-16 18:54:02.578167+00:00,1.1820393092459582,0.01464984237116327,5.773193101727255,-5.486780503174226,-1.7958280262370185,0.02249031,378.12331664127817,0.33032058512576407,0.33509477119502157,,,,,,,,0.9952310524784853,0.09754564153546984,,,,,,,,,,,,
2022-11-16 11:54:02.777463-07:00,13.199334,5.86,-2.16,-5.45,-0.04,14.18,975.11,23.85,22.0,0.0,-0.00490919,0.0462422,0.00385335,32.8213574,-111.78698,331.69173600000005,-4.69568586,-0.51397425,-0.0868243708,,,,,,,,,,,,,,2022-11-16 18:54:02.777463+00:00,1.1822450029273084,0.014653195699871316,5.819649188108243,-5.562290253071834,-1.7115033780951203,-0.03614665,377.1030061278533,0.33341626311955025,0.33854393373406755,,,,,,,,0.994411947134623,0.10556931086223774,,,,,,,,,,,,
2022-11-16 11:54:02.977871-07:00,13.399742,5.8,-2.05,-5.43,-0.14,14.29,975.1,23.75,21.0,0.0,-0.00441408,0.0564321,0.00293011,32.8213575,-111.78698,331.697107,-4.6810003,-0.518435659,-0.119288806,2.02036,-5.16178,2898.91,29.2684,11477.0,-0.153034,-1.0,17.0,-1285.0,82.0,,0.0,,2022-11-16 18:54:02.977871+00:00,1.1817804517061692,0.014645773066499234,5.751090259937569,-5.522752577971842,-1.6044448075437652,-0.13706989,376.1993959439134,0.3327585066844341,0.33735943663500106,5.537340630693215,376.6830925840899,-5.30269485907578,-1.5927782375868689,-0.016451304000000003,0.32829894518876757,0.32537130786716123,0.9969548358941835,0.07798112071008975,-2.0014380543636046,0.32630853995159675,,,,,,,,,,
2022-11-16 11:54:03.177993-07:00,13.599864,5.49,-1.94,-5.14,0.0,14.52,975.11,23.34,21.0,0.0,-0.00550373,0.0595563,-0.00037577,32.8213575,-111.78698,331.68538800000005,-4.66895491,-0.518452637,-0.115469549,,,,,,,,,,,,,,2022-11-16 18:54:03.177993+00:00,1.1808476959401522,0.014630423440226,5.438238583868529,-5.221300369703741,-1.5206779226410714,-0.00037577,376.23793958608144,0.3229897431522934,0.32515895853831017,,,,,,,,0.9957571469148091,0.09202013023289692,,,,,,,,,,,,
2022-11-16 11:54:03.377783-07:00,13.799654,4.96,-1.71,-4.66,0.07,14.85,975.1,22.88,22.0,0.0,-0.00529365,0.0630628,-0.00115452,32.8213575,-111.78698,331.686395,-4.6553637,-0.516498258,-0.134684704,,,,,,,,,,,,,,2022-11-16 18:54:03.377783+00:00,1.1794825452722963,0.014608341779664977,4.904532019824479,-4.7203505914572546,-1.331437053417369,0.06884548,375.7518046213231,0.30737144125376425,0.3053376258414376,,,,,,,,0.9964953375940138,0.08364832427127626,,,,,,,,,,,,
2022-11-16 11:54:03.577413-07:00,13.999284,5.15,-2.09,-4.7,0.08,14.89,975.09,22.82,24.0,0.0,-0.00196355,0.0157792,0.000556584,32.8213575,-111.78698,331.693658,-4.63728831,-0.519544649,-0.131000835,,,,,,,,,,,,,,2022-11-16 18:54:03.577413+00:00,1.1793066566648354,0.014605628392778333,5.129509720125774,-4.837806740803128,-1.7051380904503364,0.080556584,379.41556537792235,0.30866041037044306,0.3081340691564739,,,,,,,,0.9923462265820772,0.1234867061197794,,,,,,,,,,,,
2022-11-16 11:54:03.777663-07:00,14.199534,5.43,-2.07,-5.02,-0.05,14.67,975.09,23.11,23.0,0.0,-0.001762,0.00961689,0.0012056,32.8213575,-111.78698,331.699091,-4.62188947,-0.517760383,-0.150054011,,,,,,,,,,,,,,2022-11-16 18:54:03.777663+00:00,1.1802080793056047,0.014620305098155099,5.421419856388364,-5.160858948121206,-1.6605204536046256,-0.0487944,377.8357210232844,0.3190708780148241,0.3207945371076252,,,,,,,,0.9836264438503018,0.18021936343914044,,,,,,,,,,,,
2022-11-16 11:54:03.977320-07:00,14.399191,5.54,-2.01,-5.17,-0.13,14.41,975.09,23.5,22.0,0.0,-0.000803837,0.00969486,0.00140635,32.8213575,-111.78698,331.704858,-4.61282328,-0.516349495,-0.160552624,,,,,,,,,,,,,,2022-11-16 18:54:03.977320+00:00,1.1812751752181776,0.014637688563397974,5.537923138587029,-5.305207255023097,-1.588511463650138,-0.12859365,376.6690124474797,0.32407101936746524,0.32666120064793247,,,,,,,,0.9965802787934315,0.08263018770404917,,,,,,,,,,,,
2022-11-16 11:54:04.177522-07:00,14.599393,5.66,-1.92,-5.32,-0.26,14.37,975.11,23.52,21.0,0.0,-0.00186946,0.0098419,0.00213682,32.8213575,-111.78698,331.712122,-4.6033643,-0.524457383,-0.203485824,2.01956,-5.89484,2893.43,29.2679,11477.0,-0.212761,-1.0,17.0,-1285.0,82.0,,0.0,,2022-11-16 18:54:04.177522+00:00,1.1814637475344447,0.01464046125090422,5.6468616368814475,-5.447090981752753,-1.4887062109735567,-0.25786318,375.2858163231288,0.329143021829232,0.3324836938920447,5.535096902440932,376.31420863571464,-5.311882556626157,-1.5536748045321673,-0.17226922,0.326970900644507,0.32443630369909743,0.982433621457149,0.18661237748496576,-2.5176453975961905,0.3157865863335084,,,,,,,,,,
2022-11-16 11:54:04.377411-07:00,14.799282,5.54,-1.95,-5.18,-0.19,14.37,975.1,23.5,23.0,0.0,-0.0020739,0.0111275,0.00231905,32.8213575,-111.78698,331.707147,-4.59428709,-0.518498985,-0.204441443,,,,,,,,,,,,,,2022-11-16 18:54:04.377411+00:00,1.1814516313245038,0.01464041394070497,5.524760878975481,-5.308422582157746,-1.5308927000595485,-0.18768095,376.08699952279426,0.3244327181651014,0.326889368789417,,,,,,,,0.9830717364082713,0.1832210715917423,,,,,,,,,,,,
2022-11-16 11:54:04.577682-07:00,14.999553,5.56,-1.92,-5.21,-0.24,14.36,975.09,23.51,23.0,0.0,-0.00174057,0.00880033,0.00158608,32.8213576,-111.78698,331.70195900000004,-4.57831606,-0.523479422,-0.232526665,,,,,,,,,,,,,,2022-11-16 18:54:04.577682+00:00,1.1814806072336237,0.014641036301584944,5.544519001372337,-5.337833016075987,-1.4997431943729667,-0.23841392,375.693493861886,0.3254638811188643,0.32802570278551585,,,,,,,,0.9809963858676071,0.19402600576905393,,,,,,,,,,,,
2022-11-16 11:54:04.777484-07:00,15.199355,5.35,-2.08,-4.92,-0.16,14.35,975.1,23.55,23.0,0.0,-0.00248797,0.0129507,0.00193966,32.8213576,-111.78698,331.70556000000005,-4.57386786,-0.523563393,-0.243624564,,,,,,,,,,,,,,2022-11-16 18:54:04.777484+00:00,1.181533819264074,0.014641753352606899,5.330104442257522,-5.057248966017774,-1.6835219811708786,-0.15806034,378.4122313589282,0.31583912446210094,0.31687234774953865,,,,,,,,0.9820422778237832,0.1886609778588977,,,,,,,,,,,,
2022-11-16 11:54:04.978090-07:00,15.399961,5.5,-1.77,-5.19,-0.34,14.36,975.1,23.54,22.0,0.0,-0.003411,0.0169719,0.00360972,32.8213575,-111.78698,331.71132800000004,-4.55387971,-0.523366612,-0.228771204,,,,,,,,,,,,,,2022-11-16 18:54:04.978090+00:00,1.1814927238649833,0.014641083615870023,5.4679194405805065,-5.297175726259063,-1.3557552632426015,-0.33639028000000004,374.35607067991776,0.3248268968598273,0.3267548636754888,,,,,,,,0.9803956127292814,0.19703919036876086,,,,,,,,,,,,
2022-11-16 11:54:05.177525-07:00,15.599396,5.49,-1.79,-5.19,-0.25,14.36,975.11,23.5,21.0,0.0,-0.00535028,0.0257656,0.00010806,32.8213575,-111.78698,331.69906000000003,-4.54425704,-0.526090662,-0.277658949,2.02187,-6.31064,2871.33,29.2673,11529.0,-0.212987,-1.0,20.0,-1322.0,82.0,,0.0,,2022-11-16 18:54:05.177525+00:00,1.1815048404963426,0.014641130930487429,5.466413071584069,-5.289739411224232,-1.3785241494171543,-0.24989194,374.6065953554785,0.3248408546152135,0.3268303520297773,5.358678102683442,376.1011495534191,-5.147218773131124,-1.483940659535878,-0.23450460000000004,0.3210180592497604,0.31978657062296023,0.9791133971647464,0.20331491704375626,-2.499452538214287,0.3080319234895997,,,,,,,,,,
2022-11-16 11:54:05.377661-07:00,15.799532,5.3,-1.9,-4.94,-0.2,14.4,975.09,23.52,22.0,0.0,-0.00671077,0.0323485,-0.0012429,32.8213575,-111.78698,331.70687300000003,-4.53309246,-0.525485987,-0.237270911,,,,,,,,,,,,,,2022-11-16 18:54:05.377661+00:00,1.1813162559058918,0.014638357987942361,5.263701520059281,-5.042364708749314,-1.5103350079481805,-0.2012429,376.67448866678797,0.3165414678525959,0.31714156782131914,,,,,,,,0.9791523210786321,0.20312737906625808,,,,,,,,,,,,
2022-11-16 11:54:05.577784-07:00,15.999655,5.3,-1.88,-4.95,-0.23,14.4,975.1,23.51,23.0,0.0,-0.00758057,0.0332181,0.00306246,32.8213575,-111.78698,331.708795,-4.52080722,-0.521929512,-0.267917735,,,,,,,,,,,,,,2022-11-16 18:54:05.577784+00:00,1.1813283708517524,0.014638405284558164,5.265252038935832,-5.04956505340524,-1.4915668959005746,-0.22693754000000002,376.4563617059833,0.3168845093250635,0.31749116497267826,,,,,,,,0.9749358358341084,0.22248621531782267,,,,,,,,,,,,
2022-11-16 11:54:05.777931-07:00,16.199802,5.4,-1.66,-5.13,-0.3,14.41,975.11,23.47,22.0,0.0,-0.00693185,0.038562,-0.000523616,32.8213575,-111.78698,331.69603900000004,-4.51352705,-0.527373915,-0.27235738,,,,,,,,,,,,,,2022-11-16 18:54:05.777931+00:00,1.1812994042672955,0.014637783148129848,5.3560140570396095,-5.206161552942233,-1.2580812628252651,-0.300523616,373.5852171104078,0.32287060085082997,0.32402435120385376,,,,,,,,0.9842247264859465,0.17692282999563347,,,,,,,,,,,,
2022-11-16 11:54:05.977743-07:00,16.399614,5.39,-1.83,-5.06,-0.25,14.39,975.09,23.42,22.0,0.0,-0.00686875,0.0372477,-0.000831311,32.8213575,-111.78698,331.70275300000003,-4.5063336,-0.524688869,-0.261613349,,,,,,,,,,,,,,2022-11-16 18:54:05.977743+00:00,1.1813573394509953,0.01463902747402499,5.34668518394038,-5.1508919051748405,-1.4336509468388312,-0.250831311,375.55351340416036,0.3205431676967323,0.3217543604383213,,,,,,,,0.983418683537219,0.18134964259662387,,,,,,,,,,,,
2022-11-16 11:54:06.177835-07:00,16.599706,5.28,-1.83,-4.95,-0.21,14.43,975.1,23.43,21.0,0.0,-0.00551173,0.0372883,0.000951908,32.8213576,-111.78698,331.701044,-4.49056237,-0.524958952,-0.284650692,,,,,,,,,,,,,,2022-11-16 18:54:06.177835+00:00,1.1812051360957692,0.014636397182260463,5.243086237002858,-5.04079604590158,-1.4423343968275149,-0.209048092,375.96753454594636,0.31691947941329224,0.31736885240902873,,,,,,,,0.989251339724573,0.1462251238780033,,,,,,,,,,,,
2022-11-16 11:54:06.377913-07:00,16.799784,5.09,-1.75,-4.77,-0.24,14.43,975.1,23.41,22.0,0.0,-0.00551007,0.035599,0.000767567,32.8213576,-111.78698,331.694635,-4.47922791,-0.529260654,-0.283748642,,,,,,,,,,,,,,2022-11-16 18:54:06.377913+00:00,1.1812051360957692,0.014636397182260463,5.048119533932923,-4.8565029673774935,-1.3776391968613357,-0.239232433,375.83699390476664,0.3110520459123174,0.31000471515607503,,,,,,,,0.9882323529380015,0.15296017980710305,,,,,,,,,,,,
2022-11-16 11:54:06.577452-07:00,16.999323,5.13,-1.91,-4.76,-0.14,14.41,975.1,23.46,22.0,0.0,-0.00651479,0.0330065,-0.00316943,32.8213576,-111.78698,331.68023100000005,-4.47013623,-0.527661996,-0.290492498,,,,,,,,,,,,,,2022-11-16 18:54:06.577452+00:00,1.1812872897427364,0.01463773585559781,5.099383861545661,-4.861378411069537,-1.5397128666668218,-0.14316943000000001,377.5742191373519,0.31073693531921,0.3101150081122086,,,,,,,,0.9810720563932157,0.19364302250374776,,,,,,,,,,,,
2022-11-16 11:54:06.778132-07:00,17.200003,5.19,-1.85,-4.84,-0.25,14.52,975.1,23.33,22.0,0.0,-0.00182936,0.00908493,-0.00620302,32.8213576,-111.78698,331.68737200000004,-4.46157548,-0.523700579,-0.302542954,,,,,,,,,,,,,,2022-11-16 18:54:06.778132+00:00,1.1808355860479764,0.014630376196234153,5.173322527222248,-4.960160993782076,-1.4697172811217767,-0.25620302,376.50478560358965,0.31334413343397,0.31309603935503316,,,,,,,,0.9803230592116227,0.1973998469552735,,,,,,,,,,,,
2022-11-16 11:54:06.977449-07:00,17.39932,5.15,-1.59,-4.89,-0.34,14.46,975.1,23.35,21.0,0.0,-0.00133179,0.00491847,-0.00387293,32.8213576,-111.78698,331.68111600000003,-4.45400844,-0.52478657,-0.300993254,,,,,,,,,,,,,,2022-11-16 18:54:06.977449+00:00,1.1810819270485078,0.01463438963358903,5.137534891415347,-4.993791247812712,-1.20677824548641,-0.34387293,373.58539889893564,0.31498778637130476,0.31428299709754837,,,,,,,,0.965241009270338,0.2613614241290772,,,,,,,,,,,,
2022-11-16 11:54:07.178020-07:00,17.599891,5.22,-1.86,-4.87,-0.25,14.43,975.09,23.4,21.0,0.0,-0.00161398,0.00386817,-0.00248798,32.8213576,-111.78698,331.67519500000003,-4.44037521,-0.51953702,-0.305332325,2.02284,-6.86487,2824.05,29.2656,11483.0,-0.201145,-1.0,22.0,-1287.0,81.0,,0.0,,2022-11-16 18:54:07.178020+00:00,1.1811930224137255,0.014636349898890936,5.2098569574155915,-4.995518443181006,-1.4789878297572512,-0.25248798,376.49206883868567,0.3143468502598826,0.31433982901460417,5.108743122435951,376.48476160593805,-4.897242725791468,-1.447893958442452,-0.25876057722,0.3105276415215653,0.3113034451717935,0.92288686023712,0.3850712183501523,-3.222029532240191,0.2684805783712883,,,,,,,,,,
2022-11-16 11:54:07.378108-07:00,17.799979,5.07,-1.92,-4.69,-0.21,14.48,975.08,23.3,22.0,0.0,-0.00103759,0.00484464,-0.00131259,32.8213576,-111.78698,331.6737,-4.4319065,-0.519466472,-0.312697031,,,,,,,,,,,,,,2022-11-16 18:54:07.378108+00:00,1.1809755788097798,0.01463295705299383,5.063496863952042,-4.819498229997448,-1.5528803245271772,-0.21131259,377.85934979831745,0.3085133006522229,0.30744471896147335,,,,,,,,0.9778250337527139,0.20942350242153798,,,,,,,,,,,,
2022-11-16 11:54:07.578218-07:00,18.000089,4.97,-1.89,-4.59,-0.23,14.5,975.09,23.26,22.0,0.0,-0.000406475,0.00474201,7.36339e-05,32.8213577,-111.78698,331.67614100000003,-4.41929052,-0.525119017,-0.314176269,,,,,,,,,,,,,,2022-11-16 18:54:07.578218+00:00,1.180905577562104,0.014631666510358103,4.959504372174523,-4.717244714184102,-1.531106111319644,-0.2299263661,377.98220489016165,0.30532515514158715,0.3034746231791673,,,,,,,,0.9963463451072909,0.08540468717431807,,,,,,,,,,,,
2022-11-16 11:54:07.777565-07:00,18.199436,5.12,-2.1,-4.67,-0.21,14.46,975.08,23.32,23.0,0.0,-0.00104546,0.00481554,0.00156421,32.8213577,-111.78698,331.67510400000003,-4.40781402,-0.517597267,-0.322425877,,,,,,,,,,,,,,2022-11-16 18:54:07.777565+00:00,1.181057702211526,0.014634295093664883,5.116263601717449,-4.812767419798307,-1.7359213706809287,-0.20843578999999998,379.83391215609566,0.30789062514214394,0.3072337037436395,,,,,,,,0.97723515523496,0.21215902378382057,,,,,,,,,,,,
2022-11-16 11:54:07.977663-07:00,18.399534,5.18,-2.2,-4.69,-0.23,14.46,975.08,23.36,22.0,0.0,-0.000736313,0.004955,0.00249142,32.8213577,-111.78698,331.675562,-4.39717419,-0.523178591,-0.33118347,,,,,,,,,,,,,,2022-11-16 18:54:07.977663+00:00,1.181057702211526,0.014634295093664883,5.175984269287212,-4.839913826229854,-1.8346790756363252,-0.22750858000000002,380.760349012911,0.3085424043820621,0.30832831619252066,,,,,,,,0.989138573778771,0.14698599206352547,,,,,,,,,,,,
2022-11-16 11:54:08.177456-07:00,18.599327,5.05,-1.9,-4.67,-0.26,14.52,975.07,23.23,22.0,0.0,-0.00142355,0.00465897,0.00210958,32.8213576,-111.78698,331.669031,-4.38861208,-0.524130013,-0.333441579,2.0219,-6.10709,2813.37,29.2666,11446.0,-0.337541,-1.0,21.0,-1270.0,81.0,,0.0,,2022-11-16 18:54:08.177456+00:00,1.1807992563714496,0.014630234466250287,5.037713570491522,-4.797038126881959,-1.5385003176974867,-0.25789042,377.7820225701627,0.3079062461988717,0.3066545579607385,5.03096874624958,379.1367664022276,-4.751749800867946,-1.650065709800365,-0.23796019799999998,0.3048945849528334,0.3061949066906538,0.9563529573825704,0.29221399847647855,-2.9665730305145828,0.28008295204660855,,,,,,,,,,
2022-11-16 11:54:08.377693-07:00,18.799564,5.04,-1.94,-4.64,-0.29,14.47,975.09,23.27,22.0,0.0,-0.00127132,0.00321253,0.00180896,32.8213575,-111.78698,331.66161500000004,-4.37921958,-0.5226606,-0.335771007,,,,,,,,,,,,,,2022-11-16 18:54:08.377693+00:00,1.1810287510803807,0.01463367330797271,5.026584565729622,-4.771374410155545,-1.581309152109126,-0.28819103999999995,378.33601517871097,0.3069511913599858,0.30561567804338097,,,,,,,,0.9298369647997651,0.367971763715588,,,,,,,,,,,,
2022-11-16 11:54:08.577869-07:00,18.99974,4.8,-1.9,-4.41,-0.21,14.53,975.08,23.21,22.0,0.0,-0.0014325,0.004285,0.00222484,32.8213573,-111.78698,331.66048600000005,-4.36951505,-0.523815503,-0.341402276,,,,,,,,,,,,,,2022-11-16 18:54:08.577869+00:00,1.180770320262295,0.014629613026926865,4.798297724022095,-4.537655221274065,-1.5599186328779577,-0.20777516,378.97153309325734,0.2996840663702054,0.29664066882388707,,,,,,,,0.9484062703673806,0.3170576388100988,,,,,,,,,,,,
2022-11-16 11:54:08.777858-07:00,19.199729,4.74,-2.07,-4.26,-0.25,14.54,975.09,23.16,21.0,0.0,-0.00157908,0.00294377,0.00187401,32.8213572,-111.786979,331.65389400000004,-4.36099848,-0.526902383,-0.3359336,,,,,,,,,,,,,,2022-11-16 18:54:08.777858+00:00,1.1807413861647578,0.014628991640547527,4.734138947161379,-4.402125885658477,-1.7416541728614852,-0.24812599,381.585700365545,0.2950505773083373,0.2914549437496064,,,,,,,,0.8812231062012259,0.47270057869338694,,,,,,,,,,,,
2022-11-16 11:54:08.978182-07:00,19.400053,4.87,-2.36,-4.26,-0.18,14.48,975.07,23.33,22.0,0.0,-0.00181533,0.00289626,0.001314,32.8213571,-111.786979,331.649896,-4.34989269,-0.523686158,-0.349040514,2.02208,-5.80471,2799.01,29.2642,11519.0,-0.337546,-1.0,17.0,-1293.0,81.0,,0.0,,2022-11-16 18:54:08.978182+00:00,1.1809634672335112,0.014632909792354702,4.868155744542555,-4.423831670890467,-2.031908881015373,-0.17868599999999998,384.669778725745,0.2950540637510911,0.29230038613470566,4.770993184689329,381.94594942752514,-4.422775167203186,-1.7827406430823007,-0.20853566619999997,0.2922742134948665,0.2956165904371553,0.8473181541407071,0.5310856293137529,-3.859420843995455,0.22579627611954867,,,,,,,,,,
2022-11-16 11:54:09.177924-07:00,19.599795,4.66,-2.08,-4.17,-0.22,14.52,975.07,23.18,21.0,0.0,-0.00107266,0.00341392,0.001209,32.821357,-111.786979,331.646051,-4.34382822,-0.524402792,-0.337205104,,,,,,,,,,,,,,2022-11-16 18:54:09.177924+00:00,1.1807992563714496,0.014630234466250287,4.657211471556311,-4.312150017536743,-1.7592557849993182,-0.218791,382.1943042311593,0.292314512244598,0.28812899169517464,,,,,,,,0.9540165973849747,0.2997537854873481,,,,,,,,,,,,
2022-11-16 11:54:09.378099-07:00,19.79997,4.8,-2.15,-4.29,-0.19,14.5,975.09,23.26,21.0,0.0,-0.00147947,0.00216507,0.000699819,32.8213568,-111.786979,331.64220600000004,-4.33617393,-0.525711598,-0.339570072,,,,,,,,,,,,,,2022-11-16 18:54:09.378099+00:00,1.180905577562104,0.014631666510358103,4.797162036164308,-4.438113040656181,-1.8209657436573699,-0.189300181,382.3084307219192,0.2959797325115448,0.2928460770709588,,,,,,,,0.8256436644820833,0.5641919348064071,,,,,,,,,,,,
2022-11-16 11:54:09.577346-07:00,19.999217,4.72,-2.46,-4.03,-0.18,14.59,975.07,23.13,23.0,0.0,-0.00105101,0.00271062,0.00146922,32.8213567,-111.786979,331.643213,-4.31840272,-0.51851887,-0.341500355,,,,,,,,,,,,,,2022-11-16 18:54:09.577346+00:00,1.180511997221015,0.01462555501062134,4.71955899360811,-4.201083766259749,-2.150612071717258,-0.17853078,387.10874193636516,0.28811770135976716,0.28402975101886857,,,,,,,,0.9323667274010653,0.36151388028045006,,,,,,,,,,,,
2022-11-16 11:54:09.777439-07:00,20.19931,4.43,-2.37,-3.74,-0.17,14.63,975.06,22.99,22.0,0.0,-0.000729895,0.00184953,0.00170455,32.8213566,-111.786979,331.637537,-4.30348592,-0.515055351,-0.343395953,,,,,,,,,,,,,,2022-11-16 18:54:09.777439+00:00,1.180335806615097,0.014622835192339574,4.426408350220863,-3.9054491705012513,-2.0834005038724723,-0.16829545,388.0781322249263,0.2796818149328257,0.27327867023794633,,,,,,,,0.9301865871107659,0.3670870648214476,,,,,,,,,,,,
2022-11-16 11:54:09.978153-07:00,20.400024,4.59,-2.28,-3.97,-0.16,14.54,975.07,23.16,22.0,0.0,-0.00133734,0.00243042,0.00151842,32.8213565,-111.786979,331.633905,-4.29340788,-0.509793805,-0.348730721,,,,,,,,,,,,,,2022-11-16 18:54:09.978153+00:00,1.1807171680641482,0.014628897171860254,4.576518418322825,-4.1271186924289855,-1.9777290339809734,-0.15848158,385.6038960803906,0.2863415770516274,0.2813549838660866,,,,,,,,0.8761231911078287,0.482087288779776,,,,,,,,,,,,
2022-11-16 11:54:10.178015-07:00,20.599886,4.42,-2.26,-3.8,-0.17,14.55,975.07,23.11,22.0,0.0,-0.000460357,0.00141349,0.00213873,32.8213563,-111.786979,331.636591,-4.28577346,-0.510454423,-0.345998009,2.02355,-6.76107,2796.29,29.2642,11507.0,-0.364752,-1.0,22.0,-1301.0,81.0,,0.0,,2022-11-16 18:54:10.178015+00:00,1.1806761281903886,0.01462822861680195,4.420206533868873,-3.956852985076939,-1.9701624949594374,-0.16786127,386.4692401606704,0.28139167152537,0.2751507066540094,4.393418203885401,389.4555367633634,-3.8215971856353215,-2.1510366586966256,-0.13416385800000002,0.2704596444968376,0.27732643472333596,0.9508415345886997,0.30967785859019153,-3.2287590303534976,0.2459645637197394,,,,,,,,,,
2022-11-16 11:54:10.378039-07:00,20.79991,4.3,-2.68,-3.37,-0.04,14.66,975.06,22.95,22.0,0.0,-0.000506955,0.00199677,0.00229783,32.8213562,-111.786979,331.634637,-4.27702485,-0.515499169,-0.360291411,,,,,,,,,,,,,,2022-11-16 18:54:10.378039+00:00,1.1802127738010932,0.014620831381659032,4.30436292433819,-3.5584895199766895,-2.421712724629676,-0.03770217,394.23705464836826,0.2694787816600487,0.26123354188956693,,,,,,,,0.9692494337094547,0.24608034308717414,,,,,,,,,,,,
2022-11-16 11:54:10.578291-07:00,21.000162,4.24,-2.56,-3.38,-0.14,14.65,975.05,22.96,22.0,0.0,-0.000802309,0.00105733,0.00152118,32.8213561,-111.786979,331.63396600000004,-4.26766046,-0.511485836,-0.354618535,,,,,,,,,,,,,,2022-11-16 18:54:10.578291+00:00,1.1802416774670277,0.014621452072166898,4.239594792676249,-3.5600755601927423,-2.3021785360405693,-0.13847882,392.88936070246166,0.2697383284468081,0.2612803198365789,,,,,,,,0.7966199474690628,0.6044804871080518,,,,,,,,,,,,
2022-11-16 11:54:10.777449-07:00,21.19932,4.25,-2.39,-3.51,-0.22,14.62,975.04,23.04,23.0,0.0,-0.00058376,0.001305,0.00188918,32.821356,-111.786979,331.635645,-4.25609293,-0.508066864,-0.356263442,,,,,,,,,,,,,,2022-11-16 18:54:10.777449+00:00,1.1803526118856318,0.01462340885572298,4.245595577944973,-3.676388216541337,-2.1234998216957592,-0.21811082,390.0109404371794,0.27324347154370127,0.2653163739512692,,,,,,,,0.9128327980982197,0.4083335434619287,,,,,,,,,,,,
2022-11-16 11:54:10.978189-07:00,21.40006,4.36,-2.27,-3.72,-0.2,14.64,975.07,22.98,21.0,0.0,-0.000309026,-0.000299719,0.0019673,32.8213559,-111.786979,331.632959,-4.24732233,-0.507335135,-0.366644149,2.02177,-6.11313,2790.03,29.2644,11467.0,-0.375629,-1.0,17.0,-1275.0,81.0,,0.0,,2022-11-16 18:54:10.978189+00:00,1.1803068976697413,0.014622214383896702,4.35830857027188,-3.8782037650990153,-1.9885645953996909,-0.1980327,387.14666543097707,0.2790954361855397,0.2723723016816996,4.320619035087985,387.60193539181535,-3.8236254883323526,-1.9948816663703668,-0.19849548860000002,0.2705446749284311,0.2776613167577783,0.6962145796831931,-0.7178337265945052,1.3558616325215944,0.19408066457024595,,,,,,,,,,
2022-11-16 11:54:11.177396-07:00,21.599267,4.4,-2.07,-3.88,-0.23,14.57,975.07,23.08,21.0,0.0,-0.000380901,0.000720893,0.00133091,32.8213558,-111.786979,331.63027300000005,-4.23435433,-0.505383923,-0.386402739,2.02177,-6.11313,2790.03,29.2644,11467.0,-0.375629,-1.0,17.0,-1275.0,81.0,,0.0,,2022-11-16 18:54:11.177396+00:00,1.180594057001164,0.014626891690917588,4.397141778754758,-4.021529070912257,-1.7782462580526242,-0.22866909000000002,383.8541336515816,0.2836972761756291,0.2775886649138749,4.307580068975966,386.47842905813116,-3.8536873063845314,-1.9169984804919882,-0.20246833660000002,0.2716027258100801,0.2786325650009907,0.8841671078942743,0.46717076676294145,-3.4952770561225956,0.22086252335077122,,,,,,,,,,
2022-11-16 11:54:11.377587-07:00,21.799458,4.37,-2.07,-3.84,-0.21,14.54,975.07,23.09,22.0,0.0,-0.000159967,7.68371e-06,0.000813987,32.8213557,-111.786979,331.62917500000003,-4.22082443,-0.506747048,-0.375314909,,,,,,,,,,,,,,2022-11-16 18:54:11.377587+00:00,1.1807171680641482,0.014628897171860254,4.3624544557920615,-3.9819308289164104,-1.7819191206631906,-0.209186013,384.108576736877,0.28253207143721315,0.27616571425873254,,,,,,,,0.04797777957020493,0.9988484032462147,,,,,,,,,,,,
2022-11-16 11:54:11.577439-07:00,21.99931,4.17,-2.18,-3.56,-0.16,14.66,975.06,22.91,23.0,0.0,-0.000100754,0.000103813,0.00165694,32.8213557,-111.786979,331.634119,-4.21167021,-0.50577656,-0.387922224,,,,,,,,,,,,,,2022-11-16 18:54:11.577439+00:00,1.1802127738010932,0.014620831381659032,4.17439996211616,-3.7103846504536375,-1.9127626066486756,-0.15834306,387.2718290340408,0.27459456966287027,0.26657057424482433,,,,,,,,0.7176003017132754,0.6964551722695554,,,,,,,,,,,,
2022-11-16 11:54:11.777606-07:00,22.199477,3.76,-2.02,-3.16,-0.17,14.67,975.06,22.94,23.0,0.0,-0.000399026,0.000482727,0.001794,32.8213557,-111.786979,331.63216600000004,-4.2104072,-0.506565,-0.377806914,,,,,,,,,,,,,,2022-11-16 18:54:11.777606+00:00,1.1801717685626179,0.014620163567421407,3.7502316154908226,-3.2992960146391637,-1.7829422249789915,-0.16820600000000002,388.3868231855962,0.263943001328293,0.2527125903000354,,,,,,,,0.7707645236756794,0.637120121360959,,,,,,,,,,,,
2022-11-16 11:54:11.978078-07:00,22.399949,3.8,-2.17,-3.12,-0.13,14.66,975.07,22.92,23.0,0.0,-0.000344928,-0.000725929,-0.000239009,32.8213555,-111.786979,331.62533,-4.19900542,-0.499358665,-0.391718883,2.02406,-6.87122,2788.84,29.2626,11525.0,-0.378762,-1.0,21.0,-1290.0,81.0,,0.0,,2022-11-16 18:54:11.978078+00:00,1.1802248778026296,0.014620878562640516,3.801234581123456,-3.271240384521251,-1.9360709406956333,-0.13023900900000002,390.61900380172517,0.26291387673276545,0.2517910138758883,3.848636512147878,389.4665022477454,-3.3513898164738514,-1.889703718105158,-0.14507126460000003,0.25453650735266586,0.26516272045980394,0.9032236222061022,-0.429170232295867,-0.26850829111319396,0.21332031214166408,,,,,,,,,,
2022-11-16 11:54:12.178040-07:00,22.599911,3.65,-2.1,-2.98,-0.14,14.63,975.06,22.95,21.0,0.0,0.000198348,0.000859187,0.00086745,32.8213554,-111.786978,331.62734400000005,-4.19280671,-0.498227541,-0.389199205,,,,,,,,,,,,,,2022-11-16 18:54:12.178040+00:00,1.180335806615097,0.014622835192339574,3.644761376577868,-3.1247026051695452,-1.876304645157724,-0.13913255000000002,390.9837482109501,0.2594160952600312,0.24716281337425655,,,,,,,,0.9743727861940824,-0.2249392663017752,,,,,,,,,,,,
2022-11-16 11:54:12.377430-07:00,22.799301,3.87,-2.18,-3.2,-0.13,14.59,975.06,23.01,22.0,0.0,0.000189711,-0.000748848,0.000564296,32.8213554,-111.786978,331.62194200000005,-4.18555894,-0.497924055,-0.38097299,,,,,,,,,,,,,,2022-11-16 18:54:12.377430+00:00,1.1804998902748756,0.014625507798811794,3.87255502543108,-3.3513254275856594,-1.940438173044766,-0.129435704,390.0711070064146,0.26494605931505977,0.2544455449683248,,,,,,,,0.9693765621994371,0.24557907210998414,,,,,,,,,,,,
2022-11-16 11:54:12.577929-07:00,22.9998,3.89,-1.81,-3.43,-0.19,14.58,975.07,23.07,22.0,0.0,6.35243e-05,-0.000873998,0.00050626,32.8213553,-111.786978,331.61980600000004,-4.17519581,-0.495118287,-0.400459253,,,,,,,,,,,,,,2022-11-16 18:54:12.577929+00:00,1.1805530256851036,0.014626223320075064,3.879047977572661,-3.5535507385089917,-1.5554068153228435,-0.18949374,383.6392341220699,0.2710163669643843,0.261236909240084,,,,,,,,0.9973690514341457,0.07249120802795628,,,,,,,,,,,,
