Timestamp,Seconds,S,Um,Vm,Wm,T,P,H,MD,Sts,Vx,Vy,Vz,Lat,Lon,Alt,Yaw,Roll,Pitch,CH4,C2H6,H2O,T_a,Batt,R,C2C1,Power,Current,SOC,Lat_a,Lon_a,TS,Timestamp_UTC
2022-11-16 11:53:49.578129-07:00,0.0,4.99,-1.32,-4.81,0.11,15.16,975.11,22.59,23.0,0.0,-0.000352702,0.00822172,0.0186537,32.8213573,-111.78698,330.874451,-5.76202792,-0.481752094,-0.0112201057,,,,,,,,,,,,,,2022-11-16 18:53:49.578129+00:00
2022-11-16 11:53:49.777560-07:00,0.199431,4.82,-0.71,-4.77,-0.01,15.31,975.1,22.41,23.0,0.0,-0.00222518,0.0202006,0.0172842,32.8213573,-111.78698,330.87265,-5.74518437,-0.484639825,0.017097111,,,,,,,,,,,,,,2022-11-16 18:53:49.777560+00:00
2022-11-16 11:53:49.977348-07:00,0.399219,5.22,-0.61,-5.18,-0.13,14.9,975.1,23.79,22.0,0.0,-0.00375556,0.040177,0.0345819,32.8213573,-111.78698,330.934845,-5.72333325,-0.482657079,0.0176757411,,,,,,,,,,,,,,2022-11-16 18:53:49.977348+00:00
2022-11-16 11:53:50.177643-07:00,0.599514,5.37,-0.26,-5.36,-0.2,14.6,975.11,24.25,21.0,0.0,-0.00300235,0.0530854,0.0387523,32.8213574,-111.78698,330.919464,-5.70306094,-0.486556735,0.0747237048,,,,,,,,,,,,,,2022-11-16 18:53:50.177643+00:00
2022-11-16 11:53:50.378275-07:00,0.800146,5.37,-0.46,-5.34,-0.09,14.68,975.09,23.34,22.0,0.0,-0.00455462,0.064765,0.0274253,32.8213575,-111.78698,330.89093,-5.68279844,-0.483076536,0.0390660571,,,,,,,,,,,,,,2022-11-16 18:53:50.378275+00:00
2022-11-16 11:53:50.577592-07:00,0.999463,5.57,-0.55,-5.54,-0.24,14.7,975.1,23.27,23.0,0.0,-0.00507647,0.0781619,0.0176159,32.8213576,-111.78698,330.887634,-5.66402828,-0.476186271,0.0801768154,,,,,,,,,,,,,,2022-11-16 18:53:50.577592+00:00
2022-11-16 11:53:50.777561-07:00,1.199432,4.95,-0.91,-4.87,-0.06,15.2,975.1,23.31,22.0,0.0,-0.00506988,0.0812455,0.00734208,32.8213576,-111.78698,330.857605,-5.64391635,-0.484148657,0.103102495,,,,,,,,,,,,,,2022-11-16 18:53:50.777561+00:00
2022-11-16 11:53:50.978336-07:00,1.400207,4.91,-1.18,-4.76,0.26,15.79,975.1,21.7,22.0,0.0,-0.00631656,0.089121,-0.00310368,32.8213577,-111.78698,330.859528,-5.62452629,-0.478489439,0.0759786531,2.0251,-5.95019,2892.42,29.2744,11515.0,0.368719,-1.0,23.0,-1317.0,82.0,,0.0,,2022-11-16 18:53:50.978336+00:00
2022-11-16 11:53:51.177438-07:00,1.599309,4.17,-1.14,-4.0,0.35,15.92,975.09,22.19,22.0,0.0,-0.004826,0.096281,0.00107762,32.8213577,-111.78698,330.873077,-5.60630091,-0.478915175,0.105433728,2.0251,-5.95019,2892.42,29.2744,11515.0,0.368719,-1.0,23.0,-1317.0,82.0,,0.0,,2022-11-16 18:53:51.177438+00:00
2022-11-16 11:53:51.378099-07:00,1.79997,4.77,-1.13,-4.64,-0.03,14.97,975.1,22.87,22.0,0.0,-0.00398162,0.101045,0.00603014,32.8213577,-111.78698,330.895416,-5.58470833,-0.485598756,0.130195697,,,,,,,,,,,,,,2022-11-16 18:53:51.378099+00:00
2022-11-16 11:53:51.578246-07:00,2.000117,4.11,-0.99,-3.98,0.17,15.45,975.09,22.96,24.0,0.0,-0.00455835,0.104236,0.0168082,32.8213578,-111.78698,330.903625,-5.56314875,-0.481796543,0.159208539,,,,,,,,,,,,,,2022-11-16 18:53:51.578246+00:00
2022-11-16 11:53:51.777705-07:00,2.199576,3.98,-1.08,-3.81,0.39,16.0,975.08,21.49,22.0,0.0,-0.00521357,0.105327,0.0253378,32.8213578,-111.78698,330.929291,-5.54822646,-0.475557474,0.142611269,,,,,,,,,,,,,,2022-11-16 18:53:51.777705+00:00
2022-11-16 11:53:51.977884-07:00,2.399755,4.79,-0.93,-4.7,0.17,15.08,975.1,22.71,21.0,0.0,-0.005835,0.110138,0.0270044,32.8213578,-111.78698,330.912964,-5.532865,-0.480150446,0.159434243,,,,,,,,,,,,,,2022-11-16 18:53:51.977884+00:00
2022-11-16 11:53:52.177714-07:00,2.599585,5.02,-1.24,-4.86,-0.11,14.48,975.1,23.62,21.0,0.0,-0.00758248,0.109852,0.0140639,32.8213578,-111.78698,330.880219,-5.51833833,-0.478971562,0.181800197,2.02133,-6.06836,2886.06,29.2738,11499.0,0.268663,-1.0,19.0,-1286.0,82.0,,0.0,,2022-11-16 18:53:52.177714+00:00
2022-11-16 11:53:52.378251-07:00,2.800122,4.9,-1.06,-4.78,0.01,14.68,975.09,23.31,22.0,0.0,-0.00868686,0.110856,0.00551671,32.8213578,-111.78698,330.87738,-5.49978807,-0.480566864,0.170776326,,,,,,,,,,,,,,2022-11-16 18:53:52.378251+00:00
2022-11-16 11:53:52.577895-07:00,2.999766,4.93,-0.84,-4.86,-0.01,15.0,975.11,22.83,23.0,0.0,-0.0088521,0.113894,0.00751456,32.8213578,-111.78698,330.89447,-5.4833004,-0.48212097,0.187111471,,,,,,,,,,,,,,2022-11-16 18:53:52.577895+00:00
2022-11-16 11:53:52.777979-07:00,3.19985,4.64,-1.12,-4.5,0.1,15.02,975.1,22.76,22.0,0.0,-0.00855378,0.11631,0.0138196,32.8213578,-111.78698,330.900635,-5.46539503,-0.480760206,0.22058688,,,,,,,,,,,,,,2022-11-16 18:53:52.777979+00:00
2022-11-16 11:53:52.977556-07:00,3.399427,4.92,-1.09,-4.8,-0.01,15.26,975.1,23.21,21.0,0.0,-0.0100585,0.117748,0.0211766,32.8213578,-111.78698,330.926971,-5.44747332,-0.48173618,0.227613638,,,,,,,,,,,,,,2022-11-16 18:53:52.977556+00:00
2022-11-16 11:53:53.177750-07:00,3.599621,4.49,-1.16,-4.33,0.19,15.59,975.1,22.73,21.0,0.0,-0.00407737,0.051828,0.0193326,32.8213578,-111.78698,330.901703,-5.4327426,-0.484790642,0.238920603,2.02261,-5.98651,2890.98,29.2741,11539.0,0.0472092,-1.0,19.0,-1306.0,82.0,,0.0,,2022-11-16 18:53:53.177750+00:00
2022-11-16 11:53:53.378081-07:00,3.799952,5.19,-1.22,-5.05,-0.06,14.82,975.1,23.9,23.0,0.0,-0.00196149,0.0221221,0.012936,32.8213578,-111.78698,330.889099,-5.41056134,-0.486305553,0.218928986,,,,,,,,,,,,,,2022-11-16 18:53:53.378081+00:00
2022-11-16 11:53:53.578161-07:00,4.000032,5.24,-1.48,-5.03,0.12,14.86,975.1,23.82,23.0,0.0,-0.00290317,0.0409774,0.00942515,32.8213578,-111.78698,330.88446,-5.39276404,-0.481736505,0.233446747,,,,,,,,,,,,,,2022-11-16 18:53:53.578161+00:00
2022-11-16 11:53:53.778046-07:00,4.199917,5.29,-1.38,-5.1,0.09,14.54,975.12,23.45,22.0,0.0,-0.0015477,0.0240728,0.00711048,32.8213578,-111.78698,330.881287,-5.37361769,-0.487091406,0.206003738,,,,,,,,,,,,,,2022-11-16 18:53:53.778046+00:00
2022-11-16 11:53:53.977823-07:00,4.399694,5.26,-1.42,-5.06,-0.04,14.7,975.11,23.27,21.0,0.0,-0.00311632,0.0346531,0.00578339,32.8213578,-111.78698,330.875977,-5.35875812,-0.484699921,0.206105872,,,,,,,,,,,,,,2022-11-16 18:53:53.977823+00:00
2022-11-16 11:53:54.178014-07:00,4.599885,5.41,-1.29,-5.25,-0.09,14.62,975.1,23.37,22.0,0.0,-0.00468406,0.0621662,0.00335308,32.8213578,-111.78698,330.866974,-5.34122815,-0.48792575,0.182718622,2.02287,-6.27152,2896.62,29.2732,11539.0,-0.0169877,-1.0,19.0,-1306.0,82.0,,0.0,,2022-11-16 18:53:54.178014+00:00
2022-11-16 11:53:54.377619-07:00,4.79949,5.08,-1.33,-4.89,0.25,14.9,975.11,22.91,23.0,0.0,-0.00746437,0.082677,0.0018075,32.8213578,-111.78698,330.861511,-5.32219521,-0.491196839,0.160702689,,,,,,,,,,,,,,2022-11-16 18:53:54.377619+00:00
2022-11-16 11:53:54.577637-07:00,4.999508,5.34,-1.57,-5.1,0.2,15.03,975.11,22.72,24.0,0.0,-0.00764537,0.0891225,0.000207845,32.8213579,-111.78698,330.858185,-5.31307446,-0.490087017,0.165100815,,,,,,,,,,,,,,2022-11-16 18:53:54.577637+00:00
2022-11-16 11:53:54.777911-07:00,5.199782,5.76,-1.65,-5.52,-0.02,14.57,975.1,23.44,23.0,0.0,-0.00884442,0.10148,7.29293e-05,32.8213579,-111.78698,330.855072,-5.2868638,-0.490987375,0.102604417,,,,,,,,,,,,,,2022-11-16 18:53:54.777911+00:00
2022-11-16 11:53:54.977798-07:00,5.399669,5.18,-1.58,-4.93,0.21,14.85,975.1,22.99,22.0,0.0,-0.0090585,0.113074,0.0083891,32.8213579,-111.78698,330.878876,-5.27418987,-0.49435978,0.125393142,,,,,,,,,,,,,,2022-11-16 18:53:54.977798+00:00
2022-11-16 11:53:55.178150-07:00,5.600021,5.5,-1.66,-5.25,0.16,14.97,975.12,23.58,21.0,0.0,-0.00934172,0.111735,0.0139222,32.821358,-111.78698,330.895233,-5.26566588,-0.488266597,0.144673939,2.02329,-6.7816,2897.16,29.2728,11497.0,-0.075401,-1.0,23.0,-1282.0,82.0,,0.0,,2022-11-16 18:53:55.178150+00:00
2022-11-16 11:53:55.378291-07:00,5.800162,5.12,-1.58,-4.86,0.3,15.15,975.12,22.5,22.0,0.0,-0.0106524,0.113998,0.026821,32.8213579,-111.78698,330.918793,-5.23097151,-0.492922097,0.0763645858,,,,,,,,,,,,,,2022-11-16 18:53:55.378291+00:00
2022-11-16 11:53:55.578114-07:00,5.999985,5.39,-1.63,-5.13,0.26,15.17,975.13,22.55,23.0,0.0,-0.0114192,0.116008,0.0277022,32.8213579,-111.78698,330.908752,-5.21824675,-0.499729528,0.124626118,,,,,,,,,,,,,,2022-11-16 18:53:55.578114+00:00
2022-11-16 11:53:55.777620-07:00,6.199491,5.32,-1.6,-5.06,0.26,15.4,975.11,22.22,22.0,0.0,-0.0103232,0.110854,0.0195379,32.8213579,-111.78698,330.891205,-5.20041135,-0.497417662,0.067364337,,,,,,,,,,,,,,2022-11-16 18:53:55.777620+00:00
2022-11-16 11:53:55.977519-07:00,6.39939,5.09,-1.5,-4.85,0.3,15.64,975.1,21.85,21.0,0.0,-0.0103142,0.113132,0.0122401,32.8213579,-111.78698,330.882111,-5.19471582,-0.504935246,0.0615838722,,,,,,,,,,,,,,2022-11-16 18:53:55.977519+00:00
2022-11-16 11:53:56.178156-07:00,6.600027,5.26,-1.71,-4.96,0.42,15.77,975.11,21.71,21.0,0.0,-0.0123904,0.108843,0.0130103,32.8213578,-111.78698,330.885742,-5.18287247,-0.501340095,0.0600131813,2.02135,-5.77955,2885.36,29.2718,11501.0,-0.108802,-1.0,18.0,-1257.0,82.0,,0.0,,2022-11-16 18:53:56.178156+00:00
2022-11-16 11:53:56.377699-07:00,6.79957,5.59,-1.76,-5.31,0.15,14.99,975.11,22.77,22.0,0.0,-0.010817,0.110448,0.0115876,32.8213577,-111.78698,330.88797,-5.15678546,-0.499030585,0.0180599193,,,,,,,,,,,,,,2022-11-16 18:53:56.377699+00:00
2022-11-16 11:53:56.577553-07:00,6.999424,5.86,-1.84,-5.57,0.04,14.4,975.11,23.66,24.0,0.0,-0.00907132,0.113268,0.00619095,32.8213577,-111.78698,330.862396,-5.14201283,-0.503671152,0.0602469286,,,,,,,,,,,,,,2022-11-16 18:53:56.577553+00:00
2022-11-16 11:53:56.777936-07:00,7.199807,5.46,-1.6,-5.22,0.01,14.88,975.12,22.98,23.0,0.0,-0.0103089,0.106231,0.00473615,32.8213577,-111.78698,330.868683,-5.11838764,-0.500451705,0.0463740213,,,,,,,,,,,,,,2022-11-16 18:53:56.777936+00:00
2022-11-16 11:53:56.978085-07:00,7.399956,5.08,-1.52,-4.85,0.15,14.92,975.11,22.88,22.0,0.0,-0.011182,0.111392,-0.00419889,32.8213577,-111.78698,330.838165,-5.10505067,-0.502033009,0.0294901034,2.0217,-6.12767,2878.12,29.2711,11539.0,-0.106008,-1.0,22.0,-1301.0,82.0,,0.0,,2022-11-16 18:53:56.978085+00:00
2022-11-16 11:53:57.177962-07:00,7.599833,5.24,-1.32,-5.07,-0.08,14.6,975.11,23.32,22.0,0.0,-0.0083243,0.106066,-0.0086801,32.8213577,-111.78698,330.847626,-5.09753452,-0.501820266,0.0766517408,,,,,,,,,,,,,,2022-11-16 18:53:57.177962+00:00
2022-11-16 11:53:57.377936-07:00,7.799807,5.05,-1.02,-4.94,0.13,14.6,975.11,23.36,22.0,0.0,-0.00832307,0.104794,-0.00335428,32.8213577,-111.78698,330.855316,-5.08129128,-0.509834567,0.0189195943,,,,,,,,,,,,,,2022-11-16 18:53:57.377936+00:00
2022-11-16 11:53:57.577781-07:00,7.999652,5.2,-1.37,-5.01,0.18,14.93,975.12,22.9,23.0,0.0,-0.00733726,0.105884,-0.000172533,32.8213576,-111.78698,330.853058,-5.06947885,-0.504677328,0.0516470027,,,,,,,,,,,,,,2022-11-16 18:53:57.577781+00:00
2022-11-16 11:53:57.777665-07:00,8.199536,5.5,-1.67,-5.24,0.05,14.64,975.11,23.33,22.0,0.0,-0.00929392,0.0988062,-0.0116894,32.8213576,-111.78698,330.816925,-5.05274819,-0.506918374,0.0234339178,,,,,,,,,,,,,,2022-11-16 18:53:57.777665+00:00
2022-11-16 11:53:57.978241-07:00,8.400112,5.48,-1.72,-5.21,-0.07,15.51,975.11,22.03,21.0,0.0,-0.0130269,0.102717,-0.0132928,32.8213575,-111.78698,330.821625,-5.03259205,-0.505794877,7.04229856e-05,2.02241,-6.80489,2886.52,29.2704,11529.0,-0.0998932,-1.0,17.0,-1305.0,82.0,,0.0,,2022-11-16 18:53:57.978241+00:00
2022-11-16 11:53:58.178084-07:00,8.599955,5.3,-1.63,-5.04,-0.04,15.11,975.09,22.6,21.0,0.0,-0.00969631,0.0991596,-0.0117059,32.8213575,-111.78698,330.817444,-5.01779165,-0.504787635,0.0593245725,,,,,,,,,,,,,,2022-11-16 18:53:58.178084+00:00
2022-11-16 11:53:58.378233-07:00,8.800104,4.84,-1.63,-4.56,0.16,15.08,975.11,22.6,21.0,0.0,-0.00999157,0.0939316,-0.00970004,32.8213575,-111.78698,330.831268,-5.00075857,-0.50567229,-0.0106196127,,,,,,,,,,,,,,2022-11-16 18:53:58.378233+00:00
2022-11-16 11:53:58.578247-07:00,9.000118,4.66,-1.65,-4.36,0.16,15.28,975.11,22.36,22.0,0.0,-0.0102111,0.0998826,-0.00228327,32.8213574,-111.78698,330.832977,-4.99090597,-0.50604528,0.0164180041,,,,,,,,,,,,,,2022-11-16 18:53:58.578247+00:00
2022-11-16 11:53:58.777760-07:00,9.199631,4.82,-1.61,-4.54,0.04,15.26,975.11,22.35,23.0,0.0,-0.00987551,0.0975024,-0.00287403,32.8213574,-111.78698,330.832245,-4.98285991,-0.504034715,0.0583901834,,,,,,,,,,,,,,2022-11-16 18:53:58.777760+00:00
2022-11-16 11:53:58.978301-07:00,9.400172,4.3,-1.58,-4.0,0.2,15.55,975.11,21.94,22.0,0.0,-0.012179,0.0993946,0.0100336,32.8213574,-111.78698,330.858826,-4.96213046,-0.507383517,-0.00389476697,2.02346,-6.58064,2877.62,29.2699,11512.0,-0.140018,-1.0,22.0,-1323.0,82.0,,0.0,,2022-11-16 18:53:58.978301+00:00
2022-11-16 11:53:59.178135-07:00,9.600006,4.17,-1.63,-3.82,0.38,15.7,975.1,21.67,21.0,0.0,-0.0123144,0.0991319,0.0202326,32.8213574,-111.78698,330.890533,-4.95413364,-0.50431908,0.0352765319,,,,,,,,,,,,,,2022-11-16 18:53:59.178135+00:00
2022-11-16 11:53:59.377446-07:00,9.799317,4.9,-1.58,-4.64,0.1,14.99,975.1,22.7,21.0,0.0,-0.0112733,0.0919136,0.0284593,32.8213574,-111.78698,330.900177,-4.93435194,-0.507231438,0.0278328986,,,,,,,,,,,,,,2022-11-16 18:53:59.377446+00:00
2022-11-16 11:53:59.578077-07:00,9.999948,4.78,-1.51,-4.53,0.06,15.08,975.1,22.65,23.0,0.0,-0.0115529,0.0938343,0.022879,32.8213574,-111.78698,330.879517,-4.91618781,-0.50851108,-0.00286041352,,,,,,,,,,,,,,2022-11-16 18:53:59.578077+00:00
2022-11-16 11:53:59.777878-07:00,10.199749,4.92,-1.46,-4.7,-0.03,15.04,975.09,22.64,22.0,0.0,-0.0124506,0.0921912,0.0164212,32.8213573,-111.78698,330.878632,-4.90057305,-0.507961063,0.0484349516,,,,,,,,,,,,,,2022-11-16 18:53:59.777878+00:00
2022-11-16 11:53:59.977642-07:00,10.399513,5.27,-1.66,-5.0,-0.11,14.97,975.1,22.7,21.0,0.0,-0.0116814,0.0895746,0.0152486,32.8213574,-111.78698,330.875122,-4.88735177,-0.512719814,0.0165256212,,,,,,,,,,,,,,2022-11-16 18:53:59.977642+00:00
2022-11-16 11:54:00.178216-07:00,10.600087,5.37,-1.44,-5.17,-0.24,14.43,975.09,23.57,21.0,0.0,-0.0115015,0.092515,0.00851273,32.8213574,-111.78698,330.858948,-4.87804919,-0.516061439,0.0381341896,,,,,,,,,,,,,,2022-11-16 18:54:00.178216+00:00
2022-11-16 11:54:00.377667-07:00,10.799538,5.13,-1.09,-5.01,-0.24,14.49,975.11,23.48,21.0,0.0,-0.0106835,0.0903357,0.00807516,32.8213574,-111.78698,330.864349,-4.87096824,-0.511396122,0.0502915097,,,,,,,,,,,,,,2022-11-16 18:54:00.377667+00:00
2022-11-16 11:54:00.577516-07:00,10.999387,4.65,-0.98,-4.54,-0.16,14.45,975.11,23.51,23.0,0.0,-0.00880808,0.092361,0.00684418,32.8213575,-111.78698,330.856781,-4.85740628,-0.516398194,0.036799601,,,,,,,,,,,,,,2022-11-16 18:54:00.577516+00:00
2022-11-16 11:54:00.777551-07:00,11.199422,4.5,-1.2,-4.34,-0.13,14.81,975.09,23.01,23.0,0.0,-0.0101534,0.0923958,-0.00201244,32.8213575,-111.78698,330.835449,-4.84272657,-0.519653694,0.0538874924,,,,,,,,,,,,,,2022-11-16 18:54:00.777551+00:00
2022-11-16 11:54:00.977409-07:00,11.39928,4.47,-2.17,-3.9,0.12,16.38,975.1,20.78,22.0,0.0,-0.0121389,0.0908845,0.00163063,32.8213575,-111.78698,330.851074,-4.81861738,-0.519989619,0.0508805938,,,,,,,,,,,,,,2022-11-16 18:54:00.977409+00:00
2022-11-16 11:54:01.177779-07:00,11.59965,4.4,-2.5,-3.62,0.03,16.36,975.07,20.83,22.0,0.0,-0.0080183,0.0661945,-0.000500123,32.8213575,-111.78698,330.839722,-4.80280758,-0.523321886,0.0578597563,,,,,,,,,,,,,,2022-11-16 18:54:01.177779+00:00
2022-11-16 11:54:01.377849-07:00,11.79972,4.23,-2.25,-3.58,0.14,15.85,975.09,21.49,22.0,0.0,-0.00296611,0.0223667,-0.000204448,32.8213575,-111.78698,330.837036,-4.79118074,-0.526595562,0.0786333846,,,,,,,,,,,,,,2022-11-16 18:54:01.377849+00:00
2022-11-16 11:54:01.577840-07:00,11.999711,4.72,-2.43,-4.05,0.09,15.46,975.09,22.0,24.0,0.0,-0.00229855,0.0127921,0.00146718,32.8213575,-111.78698,330.837311,-4.77423139,-0.522286506,0.0660347504,,,,,,,,,,,,,,2022-11-16 18:54:01.577840+00:00
2022-11-16 11:54:01.778172-07:00,12.200043,4.49,-2.32,-3.84,0.1,16.26,975.08,20.83,23.0,0.0,-0.00229719,0.0142486,0.00132863,32.8213575,-111.78698,330.837372,-4.77529834,-0.521374922,0.0509206144,,,,,,,,,,,,,,2022-11-16 18:54:01.778172+00:00
2022-11-16 11:54:01.977472-07:00,12.399343,4.93,-2.12,-4.45,0.07,15.57,975.09,21.87,22.0,0.0,-0.00183041,0.016394,0.00221484,32.8213574,-111.78698,330.845337,-4.75757028,-0.514129617,0.0123397023,,,,,,,,,,,,,,2022-11-16 18:54:01.977472+00:00
2022-11-16 11:54:02.177617-07:00,12.599488,4.69,-1.79,-4.32,0.35,15.27,975.1,22.27,21.0,0.0,-0.00267555,0.0283956,-3.54229e-06,32.8213574,-111.78698,330.834656,-4.74884231,-0.510573713,0.00526103993,2.01957,-6.39089,2878.6,29.2688,11465.0,-0.0204373,-1.0,21.0,-1307.0,82.0,,0.0,,2022-11-16 18:54:02.177617+00:00
2022-11-16 11:54:02.377417-07:00,12.799288,5.24,-2.0,-4.84,0.13,14.93,975.1,22.73,22.0,0.0,-0.0025362,0.0239358,-5.12485e-05,32.8213574,-111.78698,330.83847,-4.73130837,-0.509041448,-0.0560999545,,,,,,,,,,,,,,2022-11-16 18:54:02.377417+00:00
2022-11-16 11:54:02.578167-07:00,13.000038,5.81,-2.24,-5.36,0.02,14.23,975.11,23.81,23.0,0.0,-0.00383777,0.0391557,0.00249031,32.8213574,-111.78698,330.846497,-4.71334566,-0.513660302,-0.0639443377,,,,,,,,,,,,,,2022-11-16 18:54:02.578167+00:00
2022-11-16 11:54:02.777463-07:00,13.199334,5.86,-2.16,-5.45,-0.04,14.18,975.11,23.85,22.0,0.0,-0.00490919,0.0462422,0.00385335,32.8213574,-111.78698,330.841736,-4.69568586,-0.51397425,-0.0868243708,,,,,,,,,,,,,,2022-11-16 18:54:02.777463+00:00
2022-11-16 11:54:02.977871-07:00,13.399742,5.8,-2.05,-5.43,-0.14,14.29,975.1,23.75,21.0,0.0,-0.00441408,0.0564321,0.00293011,32.8213575,-111.78698,330.847107,-4.6810003,-0.518435659,-0.119288806,2.02036,-5.16178,2898.91,29.2684,11477.0,-0.153034,-1.0,17.0,-1285.0,82.0,,0.0,,2022-11-16 18:54:02.977871+00:00
2022-11-16 11:54:03.177993-07:00,13.599864,5.49,-1.94,-5.14,0.0,14.52,975.11,23.34,21.0,0.0,-0.00550373,0.0595563,-0.00037577,32.8213575,-111.78698,330.835388,-4.66895491,-0.518452637,-0.115469549,,,,,,,,,,,,,,2022-11-16 18:54:03.177993+00:00
2022-11-16 11:54:03.377783-07:00,13.799654,4.96,-1.71,-4.66,0.07,14.85,975.1,22.88,22.0,0.0,-0.00529365,0.0630628,-0.00115452,32.8213575,-111.78698,330.836395,-4.6553637,-0.516498258,-0.134684704,,,,,,,,,,,,,,2022-11-16 18:54:03.377783+00:00
2022-11-16 11:54:03.577413-07:00,13.999284,5.15,-2.09,-4.7,0.08,14.89,975.09,22.82,24.0,0.0,-0.00196355,0.0157792,0.000556584,32.8213575,-111.78698,330.843658,-4.63728831,-0.519544649,-0.131000835,,,,,,,,,,,,,,2022-11-16 18:54:03.577413+00:00
2022-11-16 11:54:03.777663-07:00,14.199534,5.43,-2.07,-5.02,-0.05,14.67,975.09,23.11,23.0,0.0,-0.001762,0.00961689,0.0012056,32.8213575,-111.78698,330.849091,-4.62188947,-0.517760383,-0.150054011,,,,,,,,,,,,,,2022-11-16 18:54:03.777663+00:00
2022-11-16 11:54:03.977320-07:00,14.399191,5.54,-2.01,-5.17,-0.13,14.41,975.09,23.5,22.0,0.0,-0.000803837,0.00969486,0.00140635,32.8213575,-111.78698,330.854858,-4.61282328,-0.516349495,-0.160552624,,,,,,,,,,,,,,2022-11-16 18:54:03.977320+00:00
2022-11-16 11:54:04.177522-07:00,14.599393,5.66,-1.92,-5.32,-0.26,14.37,975.11,23.52,21.0,0.0,-0.00186946,0.0098419,0.00213682,32.8213575,-111.78698,330.862122,-4.6033643,-0.524457383,-0.203485824,2.01956,-5.89484,2893.43,29.2679,11477.0,-0.212761,-1.0,17.0,-1285.0,82.0,,0.0,,2022-11-16 18:54:04.177522+00:00
2022-11-16 11:54:04.377411-07:00,14.799282,5.54,-1.95,-5.18,-0.19,14.37,975.1,23.5,23.0,0.0,-0.0020739,0.0111275,0.00231905,32.8213575,-111.78698,330.857147,-4.59428709,-0.518498985,-0.204441443,,,,,,,,,,,,,,2022-11-16 18:54:04.377411+00:00
2022-11-16 11:54:04.577682-07:00,14.999553,5.56,-1.92,-5.21,-0.24,14.36,975.09,23.51,23.0,0.0,-0.00174057,0.00880033,0.00158608,32.8213576,-111.78698,330.851959,-4.57831606,-0.523479422,-0.232526665,,,,,,,,,,,,,,2022-11-16 18:54:04.577682+00:00
2022-11-16 11:54:04.777484-07:00,15.199355,5.35,-2.08,-4.92,-0.16,14.35,975.1,23.55,23.0,0.0,-0.00248797,0.0129507,0.00193966,32.8213576,-111.78698,330.85556,-4.57386786,-0.523563393,-0.243624564,,,,,,,,,,,,,,2022-11-16 18:54:04.777484+00:00
2022-11-16 11:54:04.978090-07:00,15.399961,5.5,-1.77,-5.19,-0.34,14.36,975.1,23.54,22.0,0.0,-0.003411,0.0169719,0.00360972,32.8213575,-111.78698,330.861328,-4.55387971,-0.523366612,-0.228771204,,,,,,,,,,,,,,2022-11-16 18:54:04.978090+00:00
2022-11-16 11:54:05.177525-07:00,15.599396,5.49,-1.79,-5.19,-0.25,14.36,975.11,23.5,21.0,0.0,-0.00535028,0.0257656,0.00010806,32.8213575,-111.78698,330.84906,-4.54425704,-0.526090662,-0.277658949,2.02187,-6.31064,2871.33,29.2673,11529.0,-0.212987,-1.0,20.0,-1322.0,82.0,,0.0,,2022-11-16 18:54:05.177525+00:00
2022-11-16 11:54:05.377661-07:00,15.799532,5.3,-1.9,-4.94,-0.2,14.4,975.09,23.52,22.0,0.0,-0.00671077,0.0323485,-0.0012429,32.8213575,-111.78698,330.856873,-4.53309246,-0.525485987,-0.237270911,,,,,,,,,,,,,,2022-11-16 18:54:05.377661+00:00
2022-11-16 11:54:05.577784-07:00,15.999655,5.3,-1.88,-4.95,-0.23,14.4,975.1,23.51,23.0,0.0,-0.00758057,0.0332181,0.00306246,32.8213575,-111.78698,330.858795,-4.52080722,-0.521929512,-0.267917735,,,,,,,,,,,,,,2022-11-16 18:54:05.577784+00:00
2022-11-16 11:54:05.777931-07:00,16.199802,5.4,-1.66,-5.13,-0.3,14.41,975.11,23.47,22.0,0.0,-0.00693185,0.038562,-0.000523616,32.8213575,-111.78698,330.846039,-4.51352705,-0.527373915,-0.27235738,,,,,,,,,,,,,,2022-11-16 18:54:05.777931+00:00
2022-11-16 11:54:05.977743-07:00,16.399614,5.39,-1.83,-5.06,-0.25,14.39,975.09,23.42,22.0,0.0,-0.00686875,0.0372477,-0.000831311,32.8213575,-111.78698,330.852753,-4.5063336,-0.524688869,-0.261613349,,,,,,,,,,,,,,2022-11-16 18:54:05.977743+00:00
2022-11-16 11:54:06.177835-07:00,16.599706,5.28,-1.83,-4.95,-0.21,14.43,975.1,23.43,21.0,0.0,-0.00551173,0.0372883,0.000951908,32.8213576,-111.78698,330.851044,-4.49056237,-0.524958952,-0.284650692,,,,,,,,,,,,,,2022-11-16 18:54:06.177835+00:00
2022-11-16 11:54:06.377913-07:00,16.799784,5.09,-1.75,-4.77,-0.24,14.43,975.1,23.41,22.0,0.0,-0.00551007,0.035599,0.000767567,32.8213576,-111.78698,330.844635,-4.47922791,-0.529260654,-0.283748642,,,,,,,,,,,,,,2022-11-16 18:54:06.377913+00:00
2022-11-16 11:54:06.577452-07:00,16.999323,5.13,-1.91,-4.76,-0.14,14.41,975.1,23.46,22.0,0.0,-0.00651479,0.0330065,-0.00316943,32.8213576,-111.78698,330.830231,-4.47013623,-0.527661996,-0.290492498,,,,,,,,,,,,,,2022-11-16 18:54:06.577452+00:00
2022-11-16 11:54:06.778132-07:00,17.200003,5.19,-1.85,-4.84,-0.25,14.52,975.1,23.33,22.0,0.0,-0.00182936,0.00908493,-0.00620302,32.8213576,-111.78698,330.837372,-4.46157548,-0.523700579,-0.302542954,,,,,,,,,,,,,,2022-11-16 18:54:06.778132+00:00
2022-11-16 11:54:06.977449-07:00,17.39932,5.15,-1.59,-4.89,-0.34,14.46,975.1,23.35,21.0,0.0,-0.00133179,0.00491847,-0.00387293,32.8213576,-111.78698,330.831116,-4.45400844,-0.52478657,-0.300993254,,,,,,,,,,,,,,2022-11-16 18:54:06.977449+00:00
2022-11-16 11:54:07.178020-07:00,17.599891,5.22,-1.86,-4.87,-0.25,14.43,975.09,23.4,21.0,0.0,-0.00161398,0.00386817,-0.00248798,32.8213576,-111.78698,330.825195,-4.44037521,-0.51953702,-0.305332325,2.02284,-6.86487,2824.05,29.2656,11483.0,-0.201145,-1.0,22.0,-1287.0,81.0,,0.0,,2022-11-16 18:54:07.178020+00:00
2022-11-16 11:54:07.378108-07:00,17.799979,5.07,-1.92,-4.69,-0.21,14.48,975.08,23.3,22.0,0.0,-0.00103759,0.00484464,-0.00131259,32.8213576,-111.78698,330.8237,-4.4319065,-0.519466472,-0.312697031,,,,,,,,,,,,,,2022-11-16 18:54:07.378108+00:00
2022-11-16 11:54:07.578218-07:00,18.000089,4.97,-1.89,-4.59,-0.23,14.5,975.09,23.26,22.0,0.0,-0.000406475,0.00474201,7.36339e-05,32.8213577,-111.78698,330.826141,-4.41929052,-0.525119017,-0.314176269,,,,,,,,,,,,,,2022-11-16 18:54:07.578218+00:00
2022-11-16 11:54:07.777565-07:00,18.199436,5.12,-2.1,-4.67,-0.21,14.46,975.08,23.32,23.0,0.0,-0.00104546,0.00481554,0.00156421,32.8213577,-111.78698,330.825104,-4.40781402,-0.517597267,-0.322425877,,,,,,,,,,,,,,2022-11-16 18:54:07.777565+00:00
2022-11-16 11:54:07.977663-07:00,18.399534,5.18,-2.2,-4.69,-0.23,14.46,975.08,23.36,22.0,0.0,-0.000736313,0.004955,0.00249142,32.8213577,-111.78698,330.825562,-4.39717419,-0.523178591,-0.33118347,,,,,,,,,,,,,,2022-11-16 18:54:07.977663+00:00
2022-11-16 11:54:08.177456-07:00,18.599327,5.05,-1.9,-4.67,-0.26,14.52,975.07,23.23,22.0,0.0,-0.00142355,0.00465897,0.00210958,32.8213576,-111.78698,330.819031,-4.38861208,-0.524130013,-0.333441579,2.0219,-6.10709,2813.37,29.2666,11446.0,-0.337541,-1.0,21.0,-1270.0,81.0,,0.0,,2022-11-16 18:54:08.177456+00:00
2022-11-16 11:54:08.377693-07:00,18.799564,5.04,-1.94,-4.64,-0.29,14.47,975.09,23.27,22.0,0.0,-0.00127132,0.00321253,0.00180896,32.8213575,-111.78698,330.811615,-4.37921958,-0.5226606,-0.335771007,,,,,,,,,,,,,,2022-11-16 18:54:08.377693+00:00
2022-11-16 11:54:08.577869-07:00,18.99974,4.8,-1.9,-4.41,-0.21,14.53,975.08,23.21,22.0,0.0,-0.0014325,0.004285,0.00222484,32.8213573,-111.78698,330.810486,-4.36951505,-0.523815503,-0.341402276,,,,,,,,,,,,,,2022-11-16 18:54:08.577869+00:00
2022-11-16 11:54:08.777858-07:00,19.199729,4.74,-2.07,-4.26,-0.25,14.54,975.09,23.16,21.0,0.0,-0.00157908,0.00294377,0.00187401,32.8213572,-111.786979,330.803894,-4.36099848,-0.526902383,-0.3359336,,,,,,,,,,,,,,2022-11-16 18:54:08.777858+00:00
2022-11-16 11:54:08.978182-07:00,19.400053,4.87,-2.36,-4.26,-0.18,14.48,975.07,23.33,22.0,0.0,-0.00181533,0.00289626,0.001314,32.8213571,-111.786979,330.799896,-4.34989269,-0.523686158,-0.349040514,2.02208,-5.80471,2799.01,29.2642,11519.0,-0.337546,-1.0,17.0,-1293.0,81.0,,0.0,,2022-11-16 18:54:08.978182+00:00
2022-11-16 11:54:09.177924-07:00,19.599795,4.66,-2.08,-4.17,-0.22,14.52,975.07,23.18,21.0,0.0,-0.00107266,0.00341392,0.001209,32.821357,-111.786979,330.796051,-4.34382822,-0.524402792,-0.337205104,,,,,,,,,,,,,,2022-11-16 18:54:09.177924+00:00
2022-11-16 11:54:09.378099-07:00,19.79997,4.8,-2.15,-4.29,-0.19,14.5,975.09,23.26,21.0,0.0,-0.00147947,0.00216507,0.000699819,32.8213568,-111.786979,330.792206,-4.33617393,-0.525711598,-0.339570072,,,,,,,,,,,,,,2022-11-16 18:54:09.378099+00:00
2022-11-16 11:54:09.577346-07:00,19.999217,4.72,-2.46,-4.03,-0.18,14.59,975.07,23.13,23.0,0.0,-0.00105101,0.00271062,0.00146922,32.8213567,-111.786979,330.793213,-4.31840272,-0.51851887,-0.341500355,,,,,,,,,,,,,,2022-11-16 18:54:09.577346+00:00
2022-11-16 11:54:09.777439-07:00,20.19931,4.43,-2.37,-3.74,-0.17,14.63,975.06,22.99,22.0,0.0,-0.000729895,0.00184953,0.00170455,32.8213566,-111.786979,330.787537,-4.30348592,-0.515055351,-0.343395953,,,,,,,,,,,,,,2022-11-16 18:54:09.777439+00:00
2022-11-16 11:54:09.978153-07:00,20.400024,4.59,-2.28,-3.97,-0.16,14.54,975.07,23.16,22.0,0.0,-0.00133734,0.00243042,0.00151842,32.8213565,-111.786979,330.783905,-4.29340788,-0.509793805,-0.348730721,,,,,,,,,,,,,,2022-11-16 18:54:09.978153+00:00
2022-11-16 11:54:10.178015-07:00,20.599886,4.42,-2.26,-3.8,-0.17,14.55,975.07,23.11,22.0,0.0,-0.000460357,0.00141349,0.00213873,32.8213563,-111.786979,330.786591,-4.28577346,-0.510454423,-0.345998009,2.02355,-6.76107,2796.29,29.2642,11507.0,-0.364752,-1.0,22.0,-1301.0,81.0,,0.0,,2022-11-16 18:54:10.178015+00:00
2022-11-16 11:54:10.378039-07:00,20.79991,4.3,-2.68,-3.37,-0.04,14.66,975.06,22.95,22.0,0.0,-0.000506955,0.00199677,0.00229783,32.8213562,-111.786979,330.784637,-4.27702485,-0.515499169,-0.360291411,,,,,,,,,,,,,,2022-11-16 18:54:10.378039+00:00
2022-11-16 11:54:10.578291-07:00,21.000162,4.24,-2.56,-3.38,-0.14,14.65,975.05,22.96,22.0,0.0,-0.000802309,0.00105733,0.00152118,32.8213561,-111.786979,330.783966,-4.26766046,-0.511485836,-0.354618535,,,,,,,,,,,,,,2022-11-16 18:54:10.578291+00:00
2022-11-16 11:54:10.777449-07:00,21.19932,4.25,-2.39,-3.51,-0.22,14.62,975.04,23.04,23.0,0.0,-0.00058376,0.001305,0.00188918,32.821356,-111.786979,330.785645,-4.25609293,-0.508066864,-0.356263442,,,,,,,,,,,,,,2022-11-16 18:54:10.777449+00:00
2022-11-16 11:54:10.978189-07:00,21.40006,4.36,-2.27,-3.72,-0.2,14.64,975.07,22.98,21.0,0.0,-0.000309026,-0.000299719,0.0019673,32.8213559,-111.786979,330.782959,-4.24732233,-0.507335135,-0.366644149,2.02177,-6.11313,2790.03,29.2644,11467.0,-0.375629,-1.0,17.0,-1275.0,81.0,,0.0,,2022-11-16 18:54:10.978189+00:00
2022-11-16 11:54:11.177396-07:00,21.599267,4.4,-2.07,-3.88,-0.23,14.57,975.07,23.08,21.0,0.0,-0.000380901,0.000720893,0.00133091,32.8213558,-111.786979,330.780273,-4.23435433,-0.505383923,-0.386402739,2.02177,-6.11313,2790.03,29.2644,11467.0,-0.375629,-1.0,17.0,-1275.0,81.0,,0.0,,2022-11-16 18:54:11.177396+00:00
2022-11-16 11:54:11.377587-07:00,21.799458,4.37,-2.07,-3.84,-0.21,14.54,975.07,23.09,22.0,0.0,-0.000159967,7.68371e-06,0.000813987,32.8213557,-111.786979,330.779175,-4.22082443,-0.506747048,-0.375314909,,,,,,,,,,,,,,2022-11-16 18:54:11.377587+00:00
2022-11-16 11:54:11.577439-07:00,21.99931,4.17,-2.18,-3.56,-0.16,14.66,975.06,22.91,23.0,0.0,-0.000100754,0.000103813,0.00165694,32.8213557,-111.786979,330.784119,-4.21167021,-0.50577656,-0.387922224,,,,,,,,,,,,,,2022-11-16 18:54:11.577439+00:00
2022-11-16 11:54:11.777606-07:00,22.199477,3.76,-2.02,-3.16,-0.17,14.67,975.06,22.94,23.0,0.0,-0.000399026,0.000482727,0.001794,32.8213557,-111.786979,330.782166,-4.2104072,-0.506565,-0.377806914,,,,,,,,,,,,,,2022-11-16 18:54:11.777606+00:00
2022-11-16 11:54:11.978078-07:00,22.399949,3.8,-2.17,-3.12,-0.13,14.66,975.07,22.92,23.0,0.0,-0.000344928,-0.000725929,-0.000239009,32.8213555,-111.786979,330.77533,-4.19900542,-0.499358665,-0.391718883,2.02406,-6.87122,2788.84,29.2626,11525.0,-0.378762,-1.0,21.0,-1290.0,81.0,,0.0,,2022-11-16 18:54:11.978078+00:00
2022-11-16 11:54:12.178040-07:00,22.599911,3.65,-2.1,-2.98,-0.14,14.63,975.06,22.95,21.0,0.0,0.000198348,0.000859187,0.00086745,32.8213554,-111.786978,330.777344,-4.19280671,-0.498227541,-0.389199205,,,,,,,,,,,,,,2022-11-16 18:54:12.178040+00:00
2022-11-16 11:54:12.377430-07:00,22.799301,3.87,-2.18,-3.2,-0.13,14.59,975.06,23.01,22.0,0.0,0.000189711,-0.000748848,0.000564296,32.8213554,-111.786978,330.771942,-4.18555894,-0.497924055,-0.38097299,,,,,,,,,,,,,,2022-11-16 18:54:12.377430+00:00
2022-11-16 11:54:12.577929-07:00,22.9998,3.89,-1.81,-3.43,-0.19,14.58,975.07,23.07,22.0,0.0,6.35243e-05,-0.000873998,0.00050626,32.8213553,-111.786978,330.769806,-4.17519581,-0.495118287,-0.400459253,,,,,,,,,,,,,,2022-11-16 18:54:12.577929+00:00
2022-11-16 11:54:12.777888-07:00,23.199759,3.96,-2.04,-3.38,-0.19,14.6,975.08,22.96,23.0,0.0,-0.00017087,0.000198498,0.000279013,32.8213553,-111.786978,330.770874,-4.1699763,-0.497091276,-0.408491141,,,,,,,,,,,,,,2022-11-16 18:54:12.777888+00:00
2022-11-16 11:54:12.977652-07:00,23.399523,3.82,-1.91,-3.31,-0.17,14.61,975.07,22.96,22.0,0.0,-0.000156487,-0.000690789,0.00126529,32.8213551,-111.786978,330.777771,-4.15938845,-0.500563476,-0.38879456,2.02524,-6.24193,2793.31,29.2633,11459.0,-0.35838,-1.0,18.0,-1277.0,81.0,,0.0,,2022-11-16 18:54:12.977652+00:00
2022-11-16 11:54:13.178212-07:00,23.600083,3.85,-1.81,-3.39,-0.29,14.62,975.08,22.94,21.0,0.0,-0.000265094,-0.00219139,0.000433922,32.8213551,-111.786978,330.77478,-4.14928975,-0.500981725,-0.397204615,,,,,,,,,,,,,,2022-11-16 18:54:13.178212+00:00
2022-11-16 11:54:13.377359-07:00,23.79923,3.88,-2.0,-3.29,-0.44,14.67,975.07,22.87,23.0,0.0,-7.08754e-06,0.000407511,0.000401532,32.821355,-111.786978,330.772919,-4.14342682,-0.49729668,-0.397889812,,,,,,,,,,,,,,2022-11-16 18:54:13.377359+00:00
2022-11-16 11:54:13.577408-07:00,23.999279,3.64,-1.88,-3.07,-0.52,14.74,975.06,22.79,23.0,0.0,0.000141055,-0.00150095,0.000952773,32.8213549,-111.786978,330.774994,-4.13572192,-0.4949185,-0.367924489,,,,,,,,,,,,,,2022-11-16 18:54:13.577408+00:00
2022-11-16 11:54:13.778088-07:00,24.199959,3.25,-1.37,-2.86,-0.71,14.65,975.05,22.93,22.0,0.0,-0.000257341,-0.000808463,0.00123873,32.8213548,-111.786978,330.776947,-4.12419656,-0.490691828,-0.386274163,,,,,,,,,,,,,,2022-11-16 18:54:13.778088+00:00
2022-11-16 11:54:13.977955-07:00,24.399826,3.12,-1.85,-2.49,-0.29,14.77,975.04,22.68,22.0,0.0,-5.57162e-05,4.99856e-05,0.00124763,32.8213548,-111.786978,330.780365,-4.11162419,-0.4902494,-0.365497321,2.02096,-6.59434,2791.06,29.2629,11502.0,-0.289425,-1.0,16.0,-1272.0,81.0,,0.0,,2022-11-16 18:54:13.977955+00:00
2022-11-16 11:54:14.177622-07:00,24.599493,3.21,-2.06,-2.46,-0.13,14.62,975.06,22.9,21.0,0.0,0.000452564,-0.00166134,0.0015578,32.8213547,-111.786978,330.779785,-4.09989907,-0.488520419,-0.349859111,,,,,,,,,,,,,,2022-11-16 18:54:14.177622+00:00
2022-11-16 11:54:14.378062-07:00,24.799933,3.0,-1.93,-2.29,-0.18,14.67,975.06,22.87,22.0,0.0,0.000236821,-0.00164934,0.00062517,32.8213546,-111.786978,330.778198,-4.09005767,-0.489785349,-0.358759018,,,,,,,,,,,,,,2022-11-16 18:54:14.378062+00:00
2022-11-16 11:54:14.578148-07:00,25.000019,3.22,-2.06,-2.47,-0.17,14.74,975.05,22.73,23.0,0.0,0.000106999,-0.00064777,0.000241051,32.8213546,-111.786978,330.776581,-4.08292599,-0.49130879,-0.36453219,,,,,,,,,,,,,,2022-11-16 18:54:14.578148+00:00
2022-11-16 11:54:14.778174-07:00,25.200045,3.43,-1.94,-2.82,-0.18,14.68,975.05,22.85,23.0,0.0,0.000254287,-0.000747079,0.000263049,32.8213546,-111.786978,330.77478,-4.07888334,-0.491772056,-0.358354828,,,,,,,,,,,,,,2022-11-16 18:54:14.778174+00:00
2022-11-16 11:54:14.977796-07:00,25.399667,3.52,-1.65,-3.11,-0.19,14.68,975.07,22.78,22.0,0.0,6.31766e-05,-0.000717726,-0.000124915,32.8213545,-111.786978,330.767731,-4.06419023,-0.495802176,-0.378303395,2.02205,-6.2961,2792.92,29.2615,11529.0,-0.28232,-1.0,19.0,-1303.0,81.0,,0.0,,2022-11-16 18:54:14.977796+00:00
2022-11-16 11:54:15.178203-07:00,25.600074,3.58,-1.47,-3.26,-0.2,14.66,975.06,22.8,22.0,0.0,-8.13008e-05,-0.000364633,1.10748e-05,32.8213545,-111.786978,330.762543,-4.0559398,-0.501081458,-0.371390722,,,,,,,,,,,,,,2022-11-16 18:54:15.178203+00:00
2022-11-16 11:54:15.378276-07:00,25.800147,3.47,-1.69,-3.03,-0.25,14.79,975.06,22.62,21.0,0.0,0.000698579,-0.0025499,-4.32464e-05,32.8213544,-111.786978,330.75946,-4.04710549,-0.504835247,-0.371915457,,,,,,,,,,,,,,2022-11-16 18:54:15.378276+00:00
2022-11-16 11:54:15.578282-07:00,26.000153,3.42,-1.3,-3.16,-0.22,15.0,975.08,22.34,23.0,0.0,-0.000120393,-0.000239732,-9.6292e-05,32.8213543,-111.786978,330.754028,-4.03835627,-0.5033259,-0.387747223,,,,,,,,,,,,,,2022-11-16 18:54:15.578282+00:00
2022-11-16 11:54:15.777853-07:00,26.199724,3.21,-1.33,-2.92,-0.17,14.87,975.07,22.54,23.0,0.0,8.41459e-05,1.25187e-05,0.000198974,32.8213543,-111.786978,330.754669,-4.03410087,-0.503255912,-0.376190686,,,,,,,,,,,,,,2022-11-16 18:54:15.777853+00:00
2022-11-16 11:54:15.977695-07:00,26.399566,3.31,-1.29,-3.05,-0.12,14.75,975.09,22.68,22.0,0.0,-0.000327883,-0.000946055,0.00106044,32.8213542,-111.786978,330.752014,-4.02410348,-0.499937854,-0.378914203,,,,,,,,,,,,,,2022-11-16 18:54:15.977695+00:00
2022-11-16 11:54:16.178219-07:00,26.60009,3.37,-1.35,-3.08,-0.17,14.76,975.08,22.69,22.0,0.0,-0.000157922,-0.00116271,0.00174372,32.8213542,-111.786978,330.757477,-4.01154554,-0.498437977,-0.367747167,,,,,,,,,,,,,,2022-11-16 18:54:16.178219+00:00
2022-11-16 11:54:16.377546-07:00,26.799417,3.07,-1.16,-2.84,-0.08,14.87,975.08,22.51,21.0,0.0,0.00014529,-0.00140697,0.00172977,32.8213541,-111.786978,330.754913,-4.00453467,-0.498004353,-0.368898344,,,,,,,,,,,,,,2022-11-16 18:54:16.377546+00:00
2022-11-16 11:54:16.577427-07:00,26.999298,2.37,-0.6,-2.29,0.16,15.36,975.08,21.81,22.0,0.0,0.00041636,-0.00107071,0.00156693,32.821354,-111.786978,330.754364,-3.99481585,-0.501641793,-0.360722335,,,,,,,,,,,,,,2022-11-16 18:54:16.577427+00:00
2022-11-16 11:54:16.777905-07:00,27.199776,2.11,-0.56,-2.03,0.12,14.86,975.06,22.52,22.0,0.0,0.000367694,-0.00083302,0.00109944,32.821354,-111.786978,330.751953,-3.99171497,-0.50229362,-0.360519,,,,,,,,,,,,,,2022-11-16 18:54:16.777905+00:00
2022-11-16 11:54:16.977352-07:00,27.399223,1.82,0.03,-1.82,0.03,14.68,975.08,22.75,22.0,0.0,-0.000933747,-0.000252271,0.00245133,32.8213539,-111.786978,330.751678,-3.9821909,-0.502874095,-0.345983814,,,,,,,,,,,,,,2022-11-16 18:54:16.977352+00:00
2022-11-16 11:54:17.178067-07:00,27.599938,2.61,-0.49,-2.57,-0.06,14.77,975.08,22.65,21.0,0.0,-0.00061661,-0.00075897,0.00192786,32.8213538,-111.786978,330.749054,-3.9754575,-0.503806248,-0.341429944,,,,,,,,,,,,,,2022-11-16 18:54:17.178067+00:00
2022-11-16 11:54:17.378325-07:00,27.800196,2.9,-0.47,-2.86,-0.11,14.75,975.08,22.61,22.0,0.0,-7.96594e-05,-0.00107766,0.000767148,32.8213537,-111.786978,330.744354,-3.9659015,-0.504737273,-0.344536348,,,,,,,,,,,,,,2022-11-16 18:54:17.378325+00:00
2022-11-16 11:54:17.578266-07:00,28.000137,2.54,-0.73,-2.43,-0.09,14.84,975.06,22.52,23.0,0.0,-0.000146019,-0.0013524,0.000352238,32.8213536,-111.786978,330.743134,-3.96185028,-0.500891869,-0.346141472,,,,,,,,,,,,,,2022-11-16 18:54:17.578266+00:00
2022-11-16 11:54:17.777364-07:00,28.199235,2.47,-0.66,-2.38,0.04,14.82,975.07,22.51,22.0,0.0,0.000171791,-0.0013071,0.000788798,32.8213535,-111.786977,330.739838,-3.95362283,-0.502028738,-0.349658524,,,,,,,,,,,,,,2022-11-16 18:54:17.777364+00:00
2022-11-16 11:54:17.978226-07:00,28.400097,2.35,-0.54,-2.28,0.12,14.87,975.06,22.47,21.0,0.0,-0.00033827,-0.00101501,-0.0002006,32.8213535,-111.786977,330.73764,-3.94616848,-0.499727245,-0.344494833,2.0238,-6.27476,2792.67,29.2589,11471.0,-0.31411,-1.0,19.0,-1281.0,81.0,,0.0,,2022-11-16 18:54:17.978226+00:00
2022-11-16 11:54:18.177612-07:00,28.599483,2.23,-0.48,-2.17,0.16,15.11,975.07,22.02,21.0,0.0,9.5221e-05,-0.00218639,0.00088229,32.8213534,-111.786977,330.741486,-3.93660152,-0.49711666,-0.344615484,2.0238,-6.27476,2792.67,29.2589,11471.0,-0.31411,-1.0,19.0,-1281.0,81.0,,0.0,,2022-11-16 18:54:18.177612+00:00
2022-11-16 11:54:18.377482-07:00,28.799353,2.22,-0.47,-2.16,0.21,15.04,975.07,22.19,22.0,0.0,-0.000239311,-0.00131219,0.00189969,32.8213533,-111.786977,330.745544,-3.92753092,-0.498194033,-0.359229296,,,,,,,,,,,,,,2022-11-16 18:54:18.377482+00:00
2022-11-16 11:54:18.577866-07:00,28.999737,2.17,-0.44,-2.11,0.26,15.42,975.07,21.68,22.0,0.0,-0.000203934,-0.00160652,0.0015463,32.8213531,-111.786977,330.743988,-3.9234463,-0.498633594,-0.350589315,,,,,,,,,,,,,,2022-11-16 18:54:18.577866+00:00
2022-11-16 11:54:18.778142-07:00,29.200013,2.37,-0.4,-2.31,0.32,15.26,975.07,21.88,22.0,0.0,-4.4799e-05,-0.00121907,0.000954512,32.821353,-111.786977,330.744263,-3.91757579,-0.499152161,-0.357768781,,,,,,,,,,,,,,2022-11-16 18:54:18.778142+00:00
2022-11-16 11:54:18.977385-07:00,29.399256,2.44,-0.48,-2.36,0.38,15.37,975.07,21.69,21.0,0.0,0.000108699,-0.000995985,0.000120102,32.8213529,-111.786977,330.742706,-3.90825344,-0.499727912,-0.353590973,,,,,,,,,,,,,,2022-11-16 18:54:18.977385+00:00
2022-11-16 11:54:19.177952-07:00,29.599823,2.3,-0.64,-2.19,0.26,15.38,975.07,21.72,21.0,0.0,-0.000391312,-0.000906633,-0.00049726,32.8213528,-111.786977,330.741272,-3.90051164,-0.498294619,-0.361061637,2.0232,-6.25352,2797.61,29.2583,11487.0,-0.309914,-1.0,16.0,-1274.0,81.0,,0.0,,2022-11-16 18:54:19.177952+00:00
2022-11-16 11:54:19.377400-07:00,29.799271,2.44,-0.55,-2.36,0.24,15.18,975.08,22.02,21.0,0.0,0.000266989,-0.00154136,0.000234094,32.8213527,-111.786977,330.741882,-3.89030918,-0.497293831,-0.360826231,,,,,,,,,,,,,,2022-11-16 18:54:19.377400+00:00
2022-11-16 11:54:19.578170-07:00,30.000041,2.5,-0.3,-2.48,0.18,15.05,975.08,22.13,23.0,0.0,6.13603e-05,-0.000616832,-0.000772629,32.8213527,-111.786977,330.737915,-3.87859618,-0.500375708,-0.359059579,,,,,,,,,,,,,,2022-11-16 18:54:19.578170+00:00
2022-11-16 11:54:19.777532-07:00,30.199403,2.75,-0.45,-2.72,-0.09,14.9,975.07,22.39,22.0,0.0,0.000485147,-0.00163539,-0.00128353,32.8213526,-111.786977,330.738525,-3.87307904,-0.500621797,-0.356394712,,,,,,,,,,,,,,2022-11-16 18:54:19.777532+00:00
2022-11-16 11:54:19.977860-07:00,30.399731,2.84,-0.35,-2.82,-0.07,14.92,975.08,22.39,21.0,0.0,6.65075e-05,-0.00216837,-0.00132354,32.8213526,-111.786977,330.738098,-3.86359231,-0.502364566,-0.366291506,,,,,,,,,,,,,,2022-11-16 18:54:19.977860+00:00
2022-11-16 11:54:20.177768-07:00,30.599639,2.68,-0.42,-2.64,0.0,15.04,975.07,22.16,21.0,0.0,-0.000342796,-0.00076066,-0.000196518,32.8213525,-111.786977,330.737091,-3.85475477,-0.499759928,-0.36384238,2.02119,-6.55961,2807.27,29.2574,11531.0,-0.281107,-1.0,18.0,-1307.0,81.0,,0.0,,2022-11-16 18:54:20.177768+00:00
2022-11-16 11:54:20.378192-07:00,30.800063,2.59,-0.43,-2.55,0.07,15.13,975.06,22.07,22.0,0.0,1.17544e-05,-0.00121487,0.000501792,32.8213524,-111.786977,330.736603,-3.84578062,-0.497546251,-0.355252528,,,,,,,,,,,,,,2022-11-16 18:54:20.378192+00:00
2022-11-16 11:54:20.578260-07:00,31.000131,2.86,-0.67,-2.78,0.13,15.19,975.07,21.94,22.0,0.0,0.000243913,-0.00115792,0.000581864,32.8213522,-111.786977,330.738617,-3.83826712,-0.496925763,-0.365314102,,,,,,,,,,,,,,2022-11-16 18:54:20.578260+00:00
2022-11-16 11:54:20.777489-07:00,31.19936,3.04,-0.81,-2.92,0.15,15.29,975.07,21.87,22.0,0.0,0.000222908,-0.00113933,0.00183766,32.8213522,-111.786977,330.742065,-3.83007544,-0.49611526,-0.359581565,,,,,,,,,,,,,,2022-11-16 18:54:20.777489+00:00
2022-11-16 11:54:20.978165-07:00,31.400036,3.07,-0.67,-2.99,0.18,15.35,975.07,21.71,21.0,0.0,1.90141e-05,-0.00137876,0.00135852,32.8213522,-111.786977,330.739227,-3.81984221,-0.494673,-0.359428096,,,,,,,,,,,,,,2022-11-16 18:54:20.978165+00:00
2022-11-16 11:54:21.177998-07:00,31.599869,3.04,-0.54,-2.99,0.1,15.29,975.08,21.84,22.0,0.0,0.000247018,-0.00084065,-0.00114931,32.8213521,-111.786977,330.733063,-3.80842975,-0.499751323,-0.355703356,,,,,,,,,,,,,,2022-11-16 18:54:21.177998+00:00
2022-11-16 11:54:21.377877-07:00,31.799748,2.69,-0.8,-2.55,0.31,15.66,975.09,21.26,22.0,0.0,-0.000263781,-0.000138559,-0.00133439,32.821352,-111.786977,330.72934,-3.7988976,-0.500858193,-0.353514478,,,,,,,,,,,,,,2022-11-16 18:54:21.377877+00:00
2022-11-16 11:54:21.577395-07:00,31.999266,2.64,-0.5,-2.58,0.21,15.75,975.07,21.16,22.0,0.0,-1.90007e-05,-0.00171544,-0.000809546,32.8213519,-111.786977,330.731689,-3.78917909,-0.502550434,-0.357244207,,,,,,,,,,,,,,2022-11-16 18:54:21.577395+00:00
2022-11-16 11:54:21.777661-07:00,32.199532,2.54,-0.44,-2.48,0.32,15.84,975.08,21.05,22.0,0.0,-0.000173147,-1.56299e-05,-0.000139734,32.8213517,-111.786977,330.734589,-3.78176461,-0.503257668,-0.367833853,,,,,,,,,,,,,,2022-11-16 18:54:21.777661+00:00
2022-11-16 11:54:21.977676-07:00,32.399547,2.86,-0.62,-2.79,0.1,15.46,975.08,21.5,21.0,0.0,0.000337294,-0.00150803,-0.000280965,32.8213517,-111.786977,330.734344,-3.77538787,-0.505083668,-0.351981125,,,,,,,,,,,,,,2022-11-16 18:54:21.977676+00:00
2022-11-16 11:54:22.177716-07:00,32.599587,3.09,-0.49,-3.05,-0.04,15.39,975.08,21.7,21.0,0.0,9.1278e-05,-0.00093031,-0.000109608,32.8213517,-111.786977,330.735779,-3.76500541,-0.504612077,-0.352634381,2.02297,-7.01315,2813.44,29.2562,11522.0,-0.381964,-1.0,14.0,-1292.0,81.0,,0.0,,2022-11-16 18:54:22.177716+00:00
2022-11-16 11:54:22.378012-07:00,32.799883,2.84,-0.22,-2.82,0.18,15.28,975.06,21.78,22.0,0.0,-4.42155e-05,-0.00133942,0.00049572,32.8213516,-111.786977,330.735107,-3.75817382,-0.502688134,-0.355295031,,,,,,,,,,,,,,2022-11-16 18:54:22.378012+00:00
2022-11-16 11:54:22.577564-07:00,32.999435,2.4,0.3,-2.33,0.5,15.22,975.06,21.89,23.0,0.0,8.14084e-06,9.65639e-05,0.000623301,32.8213515,-111.786977,330.73526,-3.74851993,-0.507428074,-0.354630622,,,,,,,,,,,,,,2022-11-16 18:54:22.577564+00:00
2022-11-16 11:54:22.778142-07:00,33.200013,2.98,-0.33,-2.96,0.04,15.37,975.07,21.63,22.0,0.0,-0.00018839,-0.00011993,0.00164825,32.8213514,-111.786977,330.737915,-3.74230613,-0.507765407,-0.343054571,,,,,,,,,,,,,,2022-11-16 18:54:22.778142+00:00
2022-11-16 11:54:22.977714-07:00,33.399585,2.94,-0.62,-2.87,0.09,15.57,975.06,21.38,22.0,0.0,4.81619e-05,-0.00032668,0.000781378,32.8213514,-111.786977,330.733948,-3.73293652,-0.508738144,-0.344606839,,,,,,,,,,,,,,2022-11-16 18:54:22.977714+00:00
2022-11-16 11:54:23.177693-07:00,33.599564,2.52,-0.14,-2.5,0.26,15.39,975.07,21.6,21.0,0.0,-0.000129655,-0.000125225,0.000633412,32.8213514,-111.786977,330.734589,-3.72575106,-0.50833236,-0.334329252,2.01963,-6.25731,2821.5,29.2555,11522.0,-0.358298,-1.0,14.0,-1292.0,81.0,,0.0,,2022-11-16 18:54:23.177693+00:00
2022-11-16 11:54:23.378104-07:00,33.799975,1.91,0.21,-1.85,0.45,15.4,975.07,21.61,22.0,0.0,0.000483323,-0.00144813,0.0010663,32.8213513,-111.786977,330.737,-3.71626555,-0.507322074,-0.32005926,,,,,,,,,,,,,,2022-11-16 18:54:23.378104+00:00
2022-11-16 11:54:23.577907-07:00,33.999778,2.26,-0.37,-2.21,0.32,15.77,975.07,21.14,23.0,0.0,-0.000281346,-0.000127325,0.000598433,32.8213512,-111.786977,330.730865,-3.70912415,-0.502765451,-0.326589451,,,,,,,,,,,,,,2022-11-16 18:54:23.577907+00:00
2022-11-16 11:54:23.777419-07:00,34.19929,2.7,-0.51,-2.65,0.14,15.62,975.08,21.31,23.0,0.0,0.00011632,-0.000656754,-0.00038184,32.8213512,-111.786977,330.728241,-3.70418452,-0.504275286,-0.316273729,,,,,,,,,,,,,,2022-11-16 18:54:23.777419+00:00
2022-11-16 11:54:23.977456-07:00,34.399327,2.73,-0.27,-2.69,0.32,15.52,975.08,21.39,21.0,0.0,-0.000126455,-0.000176615,-0.00012834,32.8213511,-111.786977,330.73175,-3.69484534,-0.499176771,-0.324345031,,,,,,,,,,,,,,2022-11-16 18:54:23.977456+00:00
2022-11-16 11:54:24.177505-07:00,34.599376,3.15,-0.05,-3.15,0.04,14.9,975.08,22.25,21.0,0.0,-0.000249579,0.000249032,0.000438183,32.821351,-111.786977,330.73175,-3.6897334,-0.501012507,-0.316625062,2.02073,-6.21741,2837.52,29.2548,11474.0,-0.374477,-1.0,20.0,-1302.0,81.0,,0.0,,2022-11-16 18:54:24.177505+00:00
2022-11-16 11:54:24.377896-07:00,34.799767,2.37,0.41,-2.29,0.45,14.84,975.07,22.38,22.0,0.0,-0.000440979,0.000118543,0.00015599,32.821351,-111.786977,330.726105,-3.67952784,-0.50430975,-0.309705977,,,,,,,,,,,,,,2022-11-16 18:54:24.377896+00:00
2022-11-16 11:54:24.577879-07:00,34.99975,2.47,0.04,-2.47,0.1,14.83,975.08,22.42,23.0,0.0,0.000150787,-0.000665966,-0.000186669,32.8213509,-111.786977,330.725891,-3.67305284,-0.506700831,-0.309028712,,,,,,,,,,,,,,2022-11-16 18:54:24.577879+00:00
2022-11-16 11:54:24.777757-07:00,35.199628,2.5,0.05,-2.49,0.14,14.89,975.07,22.33,24.0,0.0,-0.000415694,0.000331574,-2.98535e-05,32.8213508,-111.786976,330.724701,-3.66081824,-0.508855168,-0.308974896,,,,,,,,,,,,,,2022-11-16 18:54:24.777757+00:00
2022-11-16 11:54:24.977570-07:00,35.399441,2.36,0.16,-2.32,0.39,14.86,975.08,22.37,22.0,0.0,-0.000495656,-7.5046e-05,-0.000229275,32.8213508,-111.786976,330.726715,-3.65360796,-0.504790254,-0.306184617,,,,,,,,,,,,,,2022-11-16 18:54:24.977570+00:00
2022-11-16 11:54:25.177765-07:00,35.599636,2.45,-0.31,-2.43,-0.01,14.95,975.07,22.19,21.0,0.0,-0.000196139,0.000162556,0.000409473,32.8213507,-111.786976,330.729034,-3.64553418,-0.503454134,-0.299537203,2.02133,-5.95415,2847.46,29.255,11477.0,-0.388491,-1.0,15.0,-1288.0,81.0,,0.0,,2022-11-16 18:54:25.177765+00:00
2022-11-16 11:54:25.378251-07:00,35.800122,2.28,-0.37,-2.25,0.07,15.14,975.08,21.94,22.0,0.0,-0.000516095,-0.000153261,0.00109577,32.8213507,-111.786976,330.731934,-3.64202127,-0.501977067,-0.300257744,,,,,,,,,,,,,,2022-11-16 18:54:25.378251+00:00
2022-11-16 11:54:25.577836-07:00,35.999707,2.39,-0.54,-2.33,0.14,15.1,975.08,22.03,23.0,0.0,-0.000270023,-0.00109473,0.00142783,32.8213506,-111.786976,330.732147,-3.63144248,-0.505194005,-0.307345259,,,,,,,,,,,,,,2022-11-16 18:54:25.577836+00:00
2022-11-16 11:54:25.777608-07:00,36.199479,2.34,-0.61,-2.26,0.07,15.22,975.07,21.87,23.0,0.0,-0.000480899,-0.0007469,0.00109772,32.8213505,-111.786976,330.729706,-3.62651896,-0.508099707,-0.311254185,,,,,,,,,,,,,,2022-11-16 18:54:25.777608+00:00
2022-11-16 11:54:25.977390-07:00,36.399261,2.1,-0.66,-1.98,0.21,15.58,975.08,21.36,22.0,0.0,-0.000399636,-0.000997752,0.000833382,32.8213505,-111.786976,330.73056,-3.61796025,-0.51053655,-0.308763878,,,,,,,,,,,,,,2022-11-16 18:54:25.977390+00:00
2022-11-16 11:54:26.177702-07:00,36.599573,1.99,-0.6,-1.89,0.17,15.58,975.06,21.37,21.0,0.0,-5.93242e-05,-0.000592218,0.000404072,32.8213504,-111.786976,330.730682,-3.61103961,-0.513948516,-0.313862823,2.02059,-6.97542,2848.55,29.2532,11534.0,-0.28439,-1.0,18.0,-1314.0,81.0,,0.0,,2022-11-16 18:54:26.177702+00:00
2022-11-16 11:54:26.377529-07:00,36.7994,1.92,-0.47,-1.85,0.17,15.45,975.08,21.54,22.0,0.0,-0.000372837,-0.00093513,0.000426592,32.8213503,-111.786976,330.729553,-3.60397557,-0.506904916,-0.305212502,,,,,,,,,,,,,,2022-11-16 18:54:26.377529+00:00
2022-11-16 11:54:26.578102-07:00,36.999973,1.81,-0.56,-1.71,0.22,15.86,975.07,20.95,22.0,0.0,-0.000291273,-0.000162713,0.000995942,32.8213502,-111.786976,330.730347,-3.59457482,-0.502012742,-0.311910667,,,,,,,,,,,,,,2022-11-16 18:54:26.578102+00:00
2022-11-16 11:54:26.777530-07:00,37.199401,2.53,-0.9,-2.37,0.06,15.38,975.07,21.62,22.0,0.0,-0.000184255,-0.000522255,0.000176382,32.8213502,-111.786976,330.727783,-3.59016907,-0.501963432,-0.314298174,,,,,,,,,,,,,,2022-11-16 18:54:26.777530+00:00
2022-11-16 11:54:26.977595-07:00,37.399466,2.62,-0.97,-2.43,0.0,15.46,975.06,21.44,21.0,0.0,-0.000163796,-0.00102643,0.000812162,32.8213501,-111.786976,330.729095,-3.58400822,-0.497582528,-0.315884563,,,,,,,,,,,,,,2022-11-16 18:54:26.977595+00:00
2022-11-16 11:54:27.178070-07:00,37.599941,2.67,-0.97,-2.49,0.01,15.28,975.07,21.75,21.0,0.0,0.000360409,-0.000645313,0.000773041,32.82135,-111.786976,330.730255,-3.57794757,-0.495541278,-0.323276756,,,,,,,,,,,,,,2022-11-16 18:54:27.178070+00:00
2022-11-16 11:54:27.377690-07:00,37.799561,2.76,-0.99,-2.58,-0.07,15.34,975.07,21.66,22.0,0.0,-3.78451e-06,-0.000625433,0.000258258,32.82135,-111.786976,330.725861,-3.56613968,-0.49376573,-0.325872057,,,,,,,,,,,,,,2022-11-16 18:54:27.377690+00:00
2022-11-16 11:54:27.578087-07:00,37.999958,2.61,-0.82,-2.48,-0.08,15.1,975.07,22.0,23.0,0.0,3.3147e-05,-0.00086042,-0.00018794,32.8213499,-111.786976,330.723541,-3.55460439,-0.494302065,-0.319253925,,,,,,,,,,,,,,2022-11-16 18:54:27.578087+00:00
2022-11-16 11:54:27.777650-07:00,38.199521,2.72,-0.91,-2.56,0.04,15.41,975.08,21.63,22.0,0.0,0.000519566,-0.0011577,0.000217517,32.8213498,-111.786976,330.729156,-3.54547045,-0.499141163,-0.325149272,,,,,,,,,,,,,,2022-11-16 18:54:27.777650+00:00
2022-11-16 11:54:27.977917-07:00,38.399788,3.23,-1.15,-3.01,-0.11,14.96,975.07,22.17,21.0,0.0,-0.000176191,-0.000722362,0.000423638,32.8213498,-111.786976,330.729462,-3.53890158,-0.496936392,-0.327312796,,,,,,,,,,,,,,2022-11-16 18:54:27.977917+00:00
2022-11-16 11:54:28.177969-07:00,38.59984,3.09,-1.22,-2.84,-0.1,15.07,975.07,22.05,21.0,0.0,0.000231657,-0.00102931,0.00026248,32.8213497,-111.786976,330.731201,-3.52896166,-0.49269228,-0.315979173,2.02267,-6.53067,2851.82,29.2528,11498.0,-0.165581,-1.0,20.0,-1313.0,81.0,,0.0,,2022-11-16 18:54:28.177969+00:00
2022-11-16 11:54:28.377422-07:00,38.799293,2.77,-1.05,-2.56,0.04,15.51,975.08,21.4,22.0,0.0,0.000549675,-0.00155851,-0.000628752,32.8213496,-111.786976,330.727295,-3.52482507,-0.494522557,-0.321316995,,,,,,,,,,,,,,2022-11-16 18:54:28.377422+00:00
2022-11-16 11:54:28.578038-07:00,38.999909,3.25,-1.26,-3.0,-0.07,15.07,975.07,21.98,23.0,0.0,0.000325876,-0.00114664,0.000777905,32.8213496,-111.786976,330.730133,-3.5158299,-0.495099129,-0.317133199,,,,,,,,,,,,,,2022-11-16 18:54:28.578038+00:00
2022-11-16 11:54:28.777738-07:00,39.199609,3.24,-1.06,-3.06,-0.1,14.97,975.08,22.16,22.0,0.0,0.000180839,-0.000698352,-0.000170821,32.8213495,-111.786976,330.727478,-3.51107575,-0.490899062,-0.31091139,,,,,,,,,,,,,,2022-11-16 18:54:28.777738+00:00
2022-11-16 11:54:28.978222-07:00,39.400093,2.96,-0.97,-2.8,-0.1,15.0,975.07,22.08,22.0,0.0,0.000362101,-0.00157292,-0.000521305,32.8213494,-111.786976,330.726929,-3.50496635,-0.490459849,-0.310084658,2.02138,-6.53786,2854.61,29.2519,11457.0,-0.151049,-1.0,17.0,-1281.0,81.0,,0.0,,2022-11-16 18:54:28.978222+00:00
2022-11-16 11:54:29.177721-07:00,39.599592,2.85,-1.17,-2.59,-0.12,15.14,975.08,21.92,21.0,0.0,0.000165842,-0.000763483,0.000171191,32.8213494,-111.786976,330.72818,-3.49689028,-0.489842978,-0.30638507,2.02138,-6.53786,2854.61,29.2519,11457.0,-0.151049,-1.0,17.0,-1281.0,81.0,,0.0,,2022-11-16 18:54:29.177721+00:00
2022-11-16 11:54:29.377901-07:00,39.799772,2.85,-1.0,-2.67,-0.0,15.12,975.07,21.98,22.0,0.0,0.000253766,-0.00104849,0.00159988,32.8213493,-111.786976,330.730927,-3.48828666,-0.490654827,-0.303220407,,,,,,,,,,,,,,2022-11-16 18:54:29.377901+00:00
2022-11-16 11:54:29.577601-07:00,39.999472,2.8,-1.05,-2.59,-0.06,15.19,975.08,21.84,23.0,0.0,0.000531586,-0.000664569,0.00154006,32.8213492,-111.786976,330.734589,-3.47723988,-0.490936616,-0.309022522,,,,,,,,,,,,,,2022-11-16 18:54:29.577601+00:00
2022-11-16 11:54:29.777916-07:00,40.199787,2.55,-0.93,-2.38,0.07,15.4,975.07,21.58,22.0,0.0,0.000708742,-0.0012273,0.00117481,32.8213492,-111.786976,330.734009,-3.46746005,-0.493815692,-0.309371373,,,,,,,,,,,,,,2022-11-16 18:54:29.777916+00:00
2022-11-16 11:54:29.977781-07:00,40.399652,2.62,-0.89,-2.47,0.09,15.36,975.08,21.6,22.0,0.0,0.000203024,-0.000620035,0.000692799,32.8213491,-111.786976,330.734619,-3.45811465,-0.496401275,-0.309821132,,,,,,,,,,,,,,2022-11-16 18:54:29.977781+00:00
2022-11-16 11:54:30.177539-07:00,40.59941,2.61,-0.94,-2.43,0.15,15.4,975.08,21.58,22.0,0.0,0.000124708,-0.000662758,0.000921795,32.8213491,-111.786976,330.735962,-3.45033129,-0.497391532,-0.303236975,2.01856,-6.58744,2852.41,29.2516,11533.0,-0.0820997,-1.0,16.0,-1291.0,81.0,,0.0,,2022-11-16 18:54:30.177539+00:00
2022-11-16 11:54:30.378160-07:00,40.800031,2.92,-1.02,-2.73,0.1,15.31,975.07,21.7,21.0,0.0,0.000342899,-9.51876e-06,0.000608989,32.821349,-111.786976,330.735687,-3.44028227,-0.498731976,-0.308478553,,,,,,,,,,,,,,2022-11-16 18:54:30.378160+00:00
2022-11-16 11:54:30.577945-07:00,40.999816,2.97,-1.01,-2.8,0.07,15.3,975.09,21.66,23.0,0.0,0.000212872,-0.00023687,-0.000127915,32.8213489,-111.786976,330.733643,-3.43095839,-0.497861331,-0.296289697,,,,,,,,,,,,,,2022-11-16 18:54:30.577945+00:00
2022-11-16 11:54:30.777490-07:00,41.199361,3.1,-1.13,-2.88,-0.04,15.3,975.07,21.69,23.0,0.0,0.000336156,-0.000507879,-0.000463375,32.8213489,-111.786976,330.72934,-3.42349755,-0.500926073,-0.29964494,,,,,,,,,,,,,,2022-11-16 18:54:30.777490+00:00
2022-11-16 11:54:30.977348-07:00,41.399219,3.3,-1.23,-3.06,-0.02,15.34,975.1,22.38,22.0,0.0,-0.000213454,-0.000122974,-7.39089e-05,32.8213488,-111.786976,330.727722,-3.41596297,-0.50174919,-0.296667257,,,,,,,,,,,,,,2022-11-16 18:54:30.977348+00:00
2022-11-16 11:54:31.178310-07:00,41.600181,3.26,-1.25,-3.01,0.02,15.45,975.08,21.51,21.0,0.0,8.4195e-05,-0.000623531,0.000281627,32.8213488,-111.786976,330.72522,-3.40941802,-0.504063239,-0.291373471,,,,,,,,,,,,,,2022-11-16 18:54:31.178310+00:00
2022-11-16 11:54:31.377861-07:00,41.799732,2.86,-1.05,-2.65,0.08,15.5,975.08,21.38,21.0,0.0,-0.000173126,0.000267124,-0.000213485,32.8213488,-111.786976,330.727173,-3.40352598,-0.504367117,-0.306137952,,,,,,,,,,,,,,2022-11-16 18:54:31.377861+00:00
2022-11-16 11:54:31.577419-07:00,41.99929,2.99,-1.29,-2.7,0.04,15.67,975.08,21.14,23.0,0.0,-0.000468881,6.41938e-05,9.71778e-05,32.8213487,-111.786976,330.729248,-3.39978437,-0.504881986,-0.2911267,,,,,,,,,,,,,,2022-11-16 18:54:31.577419+00:00
2022-11-16 11:54:31.778261-07:00,42.200132,2.62,-0.78,-2.5,0.12,15.57,975.08,22.05,22.0,0.0,-0.00064475,-3.44729e-05,0.0011089,32.8213487,-111.786976,330.733185,-3.39549482,-0.505831054,-0.296321901,,,,,,,,,,,,,,2022-11-16 18:54:31.778261+00:00
2022-11-16 11:54:31.977821-07:00,42.399692,2.36,-0.75,-2.22,0.29,15.87,975.07,21.66,21.0,0.0,-0.000629165,0.000187933,3.16291e-05,32.8213486,-111.786976,330.729797,-3.38824086,-0.505088099,-0.29424627,,,,,,,,,,,,,,2022-11-16 18:54:31.977821+00:00
2022-11-16 11:54:32.177627-07:00,42.599498,2.51,-0.87,-2.35,0.23,15.92,975.08,21.49,21.0,0.0,-0.000499331,-0.000624788,8.82018e-05,32.8213486,-111.786976,330.730164,-3.37966653,-0.504667982,-0.287847687,2.02145,-6.39084,2840.29,29.2494,11493.0,-0.132718,-1.0,15.0,-1266.0,81.0,,0.0,,2022-11-16 18:54:32.177627+00:00
2022-11-16 11:54:32.377563-07:00,42.799434,2.48,-0.92,-2.3,0.2,15.81,975.08,21.03,21.0,0.0,-0.000106783,-0.000391009,-0.000578006,32.8213485,-111.786976,330.726471,-3.37306388,-0.503528715,-0.290152986,,,,,,,,,,,,,,2022-11-16 18:54:32.377563+00:00
2022-11-16 11:54:32.578088-07:00,42.999959,2.82,-1.09,-2.59,0.05,15.64,975.08,21.22,22.0,0.0,-0.000334019,0.000227163,0.000527149,32.8213485,-111.786976,330.727356,-3.36405193,-0.499499392,-0.285554369,,,,,,,,,,,,,,2022-11-16 18:54:32.578088+00:00
2022-11-16 11:54:32.777490-07:00,43.199361,2.56,-0.87,-2.38,0.31,16.13,975.09,21.27,22.0,0.0,-0.000655206,0.000272332,-4.9503e-05,32.8213485,-111.786976,330.728149,-3.36170632,-0.501013974,-0.28205735,,,,,,,,,,,,,,2022-11-16 18:54:32.777490+00:00
2022-11-16 11:54:32.977534-07:00,43.399405,2.84,-0.59,-2.77,0.21,16.13,975.09,20.57,21.0,0.0,4.56946e-05,0.000269802,0.000341563,32.8213485,-111.786976,330.727142,-3.35284981,-0.504451812,-0.294377272,2.02153,-6.12335,2845.9,29.2498,11493.0,-0.140499,-1.0,15.0,-1266.0,81.0,,0.0,,2022-11-16 18:54:32.977534+00:00
2022-11-16 11:54:33.177624-07:00,43.599495,2.87,-0.82,-2.72,0.39,15.68,975.08,21.1,21.0,0.0,-0.000465655,0.000810733,-0.00039824,32.8213484,-111.786976,330.728058,-3.34826905,-0.501623751,-0.301691997,,,,,,,,,,,,,,2022-11-16 18:54:33.177624+00:00
2022-11-16 11:54:33.378112-07:00,43.799983,3.42,-1.16,-3.22,0.11,15.62,975.09,21.97,22.0,0.0,0.000179576,0.000849692,-0.000473722,32.8213484,-111.786976,330.727051,-3.34012192,-0.499532601,-0.292493423,,,,,,,,,,,,,,2022-11-16 18:54:33.378112+00:00
2022-11-16 11:54:33.577739-07:00,43.99961,3.59,-0.98,-3.45,0.08,15.22,975.1,22.55,22.0,0.0,6.90616e-05,-8.50934e-06,-0.00120718,32.8213484,-111.786976,330.721466,-3.33252593,-0.502818957,-0.310954106,,,,,,,,,,,,,,2022-11-16 18:54:33.577739+00:00
2022-11-16 11:54:33.778272-07:00,44.200143,3.59,-0.96,-3.45,0.07,15.21,975.1,22.59,22.0,0.0,8.66843e-05,0.000746118,-0.00241202,32.8213483,-111.786976,330.715637,-3.32380952,-0.504891315,-0.321475159,,,,,,,,,,,,,,2022-11-16 18:54:33.778272+00:00
2022-11-16 11:54:33.978181-07:00,44.400052,3.77,-0.98,-3.63,0.07,15.21,975.09,22.53,21.0,0.0,-0.000170474,0.00126365,-0.00173908,32.8213483,-111.786976,330.716064,-3.31644122,-0.50713651,-0.317403929,2.02196,-6.70149,2858.38,29.2481,11508.0,-0.0491853,-1.0,20.0,-1287.0,81.0,,0.0,,2022-11-16 18:54:33.978181+00:00
2022-11-16 11:54:34.178188-07:00,44.600059,4.19,-1.04,-4.06,-0.11,15.11,975.1,22.67,21.0,0.0,-8.32017e-06,0.000491793,-0.000854004,32.8213483,-111.786976,330.716858,-3.30670337,-0.504101487,-0.310573931,,,,,,,,,,,,,,2022-11-16 18:54:34.178188+00:00
2022-11-16 11:54:34.378005-07:00,44.799876,4.04,-0.9,-3.93,-0.03,15.35,975.1,22.35,22.0,0.0,-0.000215698,0.000156455,-0.000933336,32.8213482,-111.786976,330.712646,-3.29946173,-0.506942536,-0.323236575,,,,,,,,,,,,,,2022-11-16 18:54:34.378005+00:00
2022-11-16 11:54:34.577788-07:00,44.999659,4.0,-1.08,-3.85,-0.02,15.17,975.09,22.62,23.0,0.0,-0.000394659,0.00168693,-0.000791008,32.8213482,-111.786977,330.713348,-3.29287512,-0.512617197,-0.323960026,,,,,,,,,,,,,,2022-11-16 18:54:34.577788+00:00
2022-11-16 11:54:34.777647-07:00,45.199518,4.11,-1.06,-3.98,-0.09,15.16,975.1,22.6,23.0,0.0,9.49998e-05,0.00091818,-0.000679022,32.8213482,-111.786977,330.715576,-3.2862416,-0.511731302,-0.320264782,,,,,,,,,,,,,,2022-11-16 18:54:34.777647+00:00
2022-11-16 11:54:34.978258-07:00,45.400129,4.03,-0.85,-3.94,-0.17,15.35,975.1,22.36,22.0,0.0,-0.00058115,0.000945746,0.000229619,32.8213482,-111.786977,330.718994,-3.28771156,-0.510035755,-0.316110016,2.02157,-6.06431,2868.98,29.2479,11452.0,0.0338424,-1.0,17.0,-1288.0,81.0,,0.0,,2022-11-16 18:54:34.978258+00:00
2022-11-16 11:54:35.177952-07:00,45.599823,3.85,-0.79,-3.76,-0.09,15.69,975.1,21.84,22.0,0.0,-0.000695299,0.000879516,-0.000605247,32.8213481,-111.786977,330.717834,-3.28226442,-0.507343502,-0.306049639,,,,,,,,,,,,,,2022-11-16 18:54:35.177952+00:00
2022-11-16 11:54:35.377768-07:00,45.799639,3.64,-0.64,-3.58,0.17,15.95,975.09,21.52,22.0,0.0,-0.000239457,0.00167707,-0.00113029,32.8213481,-111.786977,330.715393,-3.27796116,-0.505369425,-0.312078302,,,,,,,,,,,,,,2022-11-16 18:54:35.377768+00:00
2022-11-16 11:54:35.577742-07:00,45.999613,3.77,-0.74,-3.7,0.06,15.74,975.1,21.74,24.0,0.0,-0.000401346,0.00090291,-0.000812146,32.8213481,-111.786977,330.718231,-3.27480766,-0.503141066,-0.291534249,,,,,,,,,,,,,,2022-11-16 18:54:35.577742+00:00
2022-11-16 11:54:35.777934-07:00,46.199805,4.02,-1.16,-3.84,0.12,15.59,975.1,21.28,22.0,0.0,-0.000132372,-0.00038819,-0.000216427,32.8213481,-111.786977,330.716766,-3.26647692,-0.503853543,-0.314731097,,,,,,,,,,,,,,2022-11-16 18:54:35.777934+00:00
2022-11-16 11:54:35.978049-07:00,46.39992,4.48,-0.89,-4.39,-0.11,15.29,975.11,22.48,21.0,0.0,0.000328559,0.00271511,-0.00145728,32.821348,-111.786977,330.715118,-3.25907374,-0.503947946,-0.320727108,2.02244,-6.97675,2864.58,29.2475,11485.0,0.0118056,-1.0,20.0,-1309.0,81.0,,0.0,,2022-11-16 18:54:35.978049+00:00
