Timestamp,Seconds,S,Um,Vm,Wm,T,P,H,MD,Sts,Vx,Vy,Vz,Lat,Lon,Alt,Yaw,Roll,Pitch,CH4,C2H6,H2O,T_a,Batt,R,C2C1,Power,Current,SOC,Lat_a,Lon_a,TS,Timestamp_UTC,Rho,Rho_err,Sc,V,U,W,WD,V_err,U_err,Sc_avg,WD_avg,V_avg,U_avg,W_avg,U_err_avg,V_err_avg,Nx,Ny,cross_wind,cross_wind_err,CH4_sub,CH4_res,CH4_adj,CH4_adj_err,BG_Samples_CH4,C2H6_sub,C2H6_res,C2H6_adj,C2H6_adj_err,BG_Samples_C2H6,x_dist,y_dist,s_dist,z_dist,velocity_s,velocity_z,x_src_dist,y_src_dist,s_src_dist,collecting,group,transect_num
2022-11-16 11:53:50.978336-07:00,1.400207,4.91,-1.18,-4.76,0.26,15.79,975.1,21.7,22.0,0.0,-0.00631656,0.089121,-0.00310368,32.8213577,-111.78698,331.70952800000003,-5.62452629,-0.478489439,0.0759786531,2.0251,-5.95019,2892.42,29.2744,11515.0,0.368719,-1.0,23.0,-1317.0,82.0,,0.0,,2022-11-16 18:53:50.978336+00:00,1.175645369413793,0.014545941204555055,4.81684161816884,-4.76361267279497,-0.7141130709562505,0.25689632,368.5257211610064,0.3096727088573692,0.30589147762397306,4.784272666950844,366.5204414661507,-4.746036071631606,-0.5154236557223744,0.061792412,0.3055411846060697,0.31013562742276346,0.9974977040651329,0.07069887117053902,-0.84967330600294,0.3040179409094782,,,,,,,,,,,1.5251474916935106,0.28065985239499214,1.5507562104229617,0.2700810000000047,1.5507562104229617,0.2700810000000047,-24.190838549166127,-97.10805321152158,100.07582459437208,False,,
2022-11-16 11:53:51.177438-07:00,1.599309,4.17,-1.14,-4.0,0.35,15.92,975.09,22.19,22.0,0.0,-0.004826,0.096281,0.00107762,32.8213577,-111.78698,331.72307700000005,-5.60630091,-0.478915175,0.105433728,2.0251,-5.95019,2892.42,29.2744,11515.0,0.368719,-1.0,23.0,-1317.0,82.0,,0.0,,2022-11-16 18:53:51.177438+00:00,1.1751046092148585,0.014537306869821433,4.065472067126641,-3.9959549248307105,-0.7486036116050714,0.35107762,370.61081865259666,0.2872281323269015,0.27674533983746175,4.486233372941977,368.2463574781792,-4.4388198315604095,-0.6351121157437464,0.143630872,0.2936822788118749,0.30053191468438606,0.9987461486675684,0.05006126767970769,-0.8565287273409182,0.2929472408999625,,,,,,,,,,,1.5251474949332133,0.28065985299116697,1.5507562137170623,0.2836300000000165,3.2941005478903662e-09,0.013549000000011802,-24.19083854592642,-97.1080532109254,100.07582459301048,False,,
2022-11-16 11:53:52.177714-07:00,2.599585,5.02,-1.24,-4.86,-0.11,14.48,975.1,23.62,21.0,0.0,-0.00758248,0.109852,0.0140639,32.8213578,-111.78698,331.73021900000003,-5.51833833,-0.478971562,0.181800197,2.02133,-6.06836,2886.06,29.2738,11499.0,0.268663,-1.0,19.0,-1286.0,82.0,,0.0,,2022-11-16 18:53:52.177714+00:00,1.1809998019623174,0.014633051575268227,4.908354477498112,-4.846867966574722,-0.7744769792366882,-0.0959361,369.0784980363974,0.31289344898836113,0.31026631966342666,4.610871286047986,367.47478826766627,-4.569721687227082,-0.5901800782230093,0.10588747400000002,0.29959798923782616,0.305219774347829,0.9976262874027926,0.06886066135988449,-0.9034532179497745,0.298180870674997,,,,,,,,,,,1.5362799598822963,0.28065985298948354,1.561706140160827,0.290772000000004,0.01094992644376469,0.007141999999987547,-24.17970608097734,-97.10805321092708,100.07313417985218,False,,
2022-11-16 11:53:53.177750-07:00,3.599621,4.49,-1.16,-4.33,0.19,15.59,975.1,22.73,21.0,0.0,-0.00407737,0.051828,0.0193326,32.8213578,-111.78698,331.751703,-5.4327426,-0.484790642,0.238920603,2.02261,-5.98651,2890.98,29.2741,11539.0,0.0472092,-1.0,19.0,-1306.0,82.0,,0.0,,2022-11-16 18:53:53.177750+00:00,1.1764596974386001,0.014559172995435117,4.432276874653414,-4.368547321046452,-0.7489142790502111,0.2093326,369.72783913942993,0.29677736472283767,0.2894980824704299,4.827972191810969,369.1113020856127,-4.765754370285113,-0.7654409410448547,0.08333799,0.30577809259473393,0.30943935016069446,0.9969197135184191,0.07842885182350393,-1.136855806996013,0.3039031862662998,,,,,,,,,,,1.5362799650568344,0.28065985393480936,1.5617061454210062,0.31225599999999076,5.260179181121316e-09,0.021483999999986736,-24.1797060758028,-97.10805320998176,100.07313417768458,False,,
2022-11-16 11:53:54.178014-07:00,4.599885,5.41,-1.29,-5.25,-0.09,14.62,975.1,23.37,22.0,0.0,-0.00468406,0.0621662,0.00335308,32.8213578,-111.78698,331.71697400000005,-5.34122815,-0.48792575,0.182718622,2.02287,-6.27152,2896.62,29.2732,11539.0,-0.0169877,-1.0,19.0,-1306.0,82.0,,0.0,,2022-11-16 18:53:54.178014+00:00,1.1804252459895797,0.014623692048283796,5.345381158401881,-5.285120461072371,-0.8003758120733044,-0.08664692,368.61140890546693,0.3256501523349009,0.3264491647709356,5.213075124614917,370.2155330133194,-5.129534152390448,-0.9238791838734433,0.085652459,0.31997857454715795,0.32013085613319586,0.9971734162109913,0.07513439959233767,-1.3066722306775511,0.31817737086696085,,,,,,,,,,,1.536279956692166,0.2806598524066852,1.5617061369178984,0.2775270000000205,-8.50310777344987e-09,-0.034728999999970256,-24.17970608416747,-97.10805321150988,100.07313418118851,False,,
2022-11-16 11:53:55.178150-07:00,5.600021,5.5,-1.66,-5.25,0.16,14.97,975.12,23.58,21.0,0.0,-0.00934172,0.111735,0.0139222,32.821358,-111.78698,331.74523300000004,-5.26566588,-0.488266597,0.144673939,2.02329,-6.7816,2897.16,29.2728,11497.0,-0.075401,-1.0,23.0,-1282.0,82.0,,0.0,,2022-11-16 18:53:55.178150+00:00,1.1790154808544553,0.014600439888139463,5.39909648443,-5.268453983734323,-1.1805233879336419,0.1739222,372.6298723661292,0.32576519559294154,0.32795602815800384,5.281023351034554,372.6269166704348,-5.153521232124694,-1.1523979106776228,0.19738148585999998,0.32333592362361296,0.3221909105980333,0.9965232319900478,0.08331535335164497,-1.5777587329467166,0.32109929274792526,,,,,,,,,,,1.5585448900336256,0.28065985301823776,1.5836136294393732,0.3057860000000119,0.021907492521474836,0.028258999999991374,-24.15744115082601,-97.10805321089833,100.06775685187654,False,,
2022-11-16 11:53:56.178156-07:00,6.600027,5.26,-1.71,-4.96,0.42,15.77,975.11,21.71,21.0,0.0,-0.0123904,0.108843,0.0130103,32.8213578,-111.78698,331.735742,-5.18287247,-0.501340095,0.0600131813,2.02135,-5.77955,2885.36,29.2718,11501.0,-0.108802,-1.0,18.0,-1257.0,82.0,,0.0,,2022-11-16 18:53:56.178156+00:00,1.1757388089820835,0.014547309992254887,5.143915273283426,-4.985350413155257,-1.267337996262721,0.43301029999999996,374.2631739906666,0.31644077208748655,0.31651188519262097,5.312033476162201,373.27941139831603,-5.169385426913469,-1.2212698365689558,0.24651337,0.3241691841038703,0.32272117819153384,0.9935828303883065,0.11310684841141026,-1.7981256347481027,0.3200486668380857,,,,,,,,,,,1.5362799612125408,0.2806598532325032,1.5617061415130875,0.29629499999998643,-0.021907487926285718,-0.009491000000025451,-24.179706079647097,-97.10805321068406,100.07313417929494,False,,
2022-11-16 11:53:56.978085-07:00,7.399956,5.08,-1.52,-4.85,0.15,14.92,975.11,22.88,22.0,0.0,-0.011182,0.111392,-0.00419889,32.8213577,-111.78698,331.688165,-5.10505067,-0.502033009,0.0294901034,2.0217,-6.12767,2878.12,29.2711,11539.0,-0.106008,-1.0,22.0,-1301.0,82.0,,0.0,,2022-11-16 18:53:56.978085+00:00,1.1792080282261377,0.014603723454121595,4.976272874772666,-4.854621932867808,-1.0935893256232145,0.14580110999999998,372.6949795084065,0.31300588969218723,0.31154920291803917,5.23382304547224,371.00911581177417,-5.131368367308835,-1.006737759182297,0.048938766,0.32264969147421113,0.322141707783425,0.9949992660107878,0.09988223384563198,-1.5142358666633506,0.3194469565162345,,,,,,,,,,,1.5251474865854011,0.28065985145499045,1.5507562052290824,0.24871799999999666,-0.01094993628400509,-0.047576999999989766,-24.190838554274237,-97.10805321246158,100.07582459651897,False,,
2022-11-16 11:53:57.978241-07:00,8.400112,5.48,-1.72,-5.21,-0.07,15.51,975.11,22.03,21.0,0.0,-0.0130269,0.102717,-0.0132928,32.8213575,-111.78698,331.671625,-5.03259205,-0.505794877,7.04229856e-05,2.02241,-6.80489,2886.52,29.2704,11529.0,-0.0998932,-1.0,17.0,-1305.0,82.0,,0.0,,2022-11-16 18:53:57.978241+00:00,1.1767978129671708,0.014564519301660445,5.38969121098329,-5.238080770794932,-1.2693625125939796,-0.0832928,373.6220848747075,0.324794022510451,0.32683262342933367,5.1686323905024185,373.0825720715713,-5.033291946146964,-1.1677726994117763,0.0466878654,0.3184972650037573,0.3183902557935223,0.9920536662098801,0.12581543370960419,-1.791758996942799,0.31349612059874393,,,,,,,,,,,1.5028825556441865,0.28065985135909016,1.5288642608892746,0.23217799999997624,-0.02189194433980779,-0.016540000000020427,-24.21310348521545,-97.10805321255748,100.08120892114887,False,,
2022-11-16 11:53:58.978301-07:00,9.400172,4.3,-1.58,-4.0,0.2,15.55,975.11,21.94,22.0,0.0,-0.012179,0.0993946,0.0100336,32.8213574,-111.78698,331.70882600000004,-4.96213046,-0.507383517,-0.00389476697,2.02346,-6.58064,2877.62,29.2699,11512.0,-0.140018,-1.0,22.0,-1323.0,82.0,,0.0,,2022-11-16 18:53:58.978301+00:00,1.1766347651233235,0.014561869051364817,4.209156343022438,-4.022279462997333,-1.2402681329276792,0.21003360000000001,377.13712389910944,0.2872281323269015,0.2794219823144424,4.476251465032755,376.2621500742381,-4.297749294666489,-1.245403675401623,0.18671364000000001,0.28983521514042454,0.2954177440987821,0.9925764671919427,0.12162218866951154,-1.7588600559281917,0.28558141928536723,,,,,,,,,,,1.4917501004972966,0.28065985331192705,1.5179223681054204,0.2693790000000149,-0.010941892783854268,0.037201000000038675,-24.22423594036234,-97.10805321060464,100.08390282781724,False,,
2022-11-16 11:54:02.177617-07:00,12.599488,4.69,-1.79,-4.32,0.35,15.27,975.1,22.27,21.0,0.0,-0.00267555,0.0283956,-3.54229e-06,32.8213574,-111.78698,331.684656,-4.74884231,-0.510573713,0.00526103993,2.01957,-6.39089,2878.6,29.2688,11465.0,-0.0204373,-1.0,21.0,-1307.0,82.0,,0.0,,2022-11-16 18:54:02.177617+00:00,1.1777649713557359,0.01458039427905955,4.64994984474894,-4.424965245841256,-1.4288863257018438,0.34999645771,377.8960308933967,0.29674519106987157,0.29237090672776533,5.0054524872556945,380.2241114165896,-4.695189598909674,-1.7122463677498498,0.13519579784200003,0.30305264056366743,0.30469927646564354,0.9955902502970815,0.09380860042338673,-2.1451449548345005,0.30039772839017764,,,,,,,,,,,1.4917500948445592,0.2806598522484135,1.5179223623535074,0.24520899999998846,-5.7519129459393525e-09,-0.024170000000026448,-24.224235946015078,-97.10805321166815,100.08390283021733,False,,
2022-11-16 11:54:02.977871-07:00,13.399742,5.8,-2.05,-5.43,-0.14,14.29,975.1,23.75,21.0,0.0,-0.00441408,0.0564321,0.00293011,32.8213575,-111.78698,331.697107,-4.6810003,-0.518435659,-0.119288806,2.02036,-5.16178,2898.91,29.2684,11477.0,-0.153034,-1.0,17.0,-1285.0,82.0,,0.0,,2022-11-16 18:54:02.977871+00:00,1.1817804517061692,0.014645773066499234,5.751090259937569,-5.522752577971842,-1.6044448075437652,-0.13706989,376.1993959439134,0.3327585066844341,0.33735943663500106,5.537340630693215,376.6830925840899,-5.30269485907578,-1.5927782375868689,-0.016451304000000003,0.32829894518876757,0.32537130786716123,0.9969548358941835,0.07798112071008975,-2.0014380543636046,0.32630853995159675,,,,,,,,,,,1.5028825616482413,0.28065985248033354,1.528864266997127,0.2576599999999871,0.01094190464361966,0.012450999999998658,-24.213103479211394,-97.10805321143623,100.08120891860834,False,,
2022-11-16 11:54:04.177522-07:00,14.599393,5.66,-1.92,-5.32,-0.26,14.37,975.11,23.52,21.0,0.0,-0.00186946,0.0098419,0.00213682,32.8213575,-111.78698,331.712122,-4.6033643,-0.524457383,-0.203485824,2.01956,-5.89484,2893.43,29.2679,11477.0,-0.212761,-1.0,17.0,-1285.0,82.0,,0.0,,2022-11-16 18:54:04.177522+00:00,1.1814637475344447,0.01464046125090422,5.6468616368814475,-5.447090981752753,-1.4887062109735567,-0.25786318,375.2858163231288,0.329143021829232,0.3324836938920447,5.535096902440932,376.31420863571464,-5.311882556626157,-1.5536748045321673,-0.17226922,0.326970900644507,0.32443630369909743,0.982433621457149,0.18661237748496576,-2.5176453975961905,0.3157865863335084,,,,,,,,,,,1.5028825651860673,0.2806598531410143,1.5288642705961146,0.27267499999999245,3.5989875524222725e-09,0.01501500000000533,-24.21310347567357,-97.10805321077555,100.08120891711137,False,,
2022-11-16 11:54:05.177525-07:00,15.599396,5.49,-1.79,-5.19,-0.25,14.36,975.11,23.5,21.0,0.0,-0.00535028,0.0257656,0.00010806,32.8213575,-111.78698,331.69906000000003,-4.54425704,-0.526090662,-0.277658949,2.02187,-6.31064,2871.33,29.2673,11529.0,-0.212987,-1.0,20.0,-1322.0,82.0,,0.0,,2022-11-16 18:54:05.177525+00:00,1.1815048404963426,0.014641130930487429,5.466413071584069,-5.289739411224232,-1.3785241494171543,-0.24989194,374.6065953554785,0.3248408546152135,0.3268303520297773,5.358678102683442,376.1011495534191,-5.147218773131124,-1.483940659535878,-0.23450460000000004,0.3210180592497604,0.31978657062296023,0.9791133971647464,0.20331491704375626,-2.499452538214287,0.3080319234895997,,,,,,,,,,,1.5028825621084059,0.2806598525662682,1.5288642674652468,0.25961300000000165,-3.1308677872488033e-09,-0.013061999999990803,-24.21310347875123,-97.1080532113503,100.08120891841362,False,,
2022-11-16 11:54:07.178020-07:00,17.599891,5.22,-1.86,-4.87,-0.25,14.43,975.09,23.4,21.0,0.0,-0.00161398,0.00386817,-0.00248798,32.8213576,-111.78698,331.67519500000003,-4.44037521,-0.51953702,-0.305332325,2.02284,-6.86487,2824.05,29.2656,11483.0,-0.201145,-1.0,22.0,-1287.0,81.0,,0.0,,2022-11-16 18:54:07.178020+00:00,1.1811930224137255,0.014636349898890936,5.2098569574155915,-4.995518443181006,-1.4789878297572512,-0.25248798,376.49206883868567,0.3143468502598826,0.31433982901460417,5.108743122435951,376.48476160593805,-4.897242725791468,-1.447893958442452,-0.25876057722,0.3105276415215653,0.3113034451717935,0.92288686023712,0.3850712183501523,-3.222029532240191,0.2684805783712883,,,,,,,,,,,1.5140150196306714,0.2806598512002338,1.5398088945525026,0.23574800000000096,0.010944627087255743,-0.02386500000000069,-24.201971021228964,-97.10805321271634,100.07851617643097,False,,
2022-11-16 11:54:08.177456-07:00,18.599327,5.05,-1.9,-4.67,-0.26,14.52,975.07,23.23,22.0,0.0,-0.00142355,0.00465897,0.00210958,32.8213576,-111.78698,331.669031,-4.38861208,-0.524130013,-0.333441579,2.0219,-6.10709,2813.37,29.2666,11446.0,-0.337541,-1.0,21.0,-1270.0,81.0,,0.0,,2022-11-16 18:54:08.177456+00:00,1.1807992563714496,0.014630234466250287,5.037713570491522,-4.797038126881959,-1.5385003176974867,-0.25789042,377.7820225701627,0.3079062461988717,0.3066545579607385,5.03096874624958,379.1367664022276,-4.751749800867946,-1.650065709800365,-0.23796019799999998,0.3048945849528334,0.3061949066906538,0.9563529573825704,0.29221399847647855,-2.9665730305145828,0.28008295204660855,,,,,,,,,,,1.514015018167555,0.2806598509290092,1.5398088930644593,0.22958399999998846,-1.4880432441799485e-09,-0.006164000000012493,-24.20197102269208,-97.10805321298756,100.07851617704796,False,,
2022-11-16 11:54:08.978182-07:00,19.400053,4.87,-2.36,-4.26,-0.18,14.48,975.07,23.33,22.0,0.0,-0.00181533,0.00289626,0.001314,32.8213571,-111.786979,331.649896,-4.34989269,-0.523686158,-0.349040514,2.02208,-5.80471,2799.01,29.2642,11519.0,-0.337546,-1.0,17.0,-1293.0,81.0,,0.0,,2022-11-16 18:54:08.978182+00:00,1.1809634672335112,0.014632909792354702,4.868155744542555,-4.423831670890467,-2.031908881015373,-0.17868599999999998,384.669778725745,0.2950540637510911,0.29230038613470566,4.770993184689329,381.94594942752514,-4.422775167203186,-1.7827406430823007,-0.20853566619999997,0.2922742134948665,0.2956165904371553,0.8473181541407071,0.5310856293137529,-3.859420843995455,0.22579627611954867,,,,,,,,,,,1.4583526974115892,0.37421313436546016,1.5055989040841122,0.2104489999999828,-0.034209988980347106,-0.019135000000005675,-24.25763334344805,-97.0144999295511,100.00122985246749,False,,
2022-11-16 11:54:10.178015-07:00,20.599886,4.42,-2.26,-3.8,-0.17,14.55,975.07,23.11,22.0,0.0,-0.000460357,0.00141349,0.00213873,32.8213563,-111.786979,331.636591,-4.28577346,-0.510454423,-0.345998009,2.02355,-6.76107,2796.29,29.2642,11507.0,-0.364752,-1.0,22.0,-1301.0,81.0,,0.0,,2022-11-16 18:54:10.178015+00:00,1.1806761281903886,0.01462822861680195,4.420206533868873,-3.956852985076939,-1.9701624949594374,-0.16786127,386.4692401606704,0.28139167152537,0.2751507066540094,4.393418203885401,389.4555367633634,-3.8215971856353215,-2.1510366586966256,-0.13416385800000002,0.2704596444968376,0.27732643472333596,0.9508415345886997,0.30967785859019153,-3.2287590303534976,0.2459645637197394,,,,,,,,,,,1.3692929876215394,0.3742131369549161,1.4195065191182321,0.19714399999998022,-0.08609238496588012,-0.013305000000002565,-24.3466930532381,-97.01449992696165,100.02287067819556,False,,
2022-11-16 11:54:10.978189-07:00,21.40006,4.36,-2.27,-3.72,-0.2,14.64,975.07,22.98,21.0,0.0,-0.000309026,-0.000299719,0.0019673,32.8213559,-111.786979,331.632959,-4.24732233,-0.507335135,-0.366644149,2.02177,-6.11313,2790.03,29.2644,11467.0,-0.375629,-1.0,17.0,-1275.0,81.0,,0.0,,2022-11-16 18:54:10.978189+00:00,1.1803068976697413,0.014622214383896702,4.35830857027188,-3.8782037650990153,-1.9885645953996909,-0.1980327,387.14666543097707,0.2790954361855397,0.2723723016816996,4.320619035087985,387.60193539181535,-3.8236254883323526,-1.9948816663703668,-0.19849548860000002,0.2705446749284311,0.2776613167577783,0.6962145796831931,-0.7178337265945052,1.3558616325215944,0.19408066457024595,,,,,,,,,,,1.3247631338472587,0.3742131384268522,1.376601915505018,0.19351199999999835,-0.04290460361321413,-0.003631999999981872,-24.391222907012377,-97.01449992548972,100.03371906858412,False,,
2022-11-16 11:54:11.177396-07:00,21.599267,4.4,-2.07,-3.88,-0.23,14.57,975.07,23.08,21.0,0.0,-0.000380901,0.000720893,0.00133091,32.8213558,-111.786979,331.63027300000005,-4.23435433,-0.505383923,-0.386402739,2.02177,-6.11313,2790.03,29.2644,11467.0,-0.375629,-1.0,17.0,-1275.0,81.0,,0.0,,2022-11-16 18:54:11.177396+00:00,1.180594057001164,0.014626891690917588,4.397141778754758,-4.021529070912257,-1.7782462580526242,-0.22866909000000002,383.8541336515816,0.2836972761756291,0.2775886649138749,4.307580068975966,386.47842905813116,-3.8536873063845314,-1.9169984804919882,-0.20246833660000002,0.2716027258100801,0.2786325650009907,0.8841671078942743,0.46717076676294145,-3.4952770561225956,0.22086252335077122,,,,,,,,,,,1.313630669514324,0.3742131386905237,1.3658920195451998,0.19082600000001548,-0.010709895959818194,-0.0026859999999828688,-24.402355371345312,-97.01449992522605,100.03643407984468,False,,
2022-11-16 11:54:11.978078-07:00,22.399949,3.8,-2.17,-3.12,-0.13,14.66,975.07,22.92,23.0,0.0,-0.000344928,-0.000725929,-0.000239009,32.8213555,-111.786979,331.62533,-4.19900542,-0.499358665,-0.391718883,2.02406,-6.87122,2788.84,29.2626,11525.0,-0.378762,-1.0,21.0,-1290.0,81.0,,0.0,,2022-11-16 18:54:11.978078+00:00,1.1802248778026296,0.014620878562640516,3.801234581123456,-3.271240384521251,-1.9360709406956333,-0.13023900900000002,390.61900380172517,0.26291387673276545,0.2517910138758883,3.848636512147878,389.4665022477454,-3.3513898164738514,-1.889703718105158,-0.14507126460000003,0.25453650735266586,0.26516272045980394,0.9032236222061022,-0.429170232295867,-0.26850829111319396,0.21332031214166408,,,,,,,,,,,1.2802332793214408,0.3742131396642904,1.333803854912534,0.1858829999999898,-0.03208816463266584,-0.004943000000025677,-24.435752761538197,-97.01449992425228,100.0445861032758,False,,
2022-11-16 11:54:12.977652-07:00,23.399523,3.82,-1.91,-3.31,-0.17,14.61,975.07,22.96,22.0,0.0,-0.000156487,-0.000690789,0.00126529,32.8213551,-111.786978,331.627771,-4.15938845,-0.500563476,-0.38879456,2.02524,-6.24193,2793.31,29.2633,11459.0,-0.35838,-1.0,18.0,-1277.0,81.0,,0.0,,2022-11-16 18:54:12.977652+00:00,1.1804299488475634,0.014624218575847362,3.82223415612221,-3.440507445958458,-1.665047284172937,-0.16873471,385.82484594483105,0.26779588248294234,0.25747548894732103,3.8687987678653286,385.5011086135195,-3.490604251242414,-1.6653495201144917,-0.2554227966,0.2591636959471685,0.2691308231459809,0.9752883757928843,-0.22093570115143843,-0.8529969309094875,0.2468630401368193,,,,,,,,,,,1.2357034261448723,0.46776642716320194,1.3212752884116175,0.18832399999996596,-0.012528566500916494,0.0024409999999761567,-24.480282614714763,-96.92094663675337,99.96476446158768,False,,
2022-11-16 11:54:13.977955-07:00,24.399826,3.12,-1.85,-2.49,-0.29,14.77,975.04,22.68,22.0,0.0,-5.57162e-05,4.99856e-05,0.00124763,32.8213548,-111.786978,331.63036500000004,-4.11162419,-0.4902494,-0.365497321,2.02096,-6.59434,2791.06,29.2629,11502.0,-0.289425,-1.0,16.0,-1272.0,81.0,,0.0,,2022-11-16 18:54:13.977955+00:00,1.179737674084219,0.014613394531786143,3.102019371700547,-2.6161860317273735,-1.666761779559405,-0.28875237,392.50105091252743,0.24800093212191585,0.23214328737416876,3.2161909364673633,390.6271208705417,-2.7586656619373064,-1.6242505307743855,-0.3648755794,0.23646368231729448,0.2514291196676683,0.6677904625044793,0.7443493119416809,-3.1380699005091484,0.17471610421119033,,,,,,,,,,,1.2023060367380225,0.467766428933141,1.290095049991881,0.19091800000001058,-0.031180238419736384,0.002594000000044616,-24.513680004121614,-96.92094663498342,99.97294836087299,False,,
2022-11-16 11:54:14.977796-07:00,25.399667,3.52,-1.65,-3.11,-0.19,14.68,975.07,22.78,22.0,0.0,6.31766e-05,-0.000717726,-0.000124915,32.8213545,-111.786978,331.61773100000005,-4.06419023,-0.495802176,-0.378303395,2.02205,-6.2961,2792.92,29.2615,11529.0,-0.28232,-1.0,19.0,-1303.0,81.0,,0.0,,2022-11-16 18:54:14.977796+00:00,1.1801428693338945,0.014619542986676353,3.5212272442082364,-3.219839079857301,-1.4253692872999686,-0.190124915,383.8781765260409,0.2625205322466178,0.2505018792490483,3.4418558630508818,387.0685010668081,-3.0565857524846995,-1.549094789276147,-0.19793059732,0.24553516226246744,0.258466512276894,0.9961483186885649,0.08768424701133781,-1.811142589958855,0.24365546243021488,,,,,,,,,,,1.1689086445133314,0.46776642958632475,1.259028534968899,0.1782840000000192,-0.031066515022982077,-0.012633999999991374,-24.547077396346307,-96.92094663433025,99.98114274800477,False,,
2022-11-16 11:54:17.978226-07:00,28.400097,2.35,-0.54,-2.28,0.12,14.87,975.06,22.47,21.0,0.0,-0.00033827,-0.00101501,-0.0002006,32.8213535,-111.786977,331.58764,-3.94616848,-0.499727245,-0.344494833,2.0238,-6.27476,2792.67,29.2589,11471.0,-0.31411,-1.0,19.0,-1281.0,81.0,,0.0,,2022-11-16 18:54:17.978226+00:00,1.179352261744645,0.014606820147741648,2.3441314741999926,-2.312771834215151,-0.38215024688742144,0.1197994,369.38247761254735,0.24331866986950265,0.22442830989427864,2.3580612962207113,370.10972153154967,-2.3196711418395326,-0.4175599347514269,0.08874448320000002,0.22465318359594497,0.24343863605634705,0.9487019898440461,-0.3161716851110286,0.3372743928410002,0.20365499789897545,,,,,,,,,,,1.0575840069493105,0.5613197194123646,1.1973152296517968,0.14819299999999203,-0.061713305317102174,-0.03009100000002718,-24.658402033910328,-96.8273933445042,99.91787073770783,False,,
2022-11-16 11:54:18.177612-07:00,28.599483,2.23,-0.48,-2.17,0.16,15.11,975.07,22.02,21.0,0.0,9.5221e-05,-0.00218639,0.00088229,32.8213534,-111.786977,331.59148600000003,-3.93660152,-0.49711666,-0.344615484,2.0238,-6.27476,2792.67,29.2589,11471.0,-0.31411,-1.0,19.0,-1281.0,81.0,,0.0,,2022-11-16 18:54:18.177612+00:00,1.1783824397432001,0.014590887309123076,2.22460167360291,-2.2000198032315956,-0.32979610608022775,0.16088229,368.5254966550335,0.2411201426090163,0.22157826675928582,2.2817362249280113,369.12966617597607,-2.251828162088337,-0.3644182678984203,0.1589832956,0.22293330928946092,0.24213532322542583,0.9990529717352281,0.04351045468631116,-0.4620512207064252,0.22251173312069386,,,,,,,,,,,1.0464515438796298,0.561319720382706,1.1874934366886327,0.15203900000000203,-0.0098217929631641,0.003846000000010008,-24.669534496980006,-96.82739334353386,99.92061866302225,False,,
2022-11-16 11:54:19.177952-07:00,29.599823,2.3,-0.64,-2.19,0.26,15.38,975.07,21.72,21.0,0.0,-0.000391312,-0.000906633,-0.00049726,32.8213528,-111.786977,331.591272,-3.90051164,-0.498294619,-0.361061637,2.0232,-6.25352,2797.61,29.2583,11487.0,-0.309914,-1.0,16.0,-1274.0,81.0,,0.0,,2022-11-16 18:54:19.177952+00:00,1.1772797354880769,0.014572951852622262,2.2825698018070733,-2.229369361300792,-0.48993586418518104,0.25950274,372.39453836772907,0.24143757965389864,0.22245400571230006,2.3921734766766205,367.62290275026146,-2.3678783669813237,-0.31379785602515803,0.2760077638,0.2260330071264951,0.24448824220389045,0.9181318565624448,-0.39627502314074536,0.6502232465323013,0.1943677179475196,,,,,,,,,,,0.9796567644351225,0.5613197241551685,1.1290736064708657,0.1518249999999739,-0.05841983021776698,-0.00021400000002813613,-24.736329276424513,-96.8273933397614,99.93713067246111,False,,
2022-11-16 11:54:20.177768-07:00,30.599639,2.68,-0.42,-2.64,0.0,15.04,975.07,22.16,21.0,0.0,-0.000342796,-0.00076066,-0.000196518,32.8213525,-111.786977,331.58709100000004,-3.85475477,-0.499759928,-0.36384238,2.02119,-6.55961,2807.27,29.2574,11531.0,-0.281107,-1.0,18.0,-1307.0,81.0,,0.0,,2022-11-16 18:54:20.177768+00:00,1.1786686633136987,0.014595544489426366,2.673988868359708,-2.6630236461820753,-0.2419122319907744,-0.000196518,365.19057023015483,0.25090353783060837,0.23420735284467084,2.7448495286977646,365.86639359527544,-2.7284542664180256,-0.28118866758047967,0.007656013599999995,0.23609760574096322,0.2523589838459443,0.9116975550599836,-0.4108619818109826,0.8646591064374429,0.20081310907516922,,,,,,,,,,,0.9462593748183078,0.5613197256828764,1.100221177251299,0.14764400000001388,-0.028852429219566655,-0.004180999999960022,-24.76972666604133,-96.82739333823369,99.94540239444444,False,,
2022-11-16 11:54:22.177716-07:00,32.599587,3.09,-0.49,-3.05,-0.04,15.39,975.08,21.7,21.0,0.0,9.1278e-05,-0.00093031,-0.000109608,32.8213517,-111.786977,331.585779,-3.76500541,-0.504612077,-0.352634381,2.02297,-7.01315,2813.44,29.2562,11522.0,-0.381964,-1.0,14.0,-1292.0,81.0,,0.0,,2022-11-16 18:54:22.177716+00:00,1.1772510076005303,0.014572335289118363,3.0900276189520866,-3.0765232644763603,-0.2885745813865467,-0.040109608,365.3586039223313,0.2606730572378785,0.2467921409215349,2.7294678066991307,362.0001685283857,-2.70828751618689,-0.11637282639108118,0.2121177428,0.23602610777427008,0.25222355491555304,0.9952211324353449,0.09764680001981445,-0.38027230555489483,0.23378799281543686,,,,,,,,,,,0.8571996685851186,0.5613197306224769,1.0246321836681334,0.1463319999999726,-0.07558899358316573,-0.0013120000000412801,-24.85878637227452,-96.8273933332941,99.96751152060767,False,,
2022-11-16 11:54:23.177693-07:00,33.599564,2.52,-0.14,-2.5,0.26,15.39,975.07,21.6,21.0,0.0,-0.000129655,-0.000125225,0.000633412,32.8213514,-111.786977,331.58458900000005,-3.72575106,-0.50833236,-0.334329252,2.01963,-6.25731,2821.5,29.2555,11522.0,-0.358298,-1.0,14.0,-1292.0,81.0,,0.0,,2022-11-16 18:54:23.177693+00:00,1.1772389342218577,0.014572288427730624,2.50404097687094,-2.5039388228826325,0.022618247277523436,0.260633412,359.4824574581586,0.2475603343565076,0.2301852053418586,2.504666884603252,361.2326765561291,-2.4894539676772376,-0.08840805997753949,0.23294555460000002,0.2304959477191168,0.2476658552019224,0.6947118257002027,-0.7192881753736058,1.7292166773335342,0.16968765530554514,,,,,,,,,,,0.823802278047339,0.5613197324134012,0.9968600881330526,0.1451420000000212,-0.027772095535080754,-0.0011899999999513966,-24.892183762812298,-96.82739333150317,99.97582163630986,False,,
2022-11-16 11:54:24.177505-07:00,34.599376,3.15,-0.05,-3.15,0.04,14.9,975.08,22.25,21.0,0.0,-0.000249579,0.000249032,0.000438183,32.821351,-111.786977,331.58175,-3.6897334,-0.501012507,-0.316625062,2.02073,-6.21741,2837.52,29.2548,11474.0,-0.374477,-1.0,20.0,-1302.0,81.0,,0.0,,2022-11-16 18:54:24.177505+00:00,1.1792536217082348,0.014604914897375925,3.150135964092492,-3.146439214175926,0.15256757114445058,0.040438183,357.2239614232603,0.2631686499316269,0.24923183835325313,2.67005847226972,357.60501940613125,-2.6496743534591807,0.0945437391837218,0.20997946480000002,0.23465010999345215,0.2511402631807598,0.7063306263514857,0.7078820850098679,-1.808877867408609,0.17187773800795147,,,,,,,,,,,0.7792724250435965,0.5613197346910912,0.9603881283038669,0.14230299999996987,-0.03647195982918572,-0.0028390000000513282,-24.93671361581604,-96.82739332922547,99.9869180687642,False,,
2022-11-16 11:54:25.177765-07:00,35.599636,2.45,-0.31,-2.43,-0.01,14.95,975.07,22.19,21.0,0.0,-0.000196139,0.000162556,0.000409473,32.8213507,-111.786976,331.57903400000004,-3.64553418,-0.503454134,-0.299537203,2.02133,-5.95415,2847.46,29.255,11477.0,-0.388491,-1.0,15.0,-1288.0,81.0,,0.0,,2022-11-16 18:54:25.177765+00:00,1.179036869421641,0.014601536685909949,2.4495440357315976,-2.4446313012466447,-0.1550605815588871,-0.009590527,363.6293534255478,0.2458966702716957,0.22883649872319323,2.387700850964991,361.2737285437869,-2.372184355846778,-0.05160474070653078,0.14653478890000002,0.22693627184931137,0.24451573610715202,0.6381128907100637,0.7699428152204852,-1.8593759514292494,0.17190072426675115,,,,,,,,,,,0.7458750357793016,0.6548730259373778,0.9925664960591567,0.1395870000000059,0.032178367755289816,-0.0027159999999639695,-24.970111005080334,-96.73384003797919,99.9046658174651,False,,
2022-11-16 11:54:26.177702-07:00,36.599573,1.99,-0.6,-1.89,0.17,15.58,975.06,21.37,21.0,0.0,-5.93242e-05,-0.000592218,0.000404072,32.8213504,-111.786976,331.580682,-3.61103961,-0.513948516,-0.313862823,2.02059,-6.97542,2848.55,29.2532,11534.0,-0.28439,-1.0,18.0,-1314.0,81.0,,0.0,,2022-11-16 18:54:26.177702+00:00,1.1764521817188816,0.01455964810538265,1.9835413223277918,-1.9246295233056079,-0.47983056947459424,0.17040407200000002,373.9990620352766,0.23523647765702851,0.21616238630425172,2.0245527502877683,373.1016648180121,-1.971372735130407,-0.4570822413494284,0.1687515416,0.21736556587249475,0.23621728362441688,0.9950201411501028,-0.0996740623513934,-0.25831130738548846,0.21521885206720118,,,,,,,,,,,0.7124776456146158,0.6548730283181667,0.9677205581773864,0.14123499999999467,-0.024845937881770253,0.0016479999999887696,-25.00350839524502,-96.7338400355984,99.91301837150066,False,,
2022-11-16 11:54:28.177969-07:00,38.59984,3.09,-1.22,-2.84,-0.1,15.07,975.07,22.05,21.0,0.0,0.000231657,-0.00102931,0.00026248,32.8213497,-111.786976,331.581201,-3.52896166,-0.49269228,-0.315979173,2.02267,-6.53067,2851.82,29.2528,11498.0,-0.165581,-1.0,20.0,-1313.0,81.0,,0.0,,2022-11-16 18:54:28.177969+00:00,1.1785459790450865,0.014593548189103578,3.091845390770047,-2.9107388765520583,-1.0426442887938563,-0.09973752000000001,379.7078315465722,0.25514956954668183,0.24238629598125994,3.011157671940823,378.2187444302534,-2.858655852128972,-0.9435321363036046,-0.03978944240000001,0.2409680028632475,0.2541644943097096,0.9755971188058653,0.2195683533155322,-1.5481775918263074,0.2296779635000367,,,,,,,,,,,0.6345504033873808,0.6548730335318259,0.9118732940964241,0.14175399999999172,-0.0558472640809623,0.0005189999999970496,-25.081435637472257,-96.73384003038474,99.93254835468136,False,,
2022-11-16 11:54:28.978222-07:00,39.400093,2.96,-0.97,-2.8,-0.1,15.0,975.07,22.08,22.0,0.0,0.000362101,-0.00157292,-0.000521305,32.8213494,-111.786976,331.576929,-3.50496635,-0.490459849,-0.310084658,2.02138,-6.53786,2854.61,29.2519,11457.0,-0.151049,-1.0,17.0,-1281.0,81.0,,0.0,,2022-11-16 18:54:28.978222+00:00,1.1788322820766088,0.014598207077392327,2.9646760089893225,-2.855636533588138,-0.7966453579313574,-0.100521305,375.58766456958523,0.25414492856868515,0.24079564254325558,3.0306481448496063,377.65384472157814,-2.886505374119659,-0.9171049485680542,-0.07762863,0.24184600685058505,0.25482745091802655,0.974510586911969,0.2243415164352994,-1.5412914745175712,0.2300319197584642,,,,,,,,,,,0.6011530133327868,0.6548730353048087,0.8889564881412493,0.13748199999997723,-0.022916805955174868,-0.004272000000014486,-25.11483302752685,-96.73384002861177,99.94093578049791,False,,
2022-11-16 11:54:29.177721-07:00,39.599592,2.85,-1.17,-2.59,-0.12,15.14,975.08,21.92,21.0,0.0,0.000165842,-0.000763483,0.000171191,32.8213494,-111.786976,331.57818000000003,-3.49689028,-0.489842978,-0.30638507,2.02138,-6.53786,2854.61,29.2519,11457.0,-0.151049,-1.0,17.0,-1281.0,81.0,,0.0,,2022-11-16 18:54:29.177721+00:00,1.178271898897142,0.014588939259819316,2.84266109632284,-2.657304596828337,-1.0096803396235667,-0.119828809,380.8049934268592,0.2491961909344948,0.23510117532641053,2.938722418337486,377.51814244209237,-2.801867773137576,-0.8805283096705135,-0.075476199,0.23936139289304942,0.2528366750642059,0.9772115719138851,0.21226762286696915,-1.4552082653992804,0.2288600728540507,,,,,,,,,,,0.6011530134506908,0.6548730354332488,0.8889564883156001,0.138733000000002,1.743508670770666e-10,0.00125100000002476,-25.114833027408945,-96.73384002848331,99.94093578034393,False,,
2022-11-16 11:54:30.177539-07:00,40.59941,2.61,-0.94,-2.43,0.15,15.4,975.08,21.58,22.0,0.0,0.000124708,-0.000662758,0.000921795,32.8213491,-111.786976,331.585962,-3.45033129,-0.497391532,-0.303236975,2.01856,-6.58744,2852.41,29.2516,11533.0,-0.0820997,-1.0,16.0,-1291.0,81.0,,0.0,,2022-11-16 18:54:30.177539+00:00,1.1772102087439162,0.014571671920590803,2.606068505891483,-2.4828302630690122,-0.7919260964181736,0.150921795,377.6906562277543,0.24554943136718416,0.23042776750449817,2.735850652036859,377.0662600624903,-2.615543067948217,-0.8018325432503739,0.0966540956,0.23418113114030992,0.24858097782005845,0.982753570738338,0.184920034612387,-1.271670109668681,0.22633288797460976,,,,,,,,,,,0.5677556245072312,0.6548730384438147,0.8667209156586854,0.1465149999999653,-0.02223557265691478,0.007781999999963318,-25.148230416352405,-96.73384002547276,99.94933366034867,False,,
2022-11-16 11:54:32.177627-07:00,42.599498,2.51,-0.87,-2.35,0.23,15.92,975.08,21.49,21.0,0.0,-0.000499331,-0.000624788,8.82018e-05,32.8213486,-111.786976,331.580164,-3.37966653,-0.504667982,-0.287847687,2.02145,-6.39084,2840.29,29.2494,11493.0,-0.132718,-1.0,15.0,-1266.0,81.0,,0.0,,2022-11-16 18:54:32.177627+00:00,1.1750925579723146,0.014537260238597473,2.5066162645308796,-2.3978260307530763,-0.7304487824986007,0.2300882018,376.94228766619955,0.24369906105119785,0.22838228503666985,2.5512813460181194,376.81569082799393,-2.439946952058981,-0.7398859000635846,0.17823557478000002,0.22958132589294458,0.24466431448877204,0.7811733022409866,-0.6243142412807129,0.9453145183056758,0.1694738357942728,,,,,,,,,,,0.5120933076775286,0.6548730415345155,0.8313231960536043,0.1407169999999951,-0.03539771960508109,-0.005797999999970216,-25.20389273318211,-96.73384002238205,99.96335335702557,False,,
2022-11-16 11:54:32.977534-07:00,43.399405,2.84,-0.59,-2.77,0.21,16.13,975.09,20.57,21.0,0.0,4.56946e-05,0.000269802,0.000341563,32.8213485,-111.786976,331.57714200000004,-3.35284981,-0.504451812,-0.294377272,2.02153,-6.12335,2845.9,29.2498,11493.0,-0.140499,-1.0,15.0,-1266.0,81.0,,0.0,,2022-11-16 18:54:32.977534+00:00,1.1742515534628706,0.014523456036675689,2.831863395129799,-2.799494851090333,-0.42694129267943387,0.21034156299999998,368.6711680351008,0.2532057048577773,0.23963706706188695,2.887535171029456,374.9572956810865,-2.783823638594489,-0.7446918796368082,0.2139894494,0.23945077793764594,0.2526360205452806,0.9859593537403607,-0.16698548671034338,-0.269377779175942,0.23288046753488886,,,,,,,,,,,0.500960844460718,0.6548730419614432,0.8245122611402633,0.1376950000000079,-0.006810934913340949,-0.0030219999999872016,-25.21502519639892,-96.73384002195513,99.96616077977707,False,,
2022-11-16 11:54:33.978181-07:00,44.400052,3.77,-0.98,-3.63,0.07,15.21,975.09,22.53,21.0,0.0,-0.000170474,0.00126365,-0.00173908,32.8213483,-111.786976,331.56606400000004,-3.31644122,-0.50713651,-0.317403929,2.02196,-6.70149,2858.38,29.2481,11508.0,-0.0491853,-1.0,20.0,-1287.0,81.0,,0.0,,2022-11-16 18:54:33.978181+00:00,1.1779979518162687,0.014584333255199918,3.7587579838236147,-3.6793505262028146,-0.7685319032342358,0.06826092,371.7981427799964,0.2761475532890955,0.26785632788246466,3.829558116360984,371.44289825484054,-3.753493615190802,-0.7562304907072732,0.014570876,0.27054017721986473,0.2784647235417704,0.9910225377798022,0.1336949124405281,-1.2512644602762026,0.2657510687006434,,,,,,,,,,,0.47869591697279773,0.6548730422984583,0.8111772201286633,0.1266170000000102,-0.01333504101159999,-0.0110779999999977,-25.23729012388684,-96.73384002161811,99.97177910853263,False,,
2022-11-16 11:54:34.978258-07:00,45.400129,4.03,-0.85,-3.94,-0.17,15.35,975.1,22.36,22.0,0.0,-0.00058115,0.000945746,0.000229619,32.8213482,-111.786977,331.56899400000003,-3.28771156,-0.510035755,-0.316110016,2.02157,-6.06431,2868.98,29.2479,11452.0,0.0338424,-1.0,17.0,-1288.0,81.0,,0.0,,2022-11-16 18:54:34.978258+00:00,1.177438381415672,0.014575083129261288,4.02980055478109,-3.981316985526672,-0.6232235329886046,-0.16977038100000003,368.8967120715835,0.28538637431193725,0.27850601384818197,3.9242238520093897,369.67463596589135,-3.8651708745834528,-0.6638622600614615,-0.040595189600000005,0.27445246116037825,0.2818585102104936,0.8519989380490938,0.5235435125786743,-2.589195076979444,0.2136807663448683,,,,,,,,,,,0.4675634542327239,0.5613197512612369,0.7305446234762208,0.1295470000000023,-0.08063259665244249,0.0029299999999921056,-25.248422586626912,-96.82739331265533,100.06511349534632,False,,
2022-11-16 11:54:35.978049-07:00,46.39992,4.48,-0.89,-4.39,-0.11,15.29,975.11,22.48,21.0,0.0,0.000328559,0.00271511,-0.00145728,32.821348,-111.786977,331.56511800000004,-3.25907374,-0.503947946,-0.320727108,2.02244,-6.97675,2864.58,29.2475,11485.0,0.0118056,-1.0,20.0,-1309.0,81.0,,0.0,,2022-11-16 18:54:35.978049+00:00,1.177695384451198,0.014579113032851997,4.47657377082323,-4.430782154202333,-0.6386565803502221,-0.11145728,368.2021677556075,0.2995857893070484,0.29512544581086203,4.026436945891883,370.3673857668638,-3.9585146735750927,-0.7221310913771207,0.0709190654,0.2780147435655198,0.2847835822653687,0.992757577946719,-0.12013488847692844,-0.24134539439134273,0.274033150589716,,,,,,,,,,,0.4452985273340442,0.561319752183903,0.7164988783226857,0.1256710000000112,-0.014045745153535183,-0.0038759999999911088,-25.270687513525594,-96.82739331173266,100.07073369847566,False,,
2022-11-16 11:54:37.177634-07:00,47.599505,3.98,-0.6,-3.94,0.04,15.0,975.1,22.91,20.0,0.0,-0.000162469,-0.000557056,0.0012237,32.8213479,-111.786977,331.570917,-3.22132163,-0.499623881,-0.332753666,2.02307,-6.86779,2877.54,29.2466,11490.0,-0.0213185,-1.0,17.0,-1285.0,81.0,,0.0,,2022-11-16 18:54:37.177634+00:00,1.1788685512351946,0.01459834817423855,3.9859933866671025,-3.9680473809696757,-0.37781379134909,0.0412237,365.4389657138059,0.2853815697572762,0.2781440410424907,4.373421483939238,364.14609229210134,-4.358029956685256,-0.31184134463496416,-0.13348144779999999,0.29249854109412754,0.2978898281215578,0.9600026249649899,-0.2799909999630863,0.9208406560192128,0.27057779285808325,,,,,,,,,,,0.43416606477556663,0.5613197533261136,0.7096337345960877,0.13146999999997888,-0.0068651437265979665,0.005798999999967691,-25.28181997608407,-96.82739331059045,100.07354553840341,False,,
2022-11-16 11:54:39.977631-07:00,50.399502,3.67,-0.2,-3.67,-0.01,15.17,975.08,22.68,21.0,0.0,0.000394368,-0.000308808,0.0128823,32.8213476,-111.786977,331.564294,-3.12289392,-0.507182752,-0.340446593,2.02006,-7.46439,2857.97,29.2443,11521.0,0.123549,-1.0,19.0,-1321.0,81.0,,0.0,,2022-11-16 18:54:39.977631+00:00,1.1781492984637103,0.014586944775130471,3.675754405109984,-3.6757543519931506,0.000624891085006401,0.002882299999999999,359.9902595173527,0.2772375694944144,0.26817997324385556,3.1990736256992482,350.34880252169853,-3.1073546853845686,0.5125619389632066,0.41095609328,0.25011721378870233,0.26257702606347755,0.6165214127728819,0.7873381405676534,-2.1305334493316677,0.18850154300464536,,,,,,,,,,,0.4007686747613108,0.5613197546389186,0.6897067475513293,0.12484699999998838,-0.01992698704475837,-0.006622999999990498,-25.315217366098327,-96.82739330927765,100.08198801663741,False,,
2022-11-16 11:54:41.177541-07:00,51.599412,2.74,0.16,-2.68,0.59,15.43,975.09,22.27,20.0,0.0,-0.0013117,0.00145373,-0.00703468,32.8213475,-111.786977,331.506372,-3.08338587,-0.516015777,-0.32244965,2.01748,-6.60325,2855.58,29.2441,11484.0,0.160253,-1.0,21.0,-1311.0,81.0,,0.0,,2022-11-16 18:54:41.177541+00:00,1.1770999008446155,0.01456972902356084,2.6831792393984695,-2.6660601776536867,0.3026118964418625,0.58296532,353.52434142958845,0.2506472180569824,0.23662663551095037,3.309968554755873,355.5223062498692,-3.257788639675316,0.19626180710558846,0.314390802,0.25518243438130145,0.2662945950273811,0.7424446006519181,0.6699074674630922,-2.0367034181351906,0.18457470852729277,,,,,,,,,,,0.38963620827129236,0.5613197501735036,0.6832980584861005,0.06692499999996926,-0.006408689065228845,-0.057922000000019125,-25.326349832588345,-96.82739331374306,100.08480449986872,False,,
2022-11-16 11:54:41.978010-07:00,52.399881,3.7,-0.12,-3.69,0.16,15.16,975.08,22.63,22.0,0.0,-0.000453291,0.00155287,-0.00181889,32.8213475,-111.786977,331.488916,-3.04930162,-0.518841368,-0.34923267,2.02411,-6.86112,2846.23,29.2425,11484.0,0.108139,-1.0,21.0,-1311.0,81.0,,0.0,,2022-11-16 18:54:41.978010+00:00,1.1781901624399327,0.014587609542442991,3.690388803307485,-3.689606002267684,0.07600702340921871,0.15818111,358.8198561640915,0.2778010310175859,0.26890898330076557,3.7433432681461922,360.0322050393165,-3.7288819537608733,-0.00994045920449529,0.159454788,0.2704321406838902,0.27900648588063737,0.9599383990920597,0.2802111167469513,-1.054416404975891,0.2501593542283967,,,,,,,,,,,0.389636207204966,0.5613197486373269,0.683298056616103,0.04946899999998777,-1.8699974901892347e-09,-0.017455999999981486,-25.32634983365467,-96.82739331527924,100.08480450162473,False,,
2022-11-16 11:54:42.177465-07:00,52.599336,3.24,0.01,-3.23,0.21,15.48,975.09,21.4,21.0,0.0,-0.000550339,0.00113265,-0.000424835,32.8213475,-111.786977,331.476801,-3.0463651,-0.523265014,-0.358493329,2.02411,-6.86112,2846.23,29.2425,11484.0,0.108139,-1.0,21.0,-1311.0,81.0,,0.0,,2022-11-16 18:54:42.177465+00:00,1.1768959892794897,0.014566413980053268,3.228853710230389,-3.223771455289085,0.18109082288135475,0.20957516499999998,356.7848691616521,0.26468745881591027,0.2534847134303367,3.7670486786851973,355.1311186824013,-3.717148347899543,0.3155736307345433,0.22478563240000002,0.27005328657369365,0.2791843491565862,0.8994473827156018,0.4370290673697276,-1.3406599995392163,0.22488767037347301,,,,,,,,,,,0.3896362064649027,0.5613197475711731,0.6832980553182673,0.03735399999999345,-1.2978357277759756e-09,-0.012114999999994325,-25.326349834394733,-96.8273933163454,100.08480450284347,False,,
2022-11-16 11:54:44.178084-07:00,54.599955,2.81,0.71,-2.68,0.46,14.44,975.09,23.66,21.0,0.0,-0.000931218,-0.000147771,-0.000814778,32.8213473,-111.786977,331.45858200000004,-2.99801632,-0.520070107,-0.302310805,2.01923,-7.07347,2852.16,29.2411,11452.0,0.198977,-1.0,20.0,-1265.0,81.0,,0.0,,2022-11-16 18:54:44.178084+00:00,1.1811519502963914,0.014635680658911774,2.7723093820388747,-2.639345797439435,0.8482647412686443,0.459185222,342.1830079817179,0.25051688046307935,0.2360826795914514,2.7437453290732896,346.7519330157332,-2.666248329343709,0.6296873650953572,0.5238196760999999,0.23699690744068888,0.2510383939159511,0.15672473434984635,-0.9876423227277019,2.7319872779799,0.24494141146668347,,,,,,,,,,,0.36737127910929407,0.5613197472316152,0.670851336248623,0.019135000000005675,-0.01244671906964423,-0.018218999999987773,-25.348614761750344,-96.82739331668495,100.09044093640327,False,,
2022-11-16 11:54:45.178183-07:00,55.600054,1.97,0.06,-1.95,0.3,15.29,975.08,22.48,21.0,0.0,-0.00316353,0.00129479,0.00270949,32.8213472,-111.786977,331.468835,-2.97147745,-0.513914827,-0.318602086,2.02122,-6.4977,2874.86,29.2404,11503.0,0.197241,-1.0,16.0,-1262.0,81.0,,0.0,,2022-11-16 18:54:45.178183+00:00,1.177659151757929,0.014578972315737808,1.9493737863386678,-1.9429730366048592,0.15784149609924059,0.30270948999999997,355.3556558071577,0.23486915343390627,0.218652495563626,2.25309273940228,348.0757936771558,-2.1964486161878902,0.46463322960505843,0.45573216544,0.224871930368228,0.24043930097914812,0.37878787517193707,0.9254835199087713,-1.856779562831944,0.20845313344169797,,,,,,,,,,,0.3562388162065189,0.56131974876579,0.6648202422660667,0.029387999999983094,-0.0060310939825563015,0.010252999999977419,-25.359747224653116,-96.82739331515077,100.09326088955842,False,,
2022-11-16 11:54:45.978162-07:00,56.400033,1.96,1.09,-1.52,0.58,14.99,975.07,22.12,21.0,0.0,-0.000401645,-0.00112407,-0.00071568,32.8213471,-111.786977,331.46166400000004,-2.95466093,-0.508049707,-0.323433373,2.02015,-6.55483,2877.2,29.2402,11505.0,0.185487,-1.0,20.0,-1297.0,81.0,,0.0,,2022-11-16 18:54:45.978162+00:00,1.1788731938653947,0.014598872876974376,1.871055954310834,-1.4629186151722535,1.1664988253506825,0.57928432,321.4319193982313,0.22759505790804962,0.20910268626008133,2.1429021123922674,336.19301270639414,-1.9477227453508774,0.8431155819153069,0.6032268316399999,0.21907774391581686,0.235782769949543,0.9416911050744596,-0.33647862134709683,1.4493215081613673,0.19609969384100023,,,,,,,,,,,0.34510635303337306,0.5613197487666045,0.6589220403502976,0.02221700000001192,-0.0058982019157691745,-0.007170999999971173,-25.370879687826264,-96.82739331514996,100.09608200294807,False,,
2022-11-16 11:54:46.177334-07:00,56.599205,2.23,0.77,-2.01,0.6,15.34,975.08,22.4,21.0,0.0,0.00010914,-1.0893e-05,-0.000885686,32.8213472,-111.786977,331.457483,-2.94055989,-0.507000869,-0.343941231,2.02015,-6.55483,2877.2,29.2402,11505.0,0.185487,-1.0,20.0,-1297.0,81.0,,0.0,,2022-11-16 18:54:46.177334+00:00,1.1774550443102256,0.014575653042828747,2.1524946563070038,-1.9678633681741011,0.8722081228862111,0.5991143139999999,336.09583586847214,0.2359320252758846,0.21927726334528297,2.198667758882473,335.23364835331597,-1.9850988102389784,0.900931558300519,0.5710212661999999,0.22002363231823957,0.23661961722005564,0.09931415073325682,0.995056128800849,-1.8858094848221634,0.2342958175612931,,,,,,,,,,,0.35623881557250364,0.5613197477667825,0.6648202410828543,0.018035999999995056,0.005898200732556758,-0.004181000000016866,-25.359747225287133,-96.82739331614978,100.09326089068546,False,,
2022-11-16 11:54:46.978142-07:00,57.400013,2.42,1.1,-2.1,0.51,14.44,975.07,23.67,21.0,0.0,0.000193107,-0.00170253,-0.00194943,32.8213472,-111.786977,331.441095,-2.92155069,-0.507044009,-0.333222395,2.01895,-6.97296,2878.82,29.2398,11454.0,0.216307,-1.0,17.0,-1270.0,81.0,,0.0,,2022-11-16 18:54:46.978142+00:00,1.1811277237747309,0.014635586101997822,2.3722181567018845,-2.042907625853499,1.20579741881284,0.50805057,329.4493702166514,0.2376442521051833,0.22100703262474686,2.3932623555195183,335.31886573240433,-2.163059970450603,0.995419498296177,0.5248034584,0.22392691244730373,0.23994156307292883,0.9936289555899283,0.11270092552090429,0.7452987758388779,0.22110370973192645,,,,,,,,,,,0.35623881465722507,0.5613197463245928,0.6648202393747425,0.0016479999999887696,-1.7081117631434495e-09,-0.016388000000006286,-25.359747226202412,-96.82739331759197,100.0932608923125,False,,
2022-11-16 11:54:47.977937-07:00,58.399808,2.17,1.37,-1.54,0.65,14.45,975.06,23.69,22.0,0.0,3.08567e-05,-0.00140705,0.000261315,32.821347,-111.786977,331.442804,-2.89998955,-0.507683335,-0.312856475,2.02058,-6.57498,2877.25,29.2385,11520.0,0.188114,-1.0,20.0,-1300.0,81.0,,0.0,,2022-11-16 18:54:47.977937+00:00,1.1810745425163167,0.014634869658806404,2.062213456719005,-1.4701227959189276,1.446189235885976,0.6502613150000001,315.47020386664923,0.2277544219916157,0.20940529478672482,2.1363130790519675,320.7871101910098,-1.6514172544202215,1.339089397898757,0.6041993896,0.21293174432239578,0.2306972226331641,0.9997596227923153,0.021924794962949776,1.3025605266270093,0.21282941764077207,,,,,,,,,,,0.33397388927322413,0.5613197477387544,0.6531603309431633,0.003356999999994059,-0.011659908431579269,0.0017090000000052896,-25.382012151586412,-96.82739331617782,100.09890427606626,False,,
2022-11-16 11:54:48.977831-07:00,59.399702,2.28,1.58,-1.44,0.8,14.37,975.05,23.86,21.0,0.0,-0.000108859,-0.00178108,-0.000516095,32.821347,-111.786977,331.442407,-2.8696961,-0.509635811,-0.304389826,2.02087,-6.22456,2854.73,29.2382,11465.0,0.133068,-1.0,20.0,-1293.0,81.0,,0.0,,2022-11-16 18:54:48.977831+00:00,1.1813910502748,0.0146401773946933,2.138804625975707,-1.3608730478923767,1.6500029623049766,0.799483905,309.51479140105823,0.226198439550976,0.20764795550941026,2.330278225536036,316.69973358332936,-1.6933844598891947,1.590482806364721,0.6698778384,0.21385236894315912,0.23155452697437537,0.9981374105321152,-0.06100581690497748,1.6908266921504687,0.2130582153782639,,,,,,,,,,,0.33397388925243726,0.5613197477038173,0.65316033090251,0.0029599999999732063,-4.065325853730428e-11,-0.0003970000000208529,-25.3820121516072,-96.82739331621275,100.09890427610532,False,,
2022-11-16 11:54:49.177368-07:00,59.599239,2.44,1.58,-1.73,0.69,14.31,975.05,23.95,21.0,0.0,-1.57321e-06,-0.00072982,-0.000689378,32.821347,-111.786977,331.44277300000005,-2.86280518,-0.513620698,-0.31672677,2.02087,-6.22456,2854.73,29.2382,11465.0,0.133068,-1.0,20.0,-1293.0,81.0,,0.0,,2022-11-16 18:54:49.177368+00:00,1.181637635758055,0.014644196236843073,2.3434381019395656,-1.649658312937627,1.664430709935952,0.6893106219999999,314.7446084308927,0.23070840373066615,0.21285401650909053,2.3811078274886333,317.2275691440549,-1.7468138520586194,1.6048849868834723,0.6478574162,0.21502366499831904,0.23254056774795445,0.999997676672857,-0.002155608704776206,1.608646705355742,0.2150226658615601,,,,,,,,,,,0.333973889271601,0.5613197477360263,0.6531603309399889,0.0033260000000154832,3.7478908865296034e-11,0.00036600000004227695,-25.382012151588036,-96.82739331618055,100.09890427606932,False,,
2022-11-16 11:54:51.177749-07:00,61.59962,2.25,1.49,-1.62,0.5,14.51,975.03,23.61,22.0,0.0,0.000479391,-0.000656036,0.00193469,32.8213468,-111.786978,331.45333300000004,-2.81316279,-0.507894603,-0.28970819,2.02008,-6.59212,2810.83,29.2371,11517.0,0.104224,-1.0,20.0,-1304.0,81.0,,0.0,,2022-11-16 18:54:51.177749+00:00,1.180791863552966,0.0146307142192944,2.2018244255138857,-1.5455757053143222,1.5681921246874337,0.50193469,314.5838473959701,0.22877798203759506,0.21105765889023861,2.0282710452708095,315.3969860014222,-1.4422756089433766,1.4223293773331107,0.4839944034,0.20928045085812902,0.22711385070196152,0.8074028027543615,0.5900006051729113,0.2974492435958982,0.1576811000687952,,,,,,,,,,,0.3117089636001705,0.46776645807588296,0.5621102536776474,0.01388600000001361,-0.09105007726234149,0.010559999999998126,-25.404277077259465,-96.92094660584068,100.19504570980737,False,,
2022-11-16 11:54:52.177852-07:00,62.599723,1.95,1.57,-1.05,0.51,14.47,975.02,23.69,22.0,0.0,-0.000372731,-0.00202823,0.00242425,32.8213468,-111.786978,331.463953,-2.78186005,-0.511177456,-0.299293314,2.02093,-6.95667,2799.9,29.2358,11454.0,0.162903,-1.0,15.0,-1273.0,81.0,,0.0,,2022-11-16 18:54:52.177852+00:00,1.1809439670988247,0.014633342457262962,1.889482055620243,-0.9745931976101957,1.6187373281922033,0.51242425,301.05088481808093,0.22105911441730827,0.20245147220553414,1.8873891719972022,305.14697069441655,-1.0840252480587267,1.535982303194137,0.5241461500000001,0.20397529408386889,0.22236089512905144,0.9835300194198145,-0.18074485027258522,1.7066166856410976,0.19744536135565532,,,,,,,,,,,0.31170896411916155,0.4677664588547076,0.5621102546135532,0.024505999999973938,9.35905797305736e-10,0.010619999999960328,-25.404277076740474,-96.92094660506186,100.19504570892242,False,,
2022-11-16 11:54:53.177671-07:00,63.599542,1.62,1.28,-0.96,0.24,14.87,975.01,23.12,22.0,0.0,4.77485e-05,-0.00198641,0.00168543,32.8213467,-111.786978,331.462549,-2.75792761,-0.504652435,-0.283426045,2.02243,-6.82368,2792.43,29.2351,11525.0,0.17889,-1.0,18.0,-1314.0,81.0,,0.0,,2022-11-16 18:54:53.177671+00:00,1.1792917858630714,0.014606584709430189,1.6011543529331167,-0.8992855745195376,1.3247568521724025,0.24168542999999998,304.16986350278125,0.22006222933447775,0.2016631261551386,1.6133945983638576,306.2594167845503,-0.9545192115187074,1.289239807769,0.28680951742,0.20255670278717725,0.2208145795321969,0.9997112223811941,0.02403064387607203,1.2659297929223674,0.2024397721540618,,,,,,,,,,,0.30057650127636293,0.467766459278313,0.556014112721349,0.023101999999994405,-0.006096141892204199,-0.0014039999999795327,-25.415409539583273,-96.92094660463826,100.19786890350453,False,,
2022-11-16 11:54:54.177440-07:00,64.599311,1.71,1.27,-1.1,0.35,14.66,975.02,23.41,21.0,0.0,-0.00023264,-0.00193696,-0.000348985,32.8213466,-111.786978,331.453394,-2.73472349,-0.508416448,-0.277176241,2.02255,-6.97804,2787.11,29.2341,11482.0,0.151643,-1.0,21.0,-1299.0,81.0,,0.0,,2022-11-16 18:54:54.177440+00:00,1.1801643577949479,0.014620642661049382,1.6811635484648182,-1.0400902207276967,1.3208040011422704,0.34965101499999995,308.21928258695937,0.22147069788407173,0.2034251895851459,1.6410511418785405,309.422678853815,-1.0033161789970237,1.245077440522553,0.3896129136,0.20333596982378727,0.22130440022620945,0.9928644145333075,-0.1192487079738495,1.3558372420677083,0.20046918328782104,,,,,,,,,,,0.28944403737858776,0.4677664591334938,0.5500757321172275,0.013946999999973286,-0.0059383806041215514,-0.009155000000021118,-25.42654200348105,-96.92094660478307,100.20069325619457,False,,
2022-11-16 11:54:54.978279-07:00,65.40015,1.23,0.71,-0.97,0.22,14.93,975.04,23.01,21.0,0.0,0.000271581,-0.00126905,-0.000996649,32.8213466,-111.786978,331.44271200000003,-2.71740932,-0.498624307,-0.277854519,2.02258,-6.59889,2780.93,29.2337,11489.0,0.156282,-1.0,15.0,-1262.0,81.0,,0.0,,2022-11-16 18:54:54.978279+00:00,1.1790824462730085,0.01460272777088821,1.203239638543662,-0.936517227658192,0.7554608593845855,0.219003351,321.10790381556205,0.22004088846310965,0.20223301147871342,1.3029062483134402,322.5256022828591,-1.0330779654987448,0.7861093818236189,0.2830127656,0.20351149267486854,0.22117322473286852,0.9778589401433743,0.20926512653014298,0.5525168957812097,0.1948402256313214,,,,,,,,,,,0.28944403689385395,0.4677664583501223,0.5500757311960122,0.003264999999998963,-9.21215326243896e-10,-0.010681999999974323,-25.426542003965782,-96.92094660556644,100.20069325707532,False,,
2022-11-16 11:54:56.178034-07:00,66.599905,1.49,0.99,-0.73,0.84,15.19,975.03,22.65,21.0,0.0,0.000258443,-0.000420387,-0.00119122,32.8213465,-111.786978,331.433527,-2.70139634,-0.497724319,-0.268841048,2.02379,-6.26415,2778.25,29.2338,11527.0,0.212094,-1.0,19.0,-1299.0,81.0,,0.0,,2022-11-16 18:54:56.178034+00:00,1.1780071702491717,0.014585380682746708,1.230488938831844,-0.6829496710242506,1.0235637622714988,0.8388087799999999,303.71229946724645,0.21788318679090357,0.19974569338241902,1.3087069582200481,319.5233513890088,-0.963010656276684,0.6602687191156795,0.6369049544,0.2044818213767074,0.22171591845098887,0.8518904130893041,0.5237200818056672,0.058128572192447714,0.16037322784972133,,,,,,,,,,,0.27831157375351856,0.46776645820310303,0.5443002769657899,-0.005920000000003256,-0.005775454230222299,-0.00918500000000222,-25.437674467106117,-96.92094660571347,100.20351876676798,False,,
2022-11-16 11:54:56.977793-07:00,67.399664,2.37,-0.29,-2.35,-0.02,15.38,975.06,22.34,22.0,0.0,-0.000256899,-0.000235147,-0.00144871,32.8213464,-111.786978,331.415704,-2.67939706,-0.50173498,-0.279357205,2.02151,-7.09284,2783.44,29.2328,11449.0,0.171312,-1.0,17.0,-1282.0,81.0,,0.0,,2022-11-16 18:54:56.977793+00:00,1.1772676616909599,0.01457290498720117,2.368079997440935,-2.3612227127101324,-0.18008380066419225,-0.02144871,364.36134449316734,0.2423892419719296,0.22956472641374065,2.2394521673764505,364.17459681509297,-2.2326701564197142,-0.16384145346052134,0.1506138548,0.22635066926627861,0.23967124136414322,0.675188104128704,-0.7376455951492467,1.5362955059644812,0.16629696038458971,,,,,,,,,,,0.2671791102834171,0.4677664574226102,0.5386929883166635,-0.023743000000024495,-0.005607288649126407,-0.01782300000002124,-25.448806930576218,-96.92094660649396,100.2063454342518,False,,
2022-11-16 11:54:57.177520-07:00,67.599391,2.23,-0.24,-2.21,0.09,15.25,975.05,22.56,21.0,0.0,-0.000173907,-0.000448543,-0.00168434,32.8213464,-111.786978,331.41323200000005,-2.67441505,-0.505867229,-0.282133977,2.02151,-7.09284,2783.44,29.2328,11449.0,0.171312,-1.0,17.0,-1282.0,81.0,,0.0,,2022-11-16 18:54:57.177520+00:00,1.1777862509535733,0.014581488061995043,2.2234518650431365,-2.219239929932835,-0.13679301720302506,0.08831565999999999,363.52722514455286,0.23937582803250082,0.2260062428307634,2.2043275750085436,362.41499603945084,-2.195978727784915,-0.10368707124091754,0.14486974940000003,0.2255358451537887,0.2390097567954214,0.9323738060137582,-0.36149562356883214,0.6971615902971846,0.19853525352142645,,,,,,,,,,,0.2671791101798702,0.46776645724132443,0.5386929881078898,-0.026214999999979227,-2.0877366502247696e-10,-0.0024719999999547326,-25.448806930679766,-96.92094660667524,100.20634543445344,False,,
2022-11-16 11:54:58.177335-07:00,68.599206,1.72,-0.33,-1.69,0.01,15.5,975.06,22.25,21.0,0.0,-3.87575e-05,-0.000217131,-0.00117231,32.8213464,-111.786978,331.415521,-2.64735353,-0.504718654,-0.259993911,2.0199,-6.80622,2796.58,29.2318,11528.0,0.16876,-1.0,17.0,-1295.0,81.0,,0.0,,2022-11-16 18:54:58.177335+00:00,1.1767782381004424,0.014564947947010494,1.7221379994681998,-1.7036556938647591,-0.25162783227321944,0.008827690000000001,368.40177227675804,0.22950490586787423,0.21462318894466106,1.6094697244521086,361.59017242942934,-1.5867873053887331,-0.05664468643711027,0.157373933,0.21249822746511943,0.22786382052450768,0.9844400425287605,-0.17572080885874666,0.2230682512645221,0.20605690721477685,,,,,,,,,,,0.26717911027575164,0.4677664574091897,0.5386929883012082,-0.02392600000001721,1.9331836131897262e-10,0.002288999999962016,-25.448806930583885,-96.92094660650739,100.20634543426674,False,,
2022-11-16 11:54:58.978125-07:00,69.399996,1.07,-0.09,-1.03,0.27,15.89,975.04,21.6,22.0,0.0,0.000258499,-0.0001743,0.000613186,32.8213463,-111.786978,331.42309,-2.62451265,-0.495718058,-0.240323499,2.01942,-6.18105,2815.98,29.2306,11479.0,0.101213,-1.0,17.0,-1274.0,81.0,,0.0,,2022-11-16 18:54:58.978125+00:00,1.1751663130443133,0.014539054511456656,1.034088061010755,-1.0332150363078478,-0.0424830162812837,0.270613186,362.3545216790259,0.22038374915963319,0.20373646157603775,1.1721835897018498,359.8078832287846,-1.162161185925001,-0.014650286361783504,0.26613162,0.20565975375656387,0.22200846406795902,0.5590611177315528,0.8291264479201872,-0.9717689814652143,0.1656037144869698,,,,,,,,,,,0.2560466478874838,0.467766458490836,0.5332591729951545,-0.01635700000002771,-0.005433815306053691,0.007568999999989501,-25.459939392972153,-96.92094660542573,100.20917325667146,False,,
2022-11-16 11:54:59.177439-07:00,69.59931,1.29,-0.18,-1.27,0.16,15.97,975.04,21.59,22.0,0.0,0.00025912,7.56802e-05,5.2151e-05,32.8213463,-111.786978,331.4255,-2.62276477,-0.494434619,-0.243505248,2.01942,-6.18105,2815.98,29.2306,11479.0,0.101213,-1.0,17.0,-1274.0,81.0,,0.0,,2022-11-16 18:54:59.177439+00:00,1.1748411425094365,0.014533773598707863,1.2825925821845323,-1.2768307345120027,-0.12143725655796894,0.160052151,365.43296455919807,0.22320520323450763,0.20716966023426758,1.1025774060804026,359.4744877042742,-1.0933386920435748,-0.0018508729696059835,0.294163824,0.20460748049743477,0.2211139758160932,0.2803534459179321,-0.9598968410000843,1.048973458020806,0.20436856595841857,,,,,,,,,,,0.25604664798422744,0.46776645866757494,0.533259173196639,-0.01394700000003013,2.014844957543005e-10,0.0024099999999975807,-25.45993939287541,-96.920946605249,100.20917325647595,False,,
2022-11-16 11:55:01.977705-07:00,72.399576,1.11,-0.29,-1.0,0.41,16.19,975.05,21.31,22.0,0.0,0.000716811,-0.00070801,0.0004147,32.8213461,-111.786979,331.431635,-2.56457857,-0.497376712,-0.25298097,2.02389,-6.93529,2871.08,29.2297,11520.0,0.0506651,-1.0,18.0,-1286.0,81.0,,0.0,,2022-11-16 18:55:01.977705+00:00,1.1739598906995592,0.01451931747411522,1.0417210784855802,-1.0126825978674014,-0.24424733639835508,0.41041469999999997,373.560099989715,0.2198921177622966,0.20367666794530806,1.1965883129788089,376.8313773355483,-1.143188842413256,-0.3470052785386927,0.2947451068,0.2054865052475105,0.22135489182556478,0.7027256359409676,0.7114609480437859,-1.0571837226523886,0.15116543811007088,,,,,,,,,,,0.23378172208189166,0.3742131678984601,0.44123620500608957,-0.007812000000001262,-0.09202296819054939,0.006135000000028867,-25.482204318777743,-97.01449989601811,100.30531355326313,False,,
