Timestamp,Seconds,S,Um,Vm,Wm,T,P,H,MD,Sts,Vx,Vy,Vz,Lat,Lon,Alt,Yaw,Roll,Pitch,CH4,C2H6,H20,T_a,Batt,R,C2C1,Power,Current,SOC,Lat_a,Lon_a,TS,Timestamp_UTC
2023-04-19 08:56:23.000791-07:00,0.0,5.53,5.33,-1.16,0.92,22.76,886.85,22.4,324.0,0.0,-0.00245635,-0.0179535,0.0313469,32.6911383,-103.075236,1158.72595,-104.488429,-0.460549453,-0.538184239,,,,,,,,,,,,,,2023-04-19 15:56:23.000791+00:00
2023-04-19 08:56:23.210336-07:00,0.209545,6.53,5.97,-2.56,0.66,22.65,886.76,22.59,338.0,0.0,0.00220699,-0.0185661,0.0603556,32.6911382,-103.075236,1158.77795,-104.488516,-0.466599308,-0.567782962,,,,,,,,,,,,,,2023-04-19 15:56:23.210336+00:00
2023-04-19 08:56:23.420642-07:00,0.419851,5.95,4.75,-3.43,1.04,22.34,886.79,23.02,348.0,0.0,-0.00158889,-0.019381,0.0608033,32.6911382,-103.075236,1158.77356,-104.475353,-0.471820995,-0.536357776,,,,,,,,,,,,,,2023-04-19 15:56:23.420642+00:00
2023-04-19 08:56:23.629953-07:00,0.629162,6.18,5.06,-3.45,0.77,21.89,886.76,23.63,350.0,0.0,-0.00676654,-0.0230854,0.0462197,32.6911382,-103.075236,1158.73901,-104.447018,-0.467713124,-0.545797732,2.13828,35.4978,5129.67,36.7451,11144.0,0.957099,0.155642,17.0,-1357.0,54.0,,0.0,,2023-04-19 15:56:23.629953+00:00
2023-04-19 08:56:23.840095-07:00,0.839304,6.91,5.91,-3.35,1.25,21.9,886.76,23.68,352.0,0.0,-0.00364951,-0.02123,0.0310441,32.6911381,-103.075236,1158.72693,-104.445427,-0.471551603,-0.559532014,,,,,,,,,,,,,,2023-04-19 15:56:23.840095+00:00
2023-04-19 08:56:24.050000-07:00,1.049209,6.01,4.61,-3.74,0.96,21.47,886.77,24.28,352.0,0.0,-0.00487997,-0.0215055,0.00747124,32.6911381,-103.075236,1158.65967,-104.419317,-0.472673813,-0.538805066,,,,,,,,,,,,,,2023-04-19 15:56:24.050000+00:00
2023-04-19 08:56:24.260258-07:00,1.259467,6.32,4.42,-4.42,0.9,21.87,886.8,23.71,346.0,0.0,-0.00351384,-0.0236782,-0.00830497,32.6911381,-103.075236,1158.65503,-104.420555,-0.469620532,-0.53848382,,,,,,,,,,,,,,2023-04-19 15:56:24.260258+00:00
2023-04-19 08:56:24.463065-07:00,1.462274,7.37,4.88,-5.44,0.97,21.8,886.76,23.76,333.0,0.0,-0.00218915,-0.0221996,0.000184113,32.691138,-103.075236,1158.70715,-104.381324,-0.470462692,-0.52250967,,,,,,,,,,,,,,2023-04-19 15:56:24.463065+00:00
2023-04-19 08:56:24.663404-07:00,1.662613,6.26,4.99,-3.67,0.9,22.4,886.73,22.96,324.0,0.0,-0.00628739,-0.0232823,0.00958229,32.691138,-103.075236,1158.71594,-104.393011,-0.477102216,-0.561516866,2.14195,36.2265,5130.2,36.7467,11158.0,0.959398,0.157077,14.0,-1361.0,54.0,,0.0,,2023-04-19 15:56:24.663404+00:00
2023-04-19 08:56:24.863757-07:00,1.862966,7.36,5.77,-4.49,0.86,22.15,886.74,23.25,334.0,0.0,0.00463744,-0.0186649,0.0145357,32.691138,-103.075236,1158.73364,-104.365312,-0.47114435,-0.528065142,,,,,,,,,,,,,,2023-04-19 15:56:24.863757+00:00
2023-04-19 08:56:25.063403-07:00,2.062612,6.79,5.85,-3.38,0.65,22.18,886.73,23.28,340.0,0.0,-0.00897682,-0.0224709,0.0148483,32.6911379,-103.075236,1158.72229,-104.34163,-0.465864938,-0.532448123,,,,,,,,,,,,,,2023-04-19 15:56:25.063403+00:00
2023-04-19 08:56:25.262933-07:00,2.262142,6.21,5.64,-2.59,0.17,22.03,886.75,23.45,349.0,0.0,-0.00397594,-0.0209048,0.0233996,32.6911379,-103.075236,1158.77563,-104.344405,-0.478564633,-0.567261013,,,,,,,,,,,,,,2023-04-19 15:56:25.262933+00:00
2023-04-19 08:56:25.463350-07:00,2.462559,5.61,5.26,-0.88,1.73,23.02,886.82,22.05,353.0,0.0,-0.00441446,-0.0220741,0.0373461,32.6911379,-103.075236,1158.80884,-104.353705,-0.472882433,-0.543022683,,,,,,,,,,,,,,2023-04-19 15:56:25.463350+00:00
2023-04-19 08:56:25.662905-07:00,2.662114,4.95,4.36,-1.67,1.66,22.82,886.88,22.36,351.0,0.0,-0.00758607,-0.0207488,0.0320957,32.6911378,-103.075236,1158.76367,-104.332156,-0.470327805,-0.54692199,2.13708,34.9065,5105.41,36.7479,11149.0,0.960832,0.1571,14.0,-1361.0,54.0,,0.0,,2023-04-19 15:56:25.662905+00:00
2023-04-19 08:56:25.863089-07:00,2.862298,4.21,3.35,-2.3,1.12,22.96,886.88,22.17,348.0,0.0,-0.00558214,-0.0204655,0.0125035,32.6911378,-103.075236,1158.73633,-104.317397,-0.479025275,-0.573878247,,,,,,,,,,,,,,2023-04-19 15:56:25.863089+00:00
2023-04-19 08:56:26.063567-07:00,3.062776,3.34,2.89,-1.18,1.19,23.13,886.88,21.94,336.0,0.0,-0.00215534,-0.0201722,0.00787888,32.6911378,-103.075236,1158.74365,-104.293423,-0.47941045,-0.559726684,,,,,,,,,,,,,,2023-04-19 15:56:26.063567+00:00
2023-04-19 08:56:26.263760-07:00,3.262969,4.36,3.83,-1.5,1.44,23.21,886.87,21.78,327.0,0.0,-0.00161351,-0.0211733,0.0102566,32.6911377,-103.075236,1158.78381,-104.281448,-0.477988017,-0.544005367,,,,,,,,,,,,,,2023-04-19 15:56:26.263760+00:00
2023-04-19 08:56:26.463131-07:00,3.46234,4.72,4.31,-1.83,0.6,22.83,886.84,22.35,325.0,0.0,-0.00878114,-0.0218441,0.0218183,32.6911377,-103.075236,1158.81482,-104.27424,-0.482235784,-0.559700482,,,,,,,,,,,,,,2023-04-19 15:56:26.463131+00:00
2023-04-19 08:56:26.663308-07:00,3.662517,4.18,3.8,-1.3,1.15,23.04,886.84,22.05,338.0,0.0,-0.00401413,-0.0210943,0.033121,32.6911377,-103.075236,1158.84705,-104.28002,-0.483694581,-0.571690663,2.138,35.2879,5094.32,36.7494,11116.0,0.962217,0.154528,14.0,-1325.0,54.0,,0.0,,2023-04-19 15:56:26.663308+00:00
2023-04-19 08:56:26.863750-07:00,3.862959,4.14,3.22,-2.48,0.76,22.88,886.87,22.3,346.0,0.0,-0.00330403,-0.0224785,0.0411185,32.6911376,-103.075236,1158.86523,-104.267025,-0.476062034,-0.55664244,,,,,,,,,,,,,,2023-04-19 15:56:26.863750+00:00
2023-04-19 08:56:27.063455-07:00,4.062664,4.23,3.82,-1.42,1.13,22.66,886.87,22.57,350.0,0.0,-0.0039162,-0.0225983,0.0342745,32.6911376,-103.075236,1158.84631,-104.246595,-0.477501468,-0.564256117,,,,,,,,,,,,,,2023-04-19 15:56:27.063455+00:00
2023-04-19 08:56:27.263564-07:00,4.262773,4.55,3.76,-2.32,1.09,22.55,886.85,22.76,351.0,0.0,-0.00254361,-0.0244786,0.0199231,32.6911375,-103.075235,1158.81116,-104.225596,-0.481324598,-0.569866272,,,,,,,,,,,,,,2023-04-19 15:56:27.263564+00:00
2023-04-19 08:56:27.463184-07:00,4.462393,4.13,3.62,-1.87,0.65,22.32,886.84,23.04,347.0,0.0,-0.00402371,-0.0252804,0.00773992,32.6911375,-103.075236,1158.80286,-104.211544,-0.478394394,-0.564446945,2.13957,35.2915,5109.04,36.7509,11098.0,0.962774,0.157819,17.0,-1324.0,54.0,,0.0,,2023-04-19 15:56:27.463184+00:00
2023-04-19 08:56:27.663165-07:00,4.662374,4.54,3.74,-2.48,0.71,22.69,886.87,22.53,340.0,0.0,-0.00130969,-0.0236515,0.00696647,32.6911374,-103.075236,1158.81885,-104.199136,-0.479443049,-0.560003586,,,,,,,,,,,,,,2023-04-19 15:56:27.663165+00:00
2023-04-19 08:56:27.863425-07:00,4.862634,4.21,3.59,-2.03,0.85,22.86,886.85,22.27,330.0,0.0,-0.00426915,-0.0243369,-0.00632143,32.6911373,-103.075235,1158.75854,-104.182115,-0.482986767,-0.559764038,,,,,,,,,,,,,,2023-04-19 15:56:27.863425+00:00
2023-04-19 08:56:28.063562-07:00,5.062771,4.22,3.68,-1.97,0.6,22.95,886.87,22.12,324.0,0.0,-0.00454586,-0.0247417,-0.0240151,32.6911373,-103.075235,1158.72803,-104.178431,-0.479923926,-0.567753825,,,,,,,,,,,,,,2023-04-19 15:56:28.063562+00:00
2023-04-19 08:56:28.263304-07:00,5.262513,4.53,4.14,-1.62,0.88,22.97,886.85,22.1,337.0,0.0,-0.0033617,-0.0234576,-0.0245046,32.6911373,-103.075235,1158.75903,-104.169394,-0.484061261,-0.567882965,,,,,,,,,,,,,,2023-04-19 15:56:28.263304+00:00
2023-04-19 08:56:28.463477-07:00,5.462686,4.84,4.75,-0.72,0.59,22.46,886.83,22.85,345.0,0.0,-0.00624832,-0.0248552,-0.00590114,32.6911373,-103.075235,1158.81982,-104.165745,-0.48245363,-0.574217533,,,,,,,,,,,,,,2023-04-19 15:56:28.463477+00:00
2023-04-19 08:56:28.663423-07:00,5.662632,5.69,5.59,-0.24,0.99,22.43,886.85,22.83,353.0,0.0,-0.000163861,-0.0269349,0.00979508,32.6911372,-103.075235,1158.8158,-104.155502,-0.480351,-0.569748445,2.13738,35.0414,5119.72,36.7522,11120.0,0.962726,0.154894,18.0,-1343.0,54.0,,0.0,,2023-04-19 15:56:28.663423+00:00
2023-04-19 08:56:28.863620-07:00,5.862829,6.93,6.78,-0.9,1.12,22.24,886.79,23.16,352.0,0.0,-0.00159616,-0.0251359,0.00154849,32.6911372,-103.075235,1158.77063,-104.130597,-0.491026656,-0.554425566,,,,,,,,,,,,,,2023-04-19 15:56:28.863620+00:00
2023-04-19 08:56:29.063796-07:00,6.063005,7.2,6.62,-2.85,0.14,22.22,886.71,23.16,352.0,0.0,-0.00287295,-0.0260205,-0.00393685,32.6911372,-103.075235,1158.79675,-104.104203,-0.504070374,-0.571987364,,,,,,,,,,,,,,2023-04-19 15:56:29.063796+00:00
2023-04-19 08:56:29.263548-07:00,6.262757,5.62,5.47,-1.21,0.49,22.46,886.76,22.79,347.0,0.0,-0.00374118,-0.0293772,0.0124292,32.6911371,-103.075236,1158.86353,-104.088424,-0.497948199,-0.578123798,,,,,,,,,,,,,,2023-04-19 15:56:29.263548+00:00
2023-04-19 08:56:29.463827-07:00,6.463036,5.41,5.25,-0.91,0.9,22.72,886.83,22.46,338.0,0.0,0.000337169,-0.0273529,0.0348849,32.6911371,-103.075236,1158.92212,-104.084102,-0.48973452,-0.563019473,2.13527,35.5088,5123.17,36.7538,11150.0,0.960429,0.154694,16.0,-1371.0,54.0,,0.0,,2023-04-19 15:56:29.463827+00:00
2023-04-19 08:56:29.663480-07:00,6.662689,6.17,5.99,-1.0,1.04,22.57,886.81,22.67,328.0,0.0,-0.00200673,-0.0267085,0.051284,32.691137,-103.075236,1158.95361,-104.08952,-0.502496558,-0.580679967,,,,,,,,,,,,,,2023-04-19 15:56:29.663480+00:00
2023-04-19 08:56:29.863613-07:00,6.862822,6.3,6.18,-0.12,1.19,22.78,886.84,22.37,325.0,0.0,0.000930794,-0.0273028,0.045014,32.691137,-103.075236,1158.90845,-104.065049,-0.485984912,-0.566308582,,,,,,,,,,,,,,2023-04-19 15:56:29.863613+00:00
2023-04-19 08:56:30.063683-07:00,7.062892,6.18,6.05,-0.7,1.02,22.35,886.8,22.98,339.0,0.0,0.00166235,-0.0259802,0.0231044,32.6911369,-103.075236,1158.85449,-104.073699,-0.487981816,-0.569708476,,,,,,,,,,,,,,2023-04-19 15:56:30.063683+00:00
2023-04-19 08:56:30.263754-07:00,7.262963,4.92,4.57,-1.71,0.65,22.86,886.82,22.27,348.0,0.0,0.00297613,-0.0235271,0.00381629,32.6911369,-103.075236,1158.8479,-104.07211,-0.498759885,-0.572819622,,,,,,,,,,,,,,2023-04-19 15:56:30.263754+00:00
2023-04-19 08:56:30.463635-07:00,7.462844,4.97,4.22,-2.35,1.17,23.03,886.83,22.05,352.0,0.0,0.00205751,-0.0265607,-0.00533102,32.6911369,-103.075236,1158.8064,-104.051499,-0.486039031,-0.563375247,,,,,,,,,,,,,,2023-04-19 15:56:30.463635+00:00
2023-04-19 08:56:30.663309-07:00,7.662518,4.13,3.31,-2.37,0.7,23.17,886.87,21.79,353.0,0.0,0.00330845,-0.0228724,-0.0265342,32.6911369,-103.075236,1158.7561,-104.020144,-0.481589191,-0.561969761,2.13395,34.7546,5114.01,36.7552,11155.0,0.962301,0.158832,14.0,-1363.0,54.0,,0.0,,2023-04-19 15:56:30.663309+00:00
2023-04-19 08:56:30.863336-07:00,7.862545,5.17,4.92,-0.23,1.57,22.77,886.89,22.39,351.0,0.0,-0.00135913,-0.0241784,-0.0394837,32.6911368,-103.075236,1158.73438,-104.001769,-0.491728477,-0.569333598,,,,,,,,,,,,,,2023-04-19 15:56:30.863336+00:00
2023-04-19 08:56:31.063717-07:00,8.062926,5.03,4.67,-0.81,1.68,22.89,886.87,22.2,345.0,0.0,-0.00308161,-0.0228971,-0.0436836,32.6911368,-103.075236,1158.73718,-103.993535,-0.483026679,-0.568143912,,,,,,,,,,,,,,2023-04-19 15:56:31.063717+00:00
2023-04-19 08:56:31.263685-07:00,8.262894,5.14,4.72,-0.69,1.91,23.02,886.88,22.05,334.0,0.0,-0.00174612,-0.0222049,-0.0328673,32.6911368,-103.075236,1158.76941,-103.987503,-0.475232658,-0.558880874,,,,,,,,,,,,,,2023-04-19 15:56:31.263685+00:00
2023-04-19 08:56:31.463386-07:00,8.462595,4.29,3.8,-1.88,0.66,22.93,886.86,22.17,322.0,0.0,-0.00276417,-0.0217791,-0.0202618,32.6911368,-103.075236,1158.75818,-103.988664,-0.48236823,-0.566019726,2.13326,34.1141,5108.15,36.7569,11129.0,0.961027,0.159722,13.0,-1347.0,54.0,,0.0,,2023-04-19 15:56:31.463386+00:00
2023-04-19 08:56:31.663595-07:00,8.662804,3.99,3.06,-2.46,0.69,23.09,886.85,21.99,332.0,0.0,-0.000287975,-0.0222557,-0.021256,32.6911367,-103.075236,1158.75146,-103.977513,-0.476539807,-0.55786857,,,,,,,,,,,,,,2023-04-19 15:56:31.663595+00:00
2023-04-19 08:56:31.863543-07:00,8.862752,3.91,3.56,-0.52,1.52,23.52,886.87,21.4,345.0,0.0,-0.00370748,-0.0228946,-0.0228733,32.6911367,-103.075236,1158.72058,-103.968694,-0.477884268,-0.563113873,,,,,,,,,,,,,,2023-04-19 15:56:31.863543+00:00
2023-04-19 08:56:32.063239-07:00,9.062448,4.69,4.4,-1.3,0.96,23.09,886.89,21.96,349.0,0.0,-0.000300537,-0.0194453,-0.029048,32.6911367,-103.075236,1158.7074,-103.962973,-0.489730062,-0.57530188,,,,,,,,,,,,,,2023-04-19 15:56:32.063239+00:00
2023-04-19 08:56:32.263093-07:00,9.262302,5.54,5.34,0.34,1.44,22.68,886.87,22.55,352.0,0.0,0.000846704,-0.021169,-0.0393085,32.6911367,-103.075236,1158.64612,-103.931326,-0.497740783,-0.563205391,,,,,,,,,,,,,,2023-04-19 15:56:32.263093+00:00
2023-04-19 08:56:32.463424-07:00,9.462633,5.72,5.26,-2.21,0.33,22.13,886.8,23.25,352.0,0.0,-0.006134,-0.0202846,-0.0447371,32.6911366,-103.075236,1158.67737,-103.908451,-0.497105886,-0.577940868,2.13674,34.5526,5108.91,36.7582,11093.0,0.957246,0.160654,14.0,-1325.0,54.0,,0.0,,2023-04-19 15:56:32.463424+00:00
2023-04-19 08:56:32.663438-07:00,9.662647,5.19,4.59,-2.36,0.54,22.18,886.79,23.22,347.0,0.0,0.000558573,-0.0231575,-0.0232925,32.6911366,-103.075236,1158.74646,-103.891216,-0.504344409,-0.588572875,,,,,,,,,,,,,,2023-04-19 15:56:32.663438+00:00
2023-04-19 08:56:32.863481-07:00,9.86269,4.62,3.6,-2.8,0.74,22.42,886.8,22.87,339.0,0.0,0.00485643,-0.0219189,0.00788541,32.6911366,-103.075236,1158.84949,-103.902875,-0.492537127,-0.562561295,,,,,,,,,,,,,,2023-04-19 15:56:32.863481+00:00
2023-04-19 08:56:33.063181-07:00,10.06239,5.37,4.19,-3.24,0.88,22.32,886.82,22.98,324.0,0.0,0.00445803,-0.0215347,0.0407482,32.6911366,-103.075236,1158.90576,-103.887591,-0.493196639,-0.5630913,,,,,,,,,,,,,,2023-04-19 15:56:33.063181+00:00
2023-04-19 08:56:33.263488-07:00,10.262697,6.52,5.16,-3.88,0.87,21.43,886.76,24.27,325.0,0.0,0.00198552,-0.0239981,0.0464075,32.6911366,-103.075236,1158.89612,-103.876481,-0.484966929,-0.553576128,,,,,,,,,,,,,,2023-04-19 15:56:33.263488+00:00
2023-04-19 08:56:33.462905-07:00,10.462114,6.37,4.8,-4.07,0.98,21.39,886.74,24.36,337.0,0.0,0.00166451,-0.0240386,0.0356223,32.6911366,-103.075236,1158.88477,-103.869184,-0.485191381,-0.559125865,,,,,,,,,,,,,,2023-04-19 15:56:33.462905+00:00
2023-04-19 08:56:33.663640-07:00,10.662849,5.55,4.19,-3.61,0.42,21.54,886.79,24.13,345.0,0.0,-0.000185096,-0.0253875,0.0217894,32.6911366,-103.075236,1158.88513,-103.843961,-0.491794291,-0.562283004,2.13477,34.1013,5127.07,36.7596,11091.0,0.96591,0.172038,16.0,-1329.0,54.0,,0.0,,2023-04-19 15:56:33.663640+00:00
2023-04-19 08:56:33.863566-07:00,10.862775,5.88,4.91,-3.16,0.65,21.56,886.76,24.11,351.0,0.0,0.0022841,-0.0234735,0.00891172,32.6911365,-103.075236,1158.86365,-103.825607,-0.489307925,-0.560345059,,,,,,,,,,,,,,2023-04-19 15:56:33.863566+00:00
2023-04-19 08:56:34.063141-07:00,11.06235,7.27,6.3,-3.58,0.51,21.69,886.72,23.88,351.0,0.0,0.00264363,-0.0214166,-0.000929878,32.6911365,-103.075236,1158.88464,-103.797395,-0.491078788,-0.549241532,,,,,,,,,,,,,,2023-04-19 15:56:34.063141+00:00
2023-04-19 08:56:34.263169-07:00,11.262378,7.16,6.58,-2.75,0.57,21.23,886.67,24.59,349.0,0.0,-0.00278483,-0.0230304,-0.00258764,32.6911365,-103.075236,1158.8656,-103.799248,-0.503416283,-0.564906831,,,,,,,,,,,,,,2023-04-19 15:56:34.263169+00:00
2023-04-19 08:56:34.463479-07:00,11.462688,6.85,6.21,-2.85,0.42,21.79,886.71,23.74,343.0,0.0,0.00261639,-0.0235393,-0.0124188,32.6911365,-103.075236,1158.86206,-103.775679,-0.503698402,-0.570065158,,,,,,,,,,,,,,2023-04-19 15:56:34.463479+00:00
2023-04-19 08:56:34.663674-07:00,11.662883,6.66,5.85,-3.15,0.58,21.9,886.74,23.61,327.0,0.0,0.00294842,-0.0225275,-0.0161276,32.6911364,-103.075236,1158.84302,-103.774902,-0.506247841,-0.556552096,,,,,,,,,,,,,,2023-04-19 15:56:34.663674+00:00
2023-04-19 08:56:34.863756-07:00,11.862965,5.98,5.06,-3.1,0.77,22.06,886.76,23.38,317.0,0.0,-0.00207831,-0.0276613,-0.0181906,32.6911363,-103.075236,1158.86646,-103.784602,-0.502225688,-0.56827556,,,,,,,,,,,,,,2023-04-19 15:56:34.863756+00:00
2023-04-19 08:56:35.063339-07:00,12.062548,7.25,6.22,-3.6,0.94,21.93,886.71,23.53,335.0,0.0,0.0078394,-0.0255707,-0.0141472,32.6911363,-103.075236,1158.84509,-103.771352,-0.496597076,-0.551767858,,,,,,,,,,,,,,2023-04-19 15:56:35.063339+00:00
2023-04-19 08:56:35.263752-07:00,12.262961,6.73,6.09,-2.81,0.54,21.73,886.67,23.81,346.0,0.0,-0.00163794,-0.0270447,-0.0160466,32.6911363,-103.075236,1158.86755,-103.758038,-0.510293647,-0.560411389,,,,,,,,,,,,,,2023-04-19 15:56:35.263752+00:00
2023-04-19 08:56:35.463195-07:00,12.462404,4.18,2.98,-2.89,0.45,21.82,886.75,23.72,347.0,0.0,0.00445675,-0.0279414,-0.0115609,32.6911362,-103.075236,1158.88245,-103.723993,-0.49772223,-0.576787148,,,,,,,,,,,,,,2023-04-19 15:56:35.463195+00:00
2023-04-19 08:56:35.663010-07:00,12.662219,4.35,3.48,-2.55,0.56,21.73,886.79,23.89,349.0,0.0,0.00436272,-0.0221962,0.00548102,32.6911362,-103.075236,1158.93616,-103.684144,-0.50591929,-0.561805295,2.13569,36.0586,5044.23,36.7626,11152.0,0.950848,0.170967,14.0,-1344.0,54.0,,0.0,,2023-04-19 15:56:35.663010+00:00
2023-04-19 08:56:35.863782-07:00,12.862991,3.49,3.31,-0.7,0.87,22.63,886.85,22.58,353.0,0.0,0.00118861,-0.0275321,0.00715343,32.6911362,-103.075236,1158.92896,-103.678028,-0.502275455,-0.558490574,,,,,,,,,,,,,,2023-04-19 15:56:35.863782+00:00
2023-04-19 08:56:36.063484-07:00,13.062693,5.76,5.44,-1.75,0.71,21.9,886.76,23.61,343.0,0.0,0.00178453,-0.0267886,0.00689539,32.6911361,-103.075236,1158.94409,-103.669611,-0.501988336,-0.563150587,,,,,,,,,,,,,,2023-04-19 15:56:36.063484+00:00
2023-04-19 08:56:36.263422-07:00,13.262631,5.21,4.03,-3.25,0.62,22.13,886.79,23.28,336.0,0.0,0.00416149,-0.0251297,0.00954571,32.6911361,-103.075236,1158.96399,-103.657749,-0.517123528,-0.571506773,,,,,,,,,,,,,,2023-04-19 15:56:36.263422+00:00
2023-04-19 08:56:36.463202-07:00,13.462411,5.62,4.55,-3.09,1.14,22.54,886.78,22.67,319.0,0.0,-0.00112168,-0.0278848,0.00567267,32.6911361,-103.075236,1158.94788,-103.656667,-0.51437136,-0.576448769,,,,,,,,,,,,,,2023-04-19 15:56:36.463202+00:00
2023-04-19 08:56:36.662883-07:00,13.662092,4.89,4.61,-1.45,0.74,22.63,886.82,22.58,330.0,0.0,0.00596113,-0.0271044,-0.0088227,32.691136,-103.075236,1158.89722,-103.655459,-0.515695853,-0.588585789,2.13799,34.1803,5013.8,36.7636,11152.0,0.949923,0.179464,14.0,-1344.0,54.0,,0.0,,2023-04-19 15:56:36.662883+00:00
2023-04-19 08:56:36.863118-07:00,13.862327,6.53,5.83,-2.57,1.44,22.79,886.83,22.36,342.0,0.0,0.00937687,-0.0239586,-0.0380794,32.691136,-103.075237,1158.79346,-103.646933,-0.519848188,-0.571711262,,,,,,,,,,,,,,2023-04-19 15:56:36.863118+00:00
2023-04-19 08:56:37.063156-07:00,14.062365,6.4,5.1,-3.77,0.84,21.32,886.79,24.45,349.0,0.0,0.00134459,-0.0274049,-0.0755877,32.691136,-103.075237,1158.69763,-103.627744,-0.515138709,-0.581317982,,,,,,,,,,,,,,2023-04-19 15:56:37.063156+00:00
2023-04-19 08:56:37.263344-07:00,14.262553,7.13,5.42,-4.55,0.9,21.5,886.77,24.22,350.0,0.0,0.00974938,-0.0257867,-0.0962577,32.691136,-103.075237,1158.64978,-103.61697,-0.512915749,-0.573121339,,,,,,,,,,,,,,2023-04-19 15:56:37.263344+00:00
2023-04-19 08:56:37.463634-07:00,14.462843,8.15,6.8,-4.41,0.8,21.62,886.63,23.98,349.0,0.0,0.00898565,-0.0264571,-0.0917956,32.6911359,-103.075237,1158.6897,-103.598501,-0.516694444,-0.554597022,2.13896,35.2797,5028.45,36.7651,11095.0,0.947874,0.181116,13.0,-1322.0,54.0,,0.0,,2023-04-19 15:56:37.463634+00:00
2023-04-19 08:56:37.663272-07:00,14.662481,8.59,7.82,-3.25,1.47,21.68,886.62,23.9,343.0,0.0,0.00401956,-0.0273458,-0.070479,32.6911359,-103.075237,1158.70605,-103.613701,-0.516104632,-0.575038798,,,,,,,,,,,,,,2023-04-19 15:56:37.663272+00:00
2023-04-19 08:56:37.863311-07:00,14.86252,9.25,8.1,-3.95,2.11,21.66,886.62,23.93,340.0,0.0,0.018575,-0.0230876,-0.0400192,32.6911359,-103.075237,1158.78284,-103.631439,-0.529202853,-0.563991061,,,,,,,,,,,,,,2023-04-19 15:56:37.863311+00:00
2023-04-19 08:56:38.063281-07:00,15.06249,8.64,7.49,-4.22,0.85,21.01,886.56,24.89,320.0,0.0,0.00715494,-0.023986,-0.0109934,32.6911359,-103.075237,1158.82715,-103.588071,-0.518559471,-0.504574581,,,,,,,,,,,,,,2023-04-19 15:56:38.063281+00:00
2023-04-19 08:56:38.263777-07:00,15.262986,8.16,7.12,-3.88,0.94,21.57,886.6,24.09,312.0,0.0,-0.00513317,-0.0282529,0.0237075,32.6911359,-103.075237,1158.90686,-103.559515,-0.52853623,-0.568785501,,,,,,,,,,,,,,2023-04-19 15:56:38.263777+00:00
2023-04-19 08:56:38.463591-07:00,15.4628,7.13,6.06,-3.61,1.08,21.7,886.68,23.87,334.0,0.0,0.00558109,-0.0273343,0.0356769,32.6911358,-103.075237,1158.90393,-103.528325,-0.523554014,-0.584976432,2.14084,35.1214,5025.62,36.7665,11086.0,0.941108,0.178101,17.0,-1338.0,54.0,,0.0,,2023-04-19 15:56:38.463591+00:00
2023-04-19 08:56:38.663189-07:00,15.662398,7.34,6.54,-3.06,1.32,21.72,886.74,23.9,343.0,0.0,0.00894192,-0.0244076,0.0367899,32.6911358,-103.075237,1158.90991,-103.514463,-0.511941963,-0.537267352,2.14084,35.1214,5025.62,36.7665,11086.0,0.941108,0.178101,17.0,-1338.0,54.0,,0.0,,2023-04-19 15:56:38.663189+00:00
2023-04-19 08:56:38.863214-07:00,15.862423,8.55,7.56,-3.86,0.98,21.25,886.61,24.6,348.0,0.0,0.0123612,-0.021718,0.0298565,32.6911358,-103.075237,1158.89917,-103.493396,-0.535296228,-0.551022266,,,,,,,,,,,,,,2023-04-19 15:56:38.863214+00:00
2023-04-19 08:56:39.063078-07:00,16.062287,8.46,7.47,-3.89,0.77,21.31,886.61,24.47,350.0,0.0,0.00576892,-0.0252811,0.0165274,32.6911358,-103.075237,1158.88708,-103.510847,-0.532360672,-0.543885406,,,,,,,,,,,,,,2023-04-19 15:56:39.063078+00:00
2023-04-19 08:56:39.263607-07:00,16.262816,7.01,6.19,-3.09,1.15,21.48,886.65,24.22,349.0,0.0,0.00731274,-0.0254743,0.0143333,32.6911358,-103.075237,1158.92322,-103.51225,-0.53037762,-0.571951077,,,,,,,,,,,,,,2023-04-19 15:56:39.263607+00:00
2023-04-19 08:56:39.463678-07:00,16.462887,7.65,6.67,-3.69,0.68,21.64,886.64,23.99,344.0,0.0,0.0119925,-0.0223694,0.0239115,32.6911358,-103.075237,1158.93469,-103.467111,-0.530791226,-0.548154308,2.13629,35.0045,4993.92,36.7678,11114.0,0.94114,0.184883,16.0,-1383.0,54.0,,0.0,,2023-04-19 15:56:39.463678+00:00
2023-04-19 08:56:39.662899-07:00,16.662108,7.54,6.49,-3.71,0.95,21.96,886.65,23.49,332.0,0.0,0.00278057,-0.0208252,0.021259,32.6911358,-103.075237,1158.96252,-103.445187,-0.540341679,-0.567959275,2.13629,35.0045,4993.92,36.7678,11114.0,0.94114,0.184883,16.0,-1383.0,54.0,,0.0,,2023-04-19 15:56:39.662899+00:00
2023-04-19 08:56:39.863721-07:00,16.86293,6.61,5.4,-3.64,1.11,22.05,886.69,23.4,324.0,0.0,0.00681847,-0.0245506,0.0349985,32.6911358,-103.075237,1159.03198,-103.443643,-0.52721996,-0.574090848,,,,,,,,,,,,,,2023-04-19 15:56:39.863721+00:00
2023-04-19 08:56:40.063678-07:00,17.062887,6.76,6.23,-1.64,2.06,22.36,886.75,22.17,327.0,0.0,0.00652329,-0.026469,0.0457694,32.6911357,-103.075237,1159.05835,-103.454436,-0.518375107,-0.564367647,,,,,,,,,,,,,,2023-04-19 15:56:40.063678+00:00
2023-04-19 08:56:40.263824-07:00,17.263033,7.66,6.88,-3.27,0.8,22.23,886.72,22.38,344.0,0.0,0.00753041,-0.0230054,0.0393827,32.6911357,-103.075237,1159.03662,-103.434053,-0.526154645,-0.569936018,,,,,,,,,,,,,,2023-04-19 15:56:40.263824+00:00
2023-04-19 08:56:40.462962-07:00,17.462171,6.85,6.0,-3.23,0.75,22.03,886.69,22.68,350.0,0.0,0.00716407,-0.0268837,0.03003,32.6911356,-103.075237,1159.02869,-103.397657,-0.529419904,-0.575094402,2.13514,33.3226,4964.98,36.769,11149.0,0.940397,0.199767,14.0,-1404.0,54.0,,0.0,,2023-04-19 15:56:40.462962+00:00
2023-04-19 08:56:40.663689-07:00,17.662898,7.61,6.45,-3.99,0.68,21.62,886.69,23.26,352.0,0.0,0.0100501,-0.0256897,0.020956,32.6911356,-103.075237,1159.03015,-103.386985,-0.51527773,-0.553423829,,,,,,,,,,,,,,2023-04-19 15:56:40.663689+00:00
2023-04-19 08:56:40.863191-07:00,17.8624,7.58,7.23,-1.79,1.39,21.96,886.63,22.79,351.0,0.0,0.00501692,-0.0262993,0.010031,32.6911356,-103.075237,1158.99963,-103.391965,-0.543706554,-0.579973006,,,,,,,,,,,,,,2023-04-19 15:56:40.863191+00:00
2023-04-19 08:56:41.063528-07:00,18.062737,7.44,6.73,-3.06,0.87,21.65,886.72,23.14,348.0,0.0,0.00766415,-0.0289031,-0.00401988,32.6911356,-103.075237,1158.99805,-103.381088,-0.52722809,-0.562479702,,,,,,,,,,,,,,2023-04-19 15:56:41.063528+00:00
2023-04-19 08:56:41.262982-07:00,18.262191,8.38,7.85,-2.67,1.22,21.73,886.63,23.07,341.0,0.0,0.0036747,-0.0307662,-0.00613878,32.6911355,-103.075237,1158.99573,-103.353845,-0.510259525,-0.546935064,,,,,,,,,,,,,,2023-04-19 15:56:41.262982+00:00
2023-04-19 08:56:41.463634-07:00,18.462843,7.78,7.2,-2.78,0.99,21.94,886.68,22.78,325.0,0.0,0.00652439,-0.0256972,-0.00165844,32.6911355,-103.075237,1159.03809,-103.396571,-0.536210308,-0.582162835,2.13723,34.961,4966.9,36.7705,11141.0,0.940476,0.207028,13.0,-1333.0,54.0,,0.0,,2023-04-19 15:56:41.463634+00:00
2023-04-19 08:56:41.662896-07:00,18.662105,6.24,5.1,-3.51,0.75,21.98,886.7,22.75,322.0,0.0,0.00611456,-0.0306049,0.00247225,32.6911355,-103.075237,1159.03076,-103.35636,-0.529712629,-0.561451389,2.13723,34.961,4966.9,36.7705,11141.0,0.940476,0.207028,13.0,-1333.0,54.0,,0.0,,2023-04-19 15:56:41.662896+00:00
2023-04-19 08:56:41.863025-07:00,18.862234,6.79,5.71,-3.52,1.05,21.82,886.71,22.94,337.0,0.0,0.00750995,-0.0283709,-0.00377407,32.6911355,-103.075237,1159.00244,-103.344924,-0.519449013,-0.566447914,,,,,,,,,,,,,,2023-04-19 15:56:41.863025+00:00
2023-04-19 08:56:42.063004-07:00,19.062213,6.79,6.03,-2.92,1.13,22.01,886.72,22.68,346.0,0.0,0.0110392,-0.0247755,-0.00964026,32.6911355,-103.075237,1158.99097,-103.310026,-0.534042308,-0.564705117,,,,,,,,,,,,,,2023-04-19 15:56:42.063004+00:00
2023-04-19 08:56:42.263147-07:00,19.262356,6.44,5.39,-3.38,1.03,22.22,886.71,22.39,349.0,0.0,0.00307179,-0.0272163,-0.0201072,32.6911355,-103.075237,1158.95459,-103.30835,-0.539687025,-0.587394925,,,,,,,,,,,,,,2023-04-19 15:56:42.263147+00:00
2023-04-19 08:56:42.463487-07:00,19.462696,6.19,4.63,-4.02,0.91,22.0,886.77,22.72,351.0,0.0,0.0141828,-0.0233639,-0.0243688,32.6911354,-103.075237,1158.95544,-103.306143,-0.540627205,-0.595925006,2.13954,34.3859,4966.15,36.772,11082.0,0.91891,0.207752,17.0,-1358.0,54.0,,0.0,,2023-04-19 15:56:42.463487+00:00
2023-04-19 08:56:42.663597-07:00,19.662806,5.94,4.47,-3.83,0.77,22.24,886.74,22.33,348.0,0.0,0.00861306,-0.0256994,-0.0219648,32.6911354,-103.075237,1158.97449,-103.283703,-0.542918634,-0.567190947,,,,,,,,,,,,,,2023-04-19 15:56:42.663597+00:00
2023-04-19 08:56:42.863585-07:00,19.862794,5.33,4.58,-2.35,1.38,22.7,886.8,21.75,343.0,0.0,0.00407896,-0.0301334,-0.0123968,32.6911354,-103.075237,1158.98486,-103.286385,-0.541674542,-0.603500581,,,,,,,,,,,,,,2023-04-19 15:56:42.863585+00:00
2023-04-19 08:56:43.063219-07:00,20.062428,6.0,5.16,-2.93,0.86,22.26,886.81,22.3,336.0,0.0,0.0142698,-0.0294387,-0.0103772,32.6911353,-103.075237,1158.96802,-103.251245,-0.541510518,-0.591968246,,,,,,,,,,,,,,2023-04-19 15:56:43.063219+00:00
2023-04-19 08:56:43.263747-07:00,20.262956,6.51,5.84,-2.69,1.03,21.98,886.72,22.73,320.0,0.0,0.00604057,-0.0307803,-0.0114221,32.6911353,-103.075237,1158.96753,-103.237182,-0.530980971,-0.571503197,,,,,,,,,,,,,,2023-04-19 15:56:43.263747+00:00
2023-04-19 08:56:43.463477-07:00,20.462686,5.31,4.24,-3.16,0.48,21.76,886.78,23.03,337.0,0.0,0.0074178,-0.0293324,-0.0136701,32.6911353,-103.075237,1158.94849,-103.243716,-0.538125601,-0.602923558,2.13618,34.5492,4973.03,36.7733,11113.0,0.903266,0.211643,16.0,-1362.0,54.0,,0.0,,2023-04-19 15:56:43.463477+00:00
2023-04-19 08:56:43.663038-07:00,20.662247,6.91,5.73,-3.78,0.75,22.05,886.73,22.66,346.0,0.0,0.0118465,-0.0276762,-0.0136383,32.6911353,-103.075237,1158.95068,-103.227514,-0.538615626,-0.577167416,2.13618,34.5492,4973.03,36.7733,11113.0,0.903266,0.211643,16.0,-1362.0,54.0,,0.0,,2023-04-19 15:56:43.663038+00:00
2023-04-19 08:56:43.863318-07:00,20.862527,6.26,4.83,-3.86,1.01,22.36,886.7,22.17,349.0,0.0,0.00372824,-0.031787,-0.0110087,32.6911353,-103.075237,1158.93335,-103.222888,-0.536086732,-0.583134373,,,,,,,,,,,,,,2023-04-19 15:56:43.863318+00:00
2023-04-19 08:56:44.063590-07:00,21.062799,6.85,6.07,-3.11,0.61,21.91,886.74,22.78,353.0,0.0,0.0136093,-0.0292035,-0.0178865,32.6911352,-103.075237,1158.91833,-103.216237,-0.536419689,-0.598889469,,,,,,,,,,,,,,2023-04-19 15:56:44.063590+00:00
2023-04-19 08:56:44.263202-07:00,21.262411,6.07,5.49,-2.51,0.68,22.03,886.75,22.65,353.0,0.0,0.00759147,-0.0299077,-0.0315717,32.6911352,-103.075237,1158.84595,-103.179244,-0.536482417,-0.572029522,,,,,,,,,,,,,,2023-04-19 15:56:44.263202+00:00
2023-04-19 08:56:44.463687-07:00,21.462896,5.69,5.02,-2.62,0.52,22.19,886.77,22.39,345.0,0.0,0.00438089,-0.0300151,-0.043963,32.6911352,-103.075238,1158.84351,-103.173302,-0.532488825,-0.595526005,2.13573,34.6689,4978.65,36.7746,11141.0,0.87897,0.199378,14.0,-1392.0,54.0,,0.0,,2023-04-19 15:56:44.463687+00:00
2023-04-19 08:56:44.663818-07:00,21.663027,5.68,5.13,-2.3,0.83,22.45,886.79,22.09,335.0,0.0,0.0127042,-0.0266226,-0.0423874,32.6911352,-103.075238,1158.83545,-103.155437,-0.534849905,-0.595461061,,,,,,,,,,,,,,2023-04-19 15:56:44.663818+00:00
2023-04-19 08:56:44.863200-07:00,21.862409,5.92,5.64,-1.45,1.04,22.41,886.78,22.1,322.0,0.0,0.0051471,-0.0284762,-0.0401538,32.6911352,-103.075238,1158.83081,-103.149364,-0.537287803,-0.589751625,,,,,,,,,,,,,,2023-04-19 15:56:44.863200+00:00
2023-04-19 08:56:45.062931-07:00,22.06214,4.95,4.42,-1.91,1.16,22.74,886.81,21.63,334.0,0.0,0.00989648,-0.0298913,-0.0278271,32.6911352,-103.075238,1158.84888,-103.13992,-0.535338038,-0.598385075,,,,,,,,,,,,,,2023-04-19 15:56:45.062931+00:00
2023-04-19 08:56:45.263487-07:00,22.262696,5.37,4.87,-2.05,0.97,22.31,886.83,22.24,342.0,0.0,0.00954651,-0.0256259,-0.0187038,32.6911351,-103.075238,1158.84729,-103.131313,-0.536140509,-0.581776802,,,,,,,,,,,,,,2023-04-19 15:56:45.263487+00:00
2023-04-19 08:56:45.463191-07:00,22.4624,6.24,5.76,-2.36,0.46,21.83,886.77,22.86,347.0,0.0,0.00698139,-0.0261917,-0.0197246,32.6911351,-103.075238,1158.82971,-103.118817,-0.535653723,-0.594957361,,,,,,,,,,,,,,2023-04-19 15:56:45.463191+00:00
2023-04-19 08:56:45.663599-07:00,22.662808,5.6,4.96,-2.56,0.48,22.1,886.79,22.48,351.0,0.0,0.0110443,-0.0279698,-0.0176959,32.6911351,-103.075238,1158.8241,-103.106152,-0.533326608,-0.585028354,2.13444,34.1893,4990.47,36.7762,11146.0,0.862471,0.198344,14.0,-1371.0,54.0,,0.0,,2023-04-19 15:56:45.663599+00:00
2023-04-19 08:56:45.863707-07:00,22.862916,5.3,5.09,-1.22,0.8,22.44,886.8,22.03,351.0,0.0,0.00545288,-0.0267003,-0.0190742,32.6911351,-103.075238,1158.8053,-103.089976,-0.533643622,-0.595008484,,,,,,,,,,,,,,2023-04-19 15:56:45.863707+00:00
2023-04-19 08:56:46.063430-07:00,23.062639,5.79,5.72,-0.5,0.73,22.01,886.82,22.68,346.0,0.0,0.00936057,-0.0290296,-0.0224452,32.6911351,-103.075238,1158.79749,-103.089792,-0.537987829,-0.607035348,,,,,,,,,,,,,,2023-04-19 15:56:46.063430+00:00
2023-04-19 08:56:46.263563-07:00,23.262772,5.88,5.74,-1.2,0.44,22.15,886.75,22.39,336.0,0.0,0.00894881,-0.0299881,-0.0140675,32.691135,-103.075238,1158.83521,-103.068146,-0.535904034,-0.593085949,,,,,,,,,,,,,,2023-04-19 15:56:46.263563+00:00
2023-04-19 08:56:46.463443-07:00,23.462652,5.4,5.35,-0.07,0.72,22.46,886.81,21.97,323.0,0.0,0.0053403,-0.0301919,-0.0045234,32.691135,-103.075238,1158.82898,-103.059886,-0.53734299,-0.606344393,2.1361,34.476,5002.99,36.7775,11146.0,0.830561,0.195144,14.0,-1371.0,54.0,,0.0,,2023-04-19 15:56:46.463443+00:00
2023-04-19 08:56:46.663490-07:00,23.662699,4.8,4.74,-0.02,0.7,22.58,886.86,21.84,325.0,0.0,0.00971991,-0.0299142,-0.00664181,32.691135,-103.075238,1158.80493,-103.059503,-0.539654572,-0.602795538,,,,,,,,,,,,,,2023-04-19 15:56:46.663490+00:00
2023-04-19 08:56:46.863452-07:00,23.862661,5.01,4.71,-1.65,0.46,22.32,886.85,22.16,338.0,0.0,0.00479154,-0.0313382,-0.0132986,32.691135,-103.075238,1158.7887,-103.050046,-0.540361565,-0.599134142,,,,,,,,,,,,,,2023-04-19 15:56:46.863452+00:00
2023-04-19 08:56:47.063824-07:00,24.063033,5.54,5.35,-1.13,0.85,22.31,886.84,22.2,346.0,0.0,0.00591336,-0.0331185,-0.0139676,32.691135,-103.075238,1158.79626,-103.050346,-0.545278412,-0.62191449,,,,,,,,,,,,,,2023-04-19 15:56:47.063824+00:00
2023-04-19 08:56:47.263034-07:00,24.262243,5.7,5.61,-0.75,0.71,22.32,886.81,22.22,351.0,0.0,0.0089477,-0.0320118,-0.0118558,32.6911349,-103.075238,1158.77979,-103.033457,-0.54581662,-0.61132655,,,,,,,,,,,,,,2023-04-19 15:56:47.263034+00:00
2023-04-19 08:56:47.463204-07:00,24.462413,5.99,5.8,-1.36,0.65,22.09,886.81,22.53,351.0,0.0,0.007185,-0.0332925,-0.0232038,32.6911349,-103.075238,1158.72974,-103.00651,-0.541649032,-0.593883416,,,,,,,,,,,,,,2023-04-19 15:56:47.463204+00:00
2023-04-19 08:56:47.663244-07:00,24.662453,5.51,5.16,-1.88,0.43,22.31,886.81,22.17,350.0,0.0,0.0056511,-0.0323989,-0.0326516,32.6911349,-103.075238,1158.70068,-103.010921,-0.540889812,-0.609659195,2.13617,36.0789,5004.47,36.7789,11125.0,0.688801,-1.0,14.0,-1347.0,54.0,,0.0,,2023-04-19 15:56:47.663244+00:00
2023-04-19 08:56:47.863669-07:00,24.862878,6.06,5.65,-2.17,0.27,22.28,886.8,22.21,344.0,0.0,0.0124265,-0.0286215,-0.033054,32.6911349,-103.075238,1158.70398,-102.991205,-0.540804981,-0.598745974,,,,,,,,,,,,,,2023-04-19 15:56:47.863669+00:00
2023-04-19 08:56:48.062956-07:00,25.062165,5.21,4.79,-2.04,0.2,22.5,886.8,21.95,332.0,0.0,0.00568217,-0.0315177,-0.0266153,32.6911349,-103.075238,1158.70483,-102.98836,-0.535030341,-0.60379008,,,,,,,,,,,,,,2023-04-19 15:56:48.062956+00:00
2023-04-19 08:56:48.262956-07:00,25.262165,5.38,4.73,-2.44,0.79,22.64,886.82,21.76,325.0,0.0,0.0117712,-0.0288037,-0.0198893,32.6911349,-103.075238,1158.70312,-102.981958,-0.54218289,-0.610626629,,,,,,,,,,,,,,2023-04-19 15:56:48.262956+00:00
2023-04-19 08:56:48.463061-07:00,25.46227,5.75,5.03,-2.7,0.67,22.64,886.79,21.73,328.0,0.0,0.00876653,-0.0305274,-0.0192172,32.6911348,-103.075238,1158.68323,-102.962649,-0.546388084,-0.602237033,,,,,,,,,,,,,,2023-04-19 15:56:48.463061+00:00
2023-04-19 08:56:48.663326-07:00,25.662535,4.61,3.83,-2.44,0.76,22.87,886.84,21.46,341.0,0.0,0.00622557,-0.0321041,-0.0215904,32.6911348,-103.075238,1158.66541,-102.947593,-0.541060265,-0.610766976,2.14,34.3091,5018.07,36.78,11100.0,0.608478,-1.0,17.0,-1338.0,54.0,,0.0,,2023-04-19 15:56:48.663326+00:00
2023-04-19 08:56:48.863747-07:00,25.862956,5.69,4.96,-2.51,1.23,23.0,886.82,21.32,347.0,0.0,0.0123547,-0.0293995,-0.0223029,32.6911348,-103.075238,1158.66492,-102.936596,-0.548947289,-0.609624669,,,,,,,,,,,,,,2023-04-19 15:56:48.863747+00:00
2023-04-19 08:56:49.063597-07:00,26.062806,6.55,5.9,-2.85,0.12,22.31,886.76,22.17,351.0,0.0,0.00643194,-0.0328324,-0.0211605,32.6911348,-103.075238,1158.64551,-102.921752,-0.546821847,-0.604430232,,,,,,,,,,,,,,2023-04-19 15:56:49.063597+00:00
2023-04-19 08:56:49.262905-07:00,26.262114,5.44,4.85,-2.33,0.8,22.58,886.8,21.81,351.0,0.0,0.00907348,-0.0328696,-0.0233223,32.6911348,-103.075238,1158.63013,-102.926855,-0.538405228,-0.611160748,,,,,,,,,,,,,,2023-04-19 15:56:49.262905+00:00
2023-04-19 08:56:49.463659-07:00,26.462868,4.95,4.87,-0.56,0.66,22.9,886.85,21.39,347.0,0.0,0.009399,-0.0299226,-0.0264003,32.6911347,-103.075239,1158.60852,-102.915096,-0.553920688,-0.614024415,2.13907,35.0755,5039.1,36.7815,11095.0,0.544838,-1.0,16.0,-1342.0,54.0,,0.0,,2023-04-19 15:56:49.463659+00:00
2023-04-19 08:56:49.663560-07:00,26.662769,5.64,5.46,-0.96,1.04,23.05,886.86,21.2,333.0,0.0,0.00870364,-0.0350855,-0.0287158,32.6911347,-103.075239,1158.57166,-102.903233,-0.549425854,-0.609740789,,,,,,,,,,,,,,2023-04-19 15:56:49.663560+00:00
2023-04-19 08:56:49.863478-07:00,26.862687,6.29,6.14,-1.19,0.67,22.03,886.82,22.59,322.0,0.0,0.0108284,-0.0349167,-0.0354467,32.6911347,-103.075239,1158.55176,-102.898341,-0.533720452,-0.601702007,,,,,,,,,,,,,,2023-04-19 15:56:49.863478+00:00
2023-04-19 08:56:50.063043-07:00,27.062252,6.39,6.14,-1.56,0.85,22.37,886.81,22.1,324.0,0.0,0.00802028,-0.0338518,-0.0302497,32.6911347,-103.075239,1158.56421,-102.879808,-0.539769562,-0.599393757,,,,,,,,,,,,,,2023-04-19 15:56:50.063043+00:00
2023-04-19 08:56:50.263397-07:00,27.262606,6.97,6.66,-1.92,0.7,21.98,886.76,22.62,338.0,0.0,0.00976866,-0.0330551,-0.0247023,32.6911347,-103.075239,1158.56152,-102.871351,-0.53975238,-0.611165658,,,,,,,,,,,,,,2023-04-19 15:56:50.263397+00:00
2023-04-19 08:56:50.463818-07:00,27.463027,7.05,6.92,-1.23,0.59,21.94,886.8,22.65,347.0,0.0,0.00795351,-0.0324916,-0.0185855,32.6911346,-103.075239,1158.5658,-102.860649,-0.541766925,-0.603210975,2.1378,34.572,5065.93,36.7822,11156.0,0.434829,-1.0,15.0,-1387.0,54.0,,0.0,,2023-04-19 15:56:50.463818+00:00
2023-04-19 08:56:50.663804-07:00,27.663013,6.8,6.65,-1.02,1.01,22.16,886.77,22.37,350.0,0.0,0.00776662,-0.0317067,-0.0111675,32.6911346,-103.075239,1158.57837,-102.859205,-0.55436428,-0.613739665,,,,,,,,,,,,,,2023-04-19 15:56:50.663804+00:00
2023-04-19 08:56:50.863252-07:00,27.862461,6.66,6.41,-1.55,1.0,22.31,886.76,22.14,351.0,0.0,0.008335,-0.0307278,0.00437616,32.6911346,-103.075239,1158.62756,-102.827309,-0.549001854,-0.596370433,,,,,,,,,,,,,,2023-04-19 15:56:50.863252+00:00
2023-04-19 08:56:51.063576-07:00,28.062785,5.78,5.56,-1.55,0.31,22.19,886.78,22.34,347.0,0.0,0.00965669,-0.0298216,0.0206903,32.6911346,-103.075239,1158.68152,-102.820314,-0.548079692,-0.599293486,,,,,,,,,,,,,,2023-04-19 15:56:51.063576+00:00
2023-04-19 08:56:51.263275-07:00,28.262484,7.34,7.0,-2.08,0.67,21.79,886.74,22.91,339.0,0.0,0.00285117,-0.0316321,0.0403925,32.6911346,-103.075239,1158.74255,-102.804289,-0.556642677,-0.614314395,,,,,,,,,,,,,,2023-04-19 15:56:51.263275+00:00
2023-04-19 08:56:51.463344-07:00,28.462553,7.41,7.24,-1.27,0.9,21.86,886.72,22.72,326.0,0.0,0.01002,-0.0278512,0.0523529,32.6911346,-103.075239,1158.79028,-102.791235,-0.545480216,-0.601551468,,,,,,,,,,,,,,2023-04-19 15:56:51.463344+00:00
2023-04-19 08:56:51.662929-07:00,28.662138,7.04,6.93,-0.85,0.89,22.0,886.76,22.59,317.0,0.0,0.00581438,-0.0280359,0.0629479,32.6911346,-103.075239,1158.82312,-102.796402,-0.563050349,-0.617539498,2.1403,35.2553,5060.6,36.7841,11155.0,0.376352,-1.0,16.0,-1356.0,54.0,,0.0,,2023-04-19 15:56:51.662929+00:00
2023-04-19 08:56:51.862776-07:00,28.861985,7.31,7.13,-1.46,0.67,22.04,886.76,22.51,330.0,0.0,0.00938601,-0.0287331,0.0558455,32.6911347,-103.075239,1158.82886,-102.775327,-0.563341604,-0.617283031,,,,,,,,,,,,,,2023-04-19 15:56:51.862776+00:00
2023-04-19 08:56:52.063440-07:00,29.062649,6.45,6.26,-1.42,0.6,22.18,886.77,22.31,341.0,0.0,0.00681804,-0.0278117,0.0419002,32.6911347,-103.075239,1158.81677,-102.738216,-0.553488566,-0.601421474,,,,,,,,,,,,,,2023-04-19 15:56:52.063440+00:00
2023-04-19 08:56:52.263810-07:00,29.263019,6.57,6.08,-2.5,0.18,22.49,886.76,21.93,347.0,0.0,0.00506313,-0.0284654,0.0313108,32.6911347,-103.075239,1158.82861,-102.745726,-0.557591411,-0.628844129,,,,,,,,,,,,,,2023-04-19 15:56:52.263810+00:00
2023-04-19 08:56:52.463772-07:00,29.462981,6.18,5.98,-1.17,0.98,22.68,886.78,21.65,349.0,0.0,0.0122058,-0.0281493,0.0191381,32.6911346,-103.075239,1158.81885,-102.726441,-0.555598392,-0.607897174,2.13639,35.1661,5049.0,36.7854,11124.0,0.400235,-1.0,14.0,-1326.0,54.0,,0.0,,2023-04-19 15:56:52.463772+00:00
2023-04-19 08:56:52.663789-07:00,29.662998,5.97,5.86,-0.94,0.67,22.7,886.81,21.62,348.0,0.0,0.00476666,-0.0280303,0.00855318,32.6911345,-103.075239,1158.82153,-102.703115,-0.553356803,-0.597569783,,,,,,,,,,,,,,2023-04-19 15:56:52.663789+00:00
2023-04-19 08:56:52.863573-07:00,29.862782,4.93,4.81,-0.94,0.53,22.93,886.82,21.38,343.0,0.0,0.00714516,-0.0300585,0.00485408,32.6911345,-103.075239,1158.82739,-102.710582,-0.559729406,-0.637133177,,,,,,,,,,,,,,2023-04-19 15:56:52.863573+00:00
2023-04-19 08:56:53.063326-07:00,30.062535,4.49,4.44,-0.32,0.59,22.85,886.86,21.43,332.0,0.0,0.0148131,-0.0296311,0.004052,32.6911345,-103.075239,1158.83911,-102.706957,-0.545480086,-0.604478313,,,,,,,,,,,,,,2023-04-19 15:56:53.063326+00:00
2023-04-19 08:56:53.263314-07:00,30.262523,4.74,4.53,-1.14,0.81,23.17,886.85,21.71,315.0,0.0,0.00887519,-0.0275436,0.0074196,32.6911345,-103.075239,1158.84534,-102.709772,-0.548896215,-0.610213966,,,,,,,,,,,,,,2023-04-19 15:56:53.263314+00:00
2023-04-19 08:56:53.463452-07:00,30.462661,5.51,5.39,-0.46,1.06,23.22,886.84,20.96,325.0,0.0,0.014266,-0.0284915,0.011183,32.6911345,-103.075239,1158.8717,-102.692106,-0.545735213,-0.610022336,2.13562,34.5731,5067.94,36.7869,11096.0,0.396708,-1.0,14.0,-1319.0,54.0,,0.0,,2023-04-19 15:56:53.463452+00:00
2023-04-19 08:56:53.662863-07:00,30.662072,7.1,6.97,-0.19,1.33,23.23,886.82,20.97,337.0,0.0,0.00871107,-0.0293669,0.0158175,32.6911345,-103.075239,1158.8717,-102.68026,-0.535462546,-0.590667399,2.13562,34.5731,5067.94,36.7869,11096.0,0.396708,-1.0,14.0,-1319.0,54.0,,0.0,,2023-04-19 15:56:53.662863+00:00
2023-04-19 08:56:53.863343-07:00,30.862552,6.01,5.72,-0.75,1.68,23.43,886.82,20.65,348.0,0.0,0.00933109,-0.0276874,0.00334043,32.6911345,-103.07524,1158.79236,-102.674283,-0.555349075,-0.617989036,,,,,,,,,,,,,,2023-04-19 15:56:53.863343+00:00
2023-04-19 08:56:54.063648-07:00,31.062857,4.7,4.21,-2.04,0.45,22.37,886.84,22.02,350.0,0.0,0.00829609,-0.0305812,-0.0251781,32.6911346,-103.07524,1158.69666,-102.647044,-0.546894215,-0.601837765,,,,,,,,,,,,,,2023-04-19 15:56:54.063648+00:00
2023-04-19 08:56:54.263380-07:00,31.262589,4.49,4.4,0.1,0.89,22.76,886.89,21.54,351.0,0.0,0.0104537,-0.0310798,-0.0441434,32.6911346,-103.07524,1158.65332,-102.663295,-0.538957207,-0.61597999,,,,,,,,,,,,,,2023-04-19 15:56:54.263380+00:00
2023-04-19 08:56:54.463617-07:00,31.462826,6.64,6.41,-1.21,1.19,22.05,886.83,22.45,349.0,0.0,0.0168755,-0.0284745,-0.0521561,32.6911346,-103.07524,1158.62488,-102.629669,-0.547098944,-0.596467662,2.1356,33.9599,5105.03,36.7882,11096.0,0.290999,-1.0,16.0,-1325.0,54.0,,0.0,,2023-04-19 15:56:54.463617+00:00
2023-04-19 08:56:54.663127-07:00,31.662336,8.41,8.23,-1.6,0.78,21.63,886.7,23.08,339.0,0.0,0.0115389,-0.0309076,-0.0411688,32.6911345,-103.07524,1158.65686,-102.592169,-0.550340048,-0.589173109,2.1356,33.9599,5105.03,36.7882,11096.0,0.290999,-1.0,16.0,-1325.0,54.0,,0.0,,2023-04-19 15:56:54.663127+00:00
2023-04-19 08:56:54.863107-07:00,31.862316,7.29,6.86,-2.28,0.91,21.98,886.69,22.59,328.0,0.0,0.0026277,-0.033958,-0.0138076,32.6911345,-103.07524,1158.71936,-102.619599,-0.539869138,-0.604780619,,,,,,,,,,,,,,2023-04-19 15:56:54.863107+00:00
2023-04-19 08:56:55.063800-07:00,32.063009,8.62,8.2,-2.21,1.48,22.39,886.72,22.75,322.0,0.0,0.0176294,-0.0286123,0.0108332,32.6911344,-103.07524,1158.75012,-102.597074,-0.547370478,-0.599115305,,,,,,,,,,,,,,2023-04-19 15:56:55.063800+00:00
2023-04-19 08:56:55.263068-07:00,32.262277,7.53,6.97,-2.6,1.17,22.21,886.73,22.31,331.0,0.0,0.00321509,-0.0330166,0.0177146,32.6911344,-103.07524,1158.72681,-102.593552,-0.558725677,-0.594635258,,,,,,,,,,,,,,2023-04-19 15:56:55.263068+00:00
2023-04-19 08:56:55.463238-07:00,32.462447,5.91,5.42,-2.27,0.72,22.42,886.79,22.72,343.0,0.0,0.0100966,-0.0332726,0.0109262,32.6911344,-103.07524,1158.69421,-102.595321,-0.53183242,-0.592652262,,,,,,,,,,,,,,2023-04-19 15:56:55.463238+00:00
2023-04-19 08:56:55.663693-07:00,32.662902,7.0,6.29,-3.01,0.55,22.11,886.75,22.41,349.0,0.0,0.00711044,-0.0293147,0.00316584,32.6911344,-103.07524,1158.69971,-102.576895,-0.549714955,-0.588587497,,,,,,,,,,,,,,2023-04-19 15:56:55.663693+00:00
2023-04-19 08:56:55.863033-07:00,32.862242,5.8,4.71,-3.36,0.45,22.19,886.76,22.33,351.0,0.0,0.00249605,-0.0339389,0.00869779,32.6911344,-103.07524,1158.74377,-102.551734,-0.539609965,-0.592095518,,,,,,,,,,,,,,2023-04-19 15:56:55.863033+00:00
2023-04-19 08:56:56.063698-07:00,33.062907,5.86,5.18,-2.71,0.35,21.51,886.74,23.21,351.0,0.0,0.00936642,-0.0322285,0.0210247,32.6911344,-103.07524,1158.79932,-102.542262,-0.523519202,-0.58559054,,,,,,,,,,,,,,2023-04-19 15:56:56.063698+00:00
2023-04-19 08:56:56.263773-07:00,33.262982,5.73,5.33,-2.02,0.49,21.87,886.7,22.7,348.0,0.0,0.00812289,-0.0292987,0.0396438,32.6911345,-103.07524,1158.88306,-102.52289,-0.532865014,-0.576154843,,,,,,,,,,,,,,2023-04-19 15:56:56.263773+00:00
2023-04-19 08:56:56.463697-07:00,33.462906,4.55,4.15,-1.78,0.53,22.5,886.75,22.54,341.0,0.0,0.0054496,-0.032424,0.0641268,32.6911345,-103.07524,1158.98181,-102.526359,-0.534273022,-0.593484736,2.1339,34.3176,5048.01,36.7907,11116.0,0.354267,-1.0,19.0,-1326.0,54.0,,0.0,,2023-04-19 15:56:56.463697+00:00
2023-04-19 08:56:56.663601-07:00,33.66281,4.9,4.79,-0.42,0.98,22.71,886.78,21.57,331.0,0.0,0.00945929,-0.0304144,0.0900728,32.6911345,-103.07524,1159.09143,-102.532856,-0.536385083,-0.604678374,,,,,,,,,,,,,,2023-04-19 15:56:56.663601+00:00
2023-04-19 08:56:56.863740-07:00,33.862949,5.02,4.91,-0.53,0.88,22.67,886.79,21.59,323.0,0.0,0.00967216,-0.0304104,0.0981472,32.6911345,-103.07524,1159.125,-102.518166,-0.545196116,-0.607375275,,,,,,,,,,,,,,2023-04-19 15:56:56.863740+00:00
2023-04-19 08:56:57.063074-07:00,34.062283,5.62,5.57,0.49,0.63,22.93,886.81,21.29,336.0,0.0,0.00973617,-0.0320207,0.0877316,32.6911345,-103.07524,1159.13037,-102.518914,-0.541161464,-0.61060427,,,,,,,,,,,,,,2023-04-19 15:56:57.063074+00:00
2023-04-19 08:56:57.263353-07:00,34.262562,5.75,5.67,-0.12,0.98,22.23,886.82,22.25,347.0,0.0,0.0125297,-0.0303696,0.0621098,32.6911344,-103.07524,1159.10205,-102.520763,-0.542026727,-0.599351973,,,,,,,,,,,,,,2023-04-19 15:56:57.263353+00:00
2023-04-19 08:56:57.462988-07:00,34.462197,5.74,5.62,0.0,1.17,22.54,886.81,21.8,352.0,0.0,0.00531969,-0.0312115,0.0360155,32.6911344,-103.07524,1159.08289,-102.502181,-0.54849664,-0.60912022,,,,,,,,,,,,,,2023-04-19 15:56:57.462988+00:00
2023-04-19 08:56:57.663496-07:00,34.662705,4.15,3.69,-1.75,0.75,22.86,886.82,21.35,352.0,0.0,0.012619,-0.0320028,0.00961535,32.6911343,-103.07524,1159.04468,-102.488534,-0.538946082,-0.599039955,,,,,,,,,,,,,,2023-04-19 15:56:57.663496+00:00
2023-04-19 08:56:57.862899-07:00,34.862108,4.8,4.49,-1.35,1.03,23.07,886.79,21.11,350.0,0.0,0.00549035,-0.0313222,-0.0125967,32.6911343,-103.07524,1159.02063,-102.464047,-0.553539319,-0.604327773,,,,,,,,,,,,,,2023-04-19 15:56:57.862899+00:00
2023-04-19 08:56:58.063816-07:00,35.063025,4.53,4.33,-0.37,1.28,23.18,886.84,20.97,342.0,0.0,0.00533011,-0.0322106,-0.018597,32.6911343,-103.07524,1159.02686,-102.459898,-0.559127829,-0.631319262,,,,,,,,,,,,,,2023-04-19 15:56:58.063816+00:00
2023-04-19 08:56:58.263035-07:00,35.262244,4.7,4.35,-1.45,1.02,23.33,886.83,20.73,335.0,0.0,0.0126095,-0.0316964,-0.0185597,32.6911343,-103.07524,1159.0321,-102.448849,-0.541641341,-0.602128384,,,,,,,,,,,,,,2023-04-19 15:56:58.263035+00:00
2023-04-19 08:56:58.463306-07:00,35.462515,4.54,4.37,-0.38,1.13,23.34,886.85,20.74,318.0,0.0,0.00530544,-0.031449,-0.018229,32.6911343,-103.07524,1159.0127,-102.450669,-0.554384494,-0.614331685,,,,,,,,,,,,,,2023-04-19 15:56:58.463306+00:00
2023-04-19 08:56:58.663050-07:00,35.662259,6.05,5.93,-0.62,1.07,23.2,886.83,20.94,327.0,0.0,0.0134448,-0.0322695,-0.0261065,32.6911343,-103.07524,1158.94958,-102.454661,-0.553090998,-0.618156865,2.13372,33.5409,5050.24,36.7935,11140.0,0.410401,-1.0,12.0,-1346.0,54.0,,0.0,,2023-04-19 15:56:58.663050+00:00
2023-04-19 08:56:58.863672-07:00,35.862881,6.23,5.94,-1.61,0.95,22.81,886.8,21.44,338.0,0.0,0.00872107,-0.0324499,-0.0368521,32.6911342,-103.075241,1158.90137,-102.409898,-0.548243554,-0.585350938,,,,,,,,,,,,,,2023-04-19 15:56:58.863672+00:00
2023-04-19 08:56:59.063536-07:00,36.062745,7.94,7.9,-0.3,0.8,20.75,886.78,24.28,347.0,0.0,-5.85287e-05,-0.0375489,-0.0479228,32.6911342,-103.075241,1158.86108,-102.412843,-0.55284437,-0.632269143,,,,,,,,,,,,,,2023-04-19 15:56:59.063536+00:00
2023-04-19 08:56:59.263459-07:00,36.262668,9.13,9.02,0.66,1.25,21.65,886.71,23.02,352.0,0.0,0.0139584,-0.0373293,-0.0422495,32.6911342,-103.075241,1158.88806,-102.422552,-0.549840815,-0.634747106,,,,,,,,,,,,,,2023-04-19 15:56:59.263459+00:00
2023-04-19 08:56:59.463062-07:00,36.462271,8.15,8.06,-0.03,1.18,22.1,886.71,22.36,351.0,0.0,0.0119835,-0.0368641,-0.0248866,32.6911342,-103.075241,1158.90735,-102.402069,-0.545691903,-0.593511418,,,,,,,,,,,,,,2023-04-19 15:56:59.463062+00:00
2023-04-19 08:56:59.663185-07:00,36.662394,7.99,7.91,-0.23,1.12,22.03,886.72,22.41,350.0,0.0,0.00549846,-0.0397562,-0.0137286,32.6911342,-103.075241,1158.89807,-102.379641,-0.559892903,-0.632320373,2.13349,33.3017,5063.47,36.7949,11118.0,0.48997,-1.0,14.0,-1319.0,54.0,,0.0,,2023-04-19 15:56:59.663185+00:00
2023-04-19 08:56:59.863117-07:00,36.862326,6.25,6.15,-0.13,1.09,22.38,886.77,22.01,343.0,0.0,0.0145566,-0.0364391,-0.0135154,32.6911341,-103.075241,1158.88464,-102.369205,-0.569417101,-0.640681947,,,,,,,,,,,,,,2023-04-19 15:56:59.863117+00:00
2023-04-19 08:57:00.063026-07:00,37.062235,5.58,5.27,-1.57,0.99,23.01,886.79,21.15,331.0,0.0,0.00789948,-0.038674,-0.0114986,32.6911341,-103.075241,1158.87561,-102.357189,-0.557043404,-0.615305843,,,,,,,,,,,,,,2023-04-19 15:57:00.063026+00:00
2023-04-19 08:57:00.262930-07:00,37.262139,5.52,5.37,-0.48,1.17,22.76,886.85,22.21,324.0,0.0,0.0104196,-0.0366142,-0.0146409,32.6911341,-103.075241,1158.84509,-102.361857,-0.555972231,-0.633592093,,,,,,,,,,,,,,2023-04-19 15:57:00.262930+00:00
2023-04-19 08:57:00.463811-07:00,37.46302,6.31,6.16,-0.43,1.26,22.36,886.81,21.98,326.0,0.0,0.0102788,-0.0351464,-0.0206905,32.691134,-103.075241,1158.82275,-102.354006,-0.556204351,-0.61781731,2.13312,34.2829,5043.11,36.796,11089.0,0.51052,-1.0,14.0,-1326.0,54.0,,0.0,,2023-04-19 15:57:00.463811+00:00
2023-04-19 08:57:00.663757-07:00,37.662966,6.7,6.46,-1.64,0.73,22.42,886.8,21.89,342.0,0.0,0.00538569,-0.0395055,-0.0224048,32.691134,-103.075241,1158.80798,-102.343859,-0.548087777,-0.612091148,,,,,,,,,,,,,,2023-04-19 15:57:00.663757+00:00
2023-04-19 08:57:00.863662-07:00,37.862871,7.6,7.48,-1.13,0.68,22.36,886.76,21.95,348.0,0.0,0.00810339,-0.0350976,-0.0258802,32.691134,-103.075241,1158.77454,-102.325945,-0.550912256,-0.629329636,,,,,,,,,,,,,,2023-04-19 15:57:00.863662+00:00
2023-04-19 08:57:01.063154-07:00,38.062363,5.62,5.51,-1.05,0.33,22.47,886.78,21.85,352.0,0.0,0.00702659,-0.0340722,-0.0252639,32.6911339,-103.075241,1158.77197,-102.31662,-0.553609476,-0.627215939,,,,,,,,,,,,,,2023-04-19 15:57:01.063154+00:00
2023-04-19 08:57:01.263657-07:00,38.262866,5.48,5.43,-0.17,0.72,22.55,886.84,21.75,349.0,0.0,0.00717404,-0.0335446,-0.0198885,32.6911339,-103.075241,1158.77112,-102.296947,-0.5564986,-0.628816007,,,,,,,,,,,,,,2023-04-19 15:57:01.263657+00:00
2023-04-19 08:57:01.463196-07:00,38.462405,6.15,5.96,-1.35,0.7,22.27,886.8,22.12,345.0,0.0,0.00757603,-0.0336047,-0.00596581,32.6911339,-103.075241,1158.81628,-102.290053,-0.556049891,-0.629286891,,,,,,,,,,,,,,2023-04-19 15:57:01.463196+00:00
2023-04-19 08:57:01.663566-07:00,38.662775,5.29,5.2,-0.45,0.89,22.78,886.81,21.42,338.0,0.0,0.00694797,-0.0336572,0.00813176,32.6911339,-103.075241,1158.83386,-102.283549,-0.552167645,-0.622684479,2.13297,35.0433,5043.52,36.7975,11110.0,0.442333,-1.0,16.0,-1340.0,54.0,,0.0,,2023-04-19 15:57:01.663566+00:00
2023-04-19 08:57:01.863459-07:00,38.862668,6.65,6.27,-2.19,0.33,22.23,886.8,22.17,322.0,0.0,0.00670567,-0.0334036,0.0124203,32.6911338,-103.075241,1158.83911,-102.282913,-0.556914518,-0.629135497,,,,,,,,,,,,,,2023-04-19 15:57:01.863459+00:00
2023-04-19 08:57:02.063253-07:00,39.062462,6.35,6.22,-0.73,1.07,22.45,886.77,22.6,324.0,0.0,0.0102741,-0.0345819,0.014077,32.6911338,-103.075241,1158.83728,-102.269567,-0.553633433,-0.623088018,,,,,,,,,,,,,,2023-04-19 15:57:02.063253+00:00
2023-04-19 08:57:02.263627-07:00,39.262836,6.61,5.97,-2.84,0.21,22.41,886.75,21.94,338.0,0.0,0.00932323,-0.033094,0.0106294,32.6911338,-103.075241,1158.83447,-102.251394,-0.556784259,-0.622445622,,,,,,,,,,,,,,2023-04-19 15:57:02.263627+00:00
2023-04-19 08:57:02.463777-07:00,39.462986,5.64,5.49,-1.13,0.63,22.59,886.79,21.7,346.0,0.0,0.00856258,-0.0309748,0.00657704,32.6911338,-103.075241,1158.82983,-102.230767,-0.562381428,-0.627399351,2.13354,34.2763,5041.64,36.7983,11142.0,0.4461,-1.0,14.0,-1360.0,54.0,,0.0,,2023-04-19 15:57:02.463777+00:00
2023-04-19 08:57:02.663353-07:00,39.662562,6.11,5.67,-2.18,0.63,22.58,886.76,21.68,350.0,0.0,0.00887827,-0.0302928,0.00532276,32.6911338,-103.075241,1158.82642,-102.222039,-0.560384419,-0.626834546,,,,,,,,,,,,,,2023-04-19 15:57:02.663353+00:00
2023-04-19 08:57:02.863380-07:00,39.862589,5.91,5.67,-1.24,1.1,22.8,886.8,21.36,352.0,0.0,0.0106945,-0.0306965,0.00564846,32.6911338,-103.075241,1158.83545,-102.217183,-0.556457311,-0.62364263,,,,,,,,,,,,,,2023-04-19 15:57:02.863380+00:00
2023-04-19 08:57:03.062913-07:00,40.062122,6.41,5.81,-2.64,0.57,23.04,886.76,21.09,351.0,0.0,0.0127478,-0.030459,0.00258956,32.6911338,-103.075241,1158.81714,-102.218397,-0.557493182,-0.619222704,,,,,,,,,,,,,,2023-04-19 15:57:03.062913+00:00
2023-04-19 08:57:03.263781-07:00,40.26299,6.64,6.1,-2.58,0.42,22.16,886.76,22.22,341.0,0.0,0.00755842,-0.0325188,-0.00792615,32.6911338,-103.075241,1158.77979,-102.21071,-0.55887888,-0.621246479,,,,,,,,,,,,,,2023-04-19 15:57:03.263781+00:00
2023-04-19 08:57:03.463778-07:00,40.462987,6.03,5.93,-0.7,0.84,22.63,886.79,21.64,330.0,0.0,0.0102405,-0.0304805,-0.0215686,32.6911337,-103.075241,1158.74585,-102.213255,-0.560803004,-0.633145595,2.13164,34.2611,5046.06,36.7997,11154.0,0.437554,-1.0,16.0,-1377.0,54.0,,0.0,,2023-04-19 15:57:03.463778+00:00
2023-04-19 08:57:03.663264-07:00,40.662473,6.68,6.59,-0.52,0.96,21.92,886.83,22.6,319.0,0.0,0.0117368,-0.031227,-0.0291813,32.6911337,-103.075241,1158.71899,-102.177218,-0.565973552,-0.62398576,,,,,,,,,,,,,,2023-04-19 15:57:03.663264+00:00
2023-04-19 08:57:03.863525-07:00,40.862734,7.37,6.98,-2.35,0.2,22.0,886.72,23.16,320.0,0.0,0.0097509,-0.034017,-0.0258071,32.6911337,-103.075241,1158.74231,-102.188627,-0.566568426,-0.625268631,,,,,,,,,,,,,,2023-04-19 15:57:03.863525+00:00
2023-04-19 08:57:04.063255-07:00,41.062464,7.6,7.04,-2.84,0.22,22.06,886.67,22.41,341.0,0.0,0.0135548,-0.0307891,-0.00913036,32.6911336,-103.075241,1158.79688,-102.186104,-0.578923362,-0.632446152,,,,,,,,,,,,,,2023-04-19 15:57:04.063255+00:00
2023-04-19 08:57:04.263692-07:00,41.262901,7.54,7.41,-0.94,1.05,22.25,886.69,22.12,348.0,0.0,0.0107902,-0.035825,0.0213309,32.6911336,-103.075241,1158.90259,-102.180785,-0.567316202,-0.622951779,,,,,,,,,,,,,,2023-04-19 15:57:04.263692+00:00
2023-04-19 08:57:04.462856-07:00,41.462065,7.32,7.11,-1.64,0.55,21.8,886.74,23.45,353.0,0.0,0.0134712,-0.038083,0.045055,32.6911336,-103.075241,1158.94421,-102.153779,-0.554141253,-0.611173876,,,,,,,,,,,,,,2023-04-19 15:57:04.462856+00:00
2023-04-19 08:57:04.662896-07:00,41.662105,8.16,7.94,-1.21,1.42,22.19,886.67,22.23,350.0,0.0,0.013904,-0.0327284,0.0541054,32.6911335,-103.075241,1158.98901,-102.123902,-0.581000153,-0.615892473,2.13161,34.5347,5032.62,36.8012,11141.0,0.41369,-1.0,13.0,-1341.0,54.0,,0.0,,2023-04-19 15:57:04.662896+00:00
2023-04-19 08:57:04.863181-07:00,41.86239,8.03,7.96,-0.43,0.95,22.07,886.71,22.33,346.0,0.0,0.00397258,-0.0404032,0.0555705,32.6911335,-103.075241,1159.00439,-102.119245,-0.577768106,-0.634360483,,,,,,,,,,,,,,2023-04-19 15:57:04.863181+00:00
2023-04-19 08:57:05.063536-07:00,42.062745,7.89,7.81,-0.57,0.95,22.11,886.74,22.31,338.0,0.0,0.0130062,-0.0356648,0.0416962,32.6911335,-103.075241,1159.00269,-102.110249,-0.565322044,-0.638694025,,,,,,,,,,,,,,2023-04-19 15:57:05.063536+00:00
2023-04-19 08:57:05.263827-07:00,42.263036,7.07,7.0,-0.6,0.83,22.18,886.71,22.19,324.0,0.0,0.0105733,-0.0363393,0.0261007,32.6911334,-103.075241,1158.99939,-102.113482,-0.582572486,-0.630621207,,,,,,,,,,,,,,2023-04-19 15:57:05.263827+00:00
2023-04-19 08:57:05.463474-07:00,42.462683,7.26,7.03,-1.62,0.83,21.93,886.75,22.48,320.0,0.0,0.0101779,-0.039449,0.00631309,32.6911334,-103.075241,1158.95728,-102.09078,-0.576505792,-0.631942715,2.12861,33.4072,5005.62,36.8025,11108.0,0.528467,-1.0,14.0,-1329.0,54.0,,0.0,,2023-04-19 15:57:05.463474+00:00
2023-04-19 08:57:05.663066-07:00,42.662275,6.78,6.54,-1.64,0.76,21.97,886.74,22.48,337.0,0.0,0.0118393,-0.0371047,-0.0133521,32.6911334,-103.075241,1158.93604,-102.105313,-0.572141629,-0.626243379,,,,,,,,,,,,,,2023-04-19 15:57:05.663066+00:00
2023-04-19 08:57:05.863571-07:00,42.86278,8.24,7.93,-2.18,0.61,21.89,886.67,22.59,343.0,0.0,0.00881683,-0.0364062,-0.0205164,32.6911333,-103.075241,1158.94067,-102.090683,-0.572500865,-0.626297864,,,,,,,,,,,,,,2023-04-19 15:57:05.863571+00:00
2023-04-19 08:57:06.063320-07:00,43.062529,7.09,6.67,-2.15,1.04,22.1,886.68,22.33,349.0,0.0,0.0100907,-0.0375954,-0.0153577,32.6911333,-103.075241,1158.95239,-102.096503,-0.565261777,-0.633614079,,,,,,,,,,,,,,2023-04-19 15:57:06.063320+00:00
2023-04-19 08:57:06.263502-07:00,43.262711,7.14,6.98,-1.25,0.83,22.01,886.74,22.41,350.0,0.0,0.014986,-0.0366589,-0.00891586,32.6911332,-103.075241,1158.96289,-102.082998,-0.56353506,-0.618054513,,,,,,,,,,,,,,2023-04-19 15:57:06.263502+00:00
2023-04-19 08:57:06.463724-07:00,43.462933,7.66,7.54,0.42,1.29,22.26,886.77,22.14,346.0,0.0,0.00873355,-0.0388298,-0.00865076,32.6911332,-103.075241,1158.92786,-102.071092,-0.564408611,-0.623111338,2.12985,33.243,4974.72,36.8035,11086.0,0.598113,-1.0,17.0,-1323.0,54.0,,0.0,,2023-04-19 15:57:06.463724+00:00
2023-04-19 08:57:06.663088-07:00,43.662297,6.99,6.63,-2.16,0.5,22.1,886.72,22.3,341.0,0.0,0.0138634,-0.0395309,-0.0143842,32.6911332,-103.075241,1158.91406,-102.046739,-0.567609422,-0.626389863,,,,,,,,,,,,,,2023-04-19 15:57:06.663088+00:00
2023-04-19 08:57:06.863126-07:00,43.862335,7.2,7.06,-1.04,0.99,22.0,886.75,22.46,329.0,0.0,0.0114092,-0.0378491,-0.0172081,32.6911331,-103.075242,1158.90112,-102.04631,-0.574273098,-0.630063125,,,,,,,,,,,,,,2023-04-19 15:57:06.863126+00:00
2023-04-19 08:57:07.063617-07:00,44.062826,7.58,7.19,-2.3,0.7,21.77,886.74,22.74,323.0,0.0,0.0129158,-0.0365579,-0.0132735,32.6911331,-103.075242,1158.90417,-102.033653,-0.571091277,-0.616703978,,,,,,,,,,,,,,2023-04-19 15:57:07.063617+00:00
2023-04-19 08:57:07.263000-07:00,44.262209,8.19,7.57,-3.12,0.24,21.71,886.66,22.8,331.0,0.0,0.0094813,-0.0373649,-0.00763301,32.6911331,-103.075242,1158.91272,-102.020618,-0.562304343,-0.615705272,,,,,,,,,,,,,,2023-04-19 15:57:07.263000+00:00
2023-04-19 08:57:07.463163-07:00,44.462372,7.68,6.72,-3.67,0.63,22.04,886.63,22.34,340.0,0.0,0.0137599,-0.0364781,0.000715911,32.691133,-103.075242,1158.92419,-102.016663,-0.559937448,-0.618807852,,,,,,,,,,,,,,2023-04-19 15:57:07.463163+00:00
2023-04-19 08:57:07.662924-07:00,44.662133,6.92,6.52,-0.63,2.21,22.16,886.75,22.17,350.0,0.0,0.00876711,-0.0341632,0.00337065,32.691133,-103.075242,1158.9082,-101.996869,-0.572301459,-0.622145182,2.13118,34.0815,4963.13,36.8048,11107.0,0.576941,-1.0,17.0,-1340.0,54.0,,0.0,,2023-04-19 15:57:07.662924+00:00
2023-04-19 08:57:07.863488-07:00,44.862697,7.68,7.57,0.03,1.3,22.2,886.78,22.16,352.0,0.0,0.0111591,-0.0336094,-0.00374569,32.691133,-103.075242,1158.87439,-101.996776,-0.571004306,-0.626851249,,,,,,,,,,,,,,2023-04-19 15:57:07.863488+00:00
2023-04-19 08:57:08.063151-07:00,45.06236,7.73,7.61,-1.04,0.87,22.06,886.74,22.35,351.0,0.0,0.00840334,-0.0357092,-0.014664,32.691133,-103.075242,1158.84058,-101.980026,-0.568888041,-0.615350189,,,,,,,,,,,,,,2023-04-19 15:57:08.063151+00:00
2023-04-19 08:57:08.263130-07:00,45.262339,7.04,6.9,-1.2,0.68,21.75,886.75,22.74,345.0,0.0,0.00469766,-0.0330687,-0.0215742,32.6911329,-103.075242,1158.84485,-101.985452,-0.575039061,-0.638692264,,,,,,,,,,,,,,2023-04-19 15:57:08.263130+00:00
2023-04-19 08:57:08.462952-07:00,45.462161,6.45,6.18,-1.81,0.36,22.08,886.74,22.32,335.0,0.0,0.0118328,-0.031884,-0.0155274,32.6911329,-103.075242,1158.87061,-101.966978,-0.577360901,-0.632916023,,,,,,,,,,,,,,2023-04-19 15:57:08.462952+00:00
2023-04-19 08:57:08.663804-07:00,45.663013,7.28,6.98,-1.87,0.85,21.88,886.75,22.52,326.0,0.0,0.00540173,-0.0342839,-0.00591652,32.6911329,-103.075242,1158.88904,-101.953004,-0.556272755,-0.609608766,,,,,,,,,,,,,,2023-04-19 15:57:08.663804+00:00
2023-04-19 08:57:08.863459-07:00,45.862668,6.61,6.45,-1.29,0.66,21.56,886.74,23.0,325.0,0.0,0.00850318,-0.0319881,0.00421886,32.6911328,-103.075242,1158.90906,-101.947891,-0.564085462,-0.632788856,,,,,,,,,,,,,,2023-04-19 15:57:08.863459+00:00
2023-04-19 08:57:09.063670-07:00,46.062879,6.84,6.68,-1.38,0.59,21.68,886.74,22.87,339.0,0.0,0.00879319,-0.0332837,0.0104487,32.6911328,-103.075242,1158.91064,-101.939723,-0.573523783,-0.633348912,,,,,,,,,,,,,,2023-04-19 15:57:09.063670+00:00
2023-04-19 08:57:09.263370-07:00,46.262579,7.55,6.96,-2.88,0.62,21.59,886.72,22.99,347.0,0.0,0.0102785,-0.0339523,0.0086493,32.6911328,-103.075242,1158.90808,-101.928721,-0.558630391,-0.614075538,,,,,,,,,,,,,,2023-04-19 15:57:09.263370+00:00
2023-04-19 08:57:09.463663-07:00,46.462872,7.6,7.48,-0.86,1.03,21.47,886.71,23.16,351.0,0.0,0.00564577,-0.0341514,0.00276952,32.6911328,-103.075242,1158.88684,-101.921834,-0.568756057,-0.627388785,,,,,,,,,,,,,,2023-04-19 15:57:09.463663+00:00
2023-04-19 08:57:09.665886-07:00,46.665095,7.03,6.76,-1.8,0.72,21.89,886.72,22.55,350.0,0.0,0.00900459,-0.0345845,-0.0076322,32.6911327,-103.075242,1158.86707,-101.920397,-0.572049424,-0.633427678,,,,,,,,,,,,,,2023-04-19 15:57:09.665886+00:00
