Timestamp,Seconds,S,Um,Vm,Wm,T,P,H,MD,Sts,Vx,Vy,Vz,Lat,Lon,Alt,Yaw,Roll,Pitch,CH4,C2H6,H20,T_a,Batt,R,C2C1,Power,Current,SOC,Lat_a,Lon_a,TS,Timestamp_UTC,Rho,Rho_err,Sc,V,U,W,WD,V_err,U_err,Sc_avg,WD_avg,V_avg,U_avg,W_avg,U_err_avg,V_err_avg,Nx,Ny,cross_wind,cross_wind_err,CH4_sub,CH4_res,CH4_adj,CH4_adj_err,BG_Samples_CH4,C2H6_sub,C2H6_res,C2H6_adj,C2H6_adj_err,BG_Samples_C2H6,x_dist,y_dist,s_dist,z_dist,velocity_s,velocity_z,x_src_dist,y_src_dist,s_src_dist,collecting,group,transect_num
2023-04-19 08:56:23.629953-07:00,0.629162,6.18,5.06,-3.45,0.77,21.89,886.76,23.63,350.0,0.0,-0.00676654,-0.0230854,0.0462197,32.6911382,-103.075236,1159.58901,-104.447018,-0.467713124,-0.545797732,2.13828,35.4978,5129.67,36.7451,11144.0,0.957099,0.155642,17.0,-1357.0,54.0,,0.0,,2023-04-19 15:56:23.629953+00:00,1.0470322167981607,0.013776424043968189,6.100210901062242,5.737633113751523,2.0717478826876174,0.8162197,199.85366676019635,0.2594350778316047,0.38051589267436137,6.220991431897643,197.96521662922257,5.897820127879295,1.885323972003707,0.977178788,0.38684797742462107,0.25283006621910287,0.959627089143083,-0.2812753984670067,0.15029624878961134,0.35680330575228597,,,,,,,,,,,0.8461770353953907,0.37480936498428147,0.9254715745556168,0.25879000000009,0.9254715745556168,0.25879000000009,-8.662179056726416,-21.457813376792753,23.140248506099837,False,,
2023-04-19 08:56:24.663404-07:00,1.662613,6.26,4.99,-3.67,0.9,22.4,886.73,22.96,324.0,0.0,-0.00628739,-0.0232823,0.00958229,32.691138,-103.075236,1159.56594,-104.393011,-0.477102216,-0.561516866,2.14195,36.2265,5130.2,36.7467,11158.0,0.959398,0.157077,14.0,-1361.0,54.0,,0.0,,2023-04-19 15:56:24.663404+00:00,1.045190100781874,0.01374623337761254,6.1703269469511985,5.7223572850035564,2.3081511508215447,0.90958229,201.96701453303575,0.270416689687373,0.379858566531124,6.743096396875854,205.14137790726335,6.060714435639123,2.8558467358271526,0.8621690866,0.39304455376412406,0.30260852722902504,0.9654168829560701,-0.2607110318022343,1.1769875399283452,0.3669061946610557,,,,,,,,,,,0.8239092161608156,0.3748093644684664,0.9051565920701153,0.2357200000001285,-0.020314982485501454,-0.02306999999996151,-8.68444687596099,-21.457813377308568,23.14859331529221,False,,
2023-04-19 08:56:25.662905-07:00,2.662114,4.95,4.36,-1.67,1.66,22.82,886.88,22.36,351.0,0.0,-0.00758607,-0.0207488,0.0320957,32.6911378,-103.075236,1159.61367,-104.332156,-0.470327805,-0.54692199,2.13708,34.9065,5105.41,36.7479,11149.0,0.960832,0.1571,14.0,-1361.0,54.0,,0.0,,2023-04-19 15:56:25.662905+00:00,1.0438834647981734,0.013722185648520058,4.647403665967755,4.6169512253574085,0.5311517835056735,1.6920956999999999,186.56267527139013,0.18338374026610743,0.33979072376355346,4.6575276321133865,188.0135930549107,4.571945228123601,0.6011207913811478,1.196644756,0.34054240486436266,0.1880818198364464,0.9391951924170834,-0.3433837365697999,-1.0053618784984222,0.30120577584484576,,,,,,,,,,,0.8016414052760498,0.3748093681124605,0.8849355937455685,0.2834500000001299,-0.020220998324546824,0.04773000000000138,-8.706714686845757,-21.45781337366457,23.156956523195223,False,,
2023-04-19 08:56:26.663308-07:00,3.662517,4.18,3.8,-1.3,1.15,23.04,886.84,22.05,338.0,0.0,-0.00401413,-0.0210943,0.033121,32.6911377,-103.075236,1159.69705,-104.28002,-0.483694581,-0.571690663,2.138,35.2879,5094.32,36.7494,11116.0,0.962217,0.154528,14.0,-1325.0,54.0,,0.0,,2023-04-19 15:56:26.663308+00:00,1.043061056975545,0.013709139413825169,3.99486926580944,3.982151971077617,0.3185060912313979,1.1831209999999999,184.57297672991535,0.17210958492437212,0.31888576016812265,4.1682603568103,189.98042548664438,4.077540992891793,0.7133514986521916,1.0441177799999999,0.32209787906015985,0.1859284650530315,0.9823713524251139,-0.18693989925762955,-0.06147902594461119,0.31090957926172574,,,,,,,,,,,0.7905075067295921,0.37480937343122384,0.8748623803820478,0.36683000000016364,-0.010073213363520739,0.08338000000003376,-8.717848585392215,-21.45781336834581,23.161145017217635,False,,
2023-04-19 08:56:27.463184-07:00,4.462393,4.13,3.62,-1.87,0.65,22.32,886.84,23.04,347.0,0.0,-0.00402371,-0.0252804,0.00773992,32.6911375,-103.075236,1159.65286,-104.211544,-0.478394394,-0.564446945,2.13957,35.2915,5109.04,36.7509,11098.0,0.962774,0.157819,17.0,-1324.0,54.0,,0.0,,2023-04-19 15:56:27.463184+00:00,1.045602783584075,0.013751392735852505,4.048935474872307,3.943022837210258,0.9200268392377503,0.65773992,193.13385938074754,0.19069407127659369,0.31765975800913043,4.211972095442365,194.30847334382798,4.06535200203289,1.0489013974250558,0.8985165119999999,0.3215099293563727,0.19721052261617558,0.9875692225153726,-0.15718470262841258,0.39685159203098863,0.3136042279803918,,,,,,,,,,,0.7682396847757766,0.37480937167451644,0.8547948750193993,0.3226400000000922,-0.020067505362648452,-0.04419000000007145,-8.74011640734603,-21.457813370102517,23.169535805451726,False,,
2023-04-19 08:56:28.663423-07:00,5.662632,5.69,5.59,-0.24,0.99,22.43,886.85,22.83,353.0,0.0,-0.000163861,-0.0269349,0.00979508,32.6911372,-103.075235,1159.6658,-104.155502,-0.480351,-0.569748445,2.13738,35.0414,5119.72,36.7522,11120.0,0.962726,0.154894,18.0,-1343.0,54.0,,0.0,,2023-04-19 15:56:28.663423+00:00,1.0452254486713202,0.013744961263606503,5.568810196726253,5.452021005880933,-1.1345104488700593,0.99979508,168.24507980737758,0.15408439570524377,0.36948299906491544,5.753376216798618,178.47670184130067,5.690886105982138,-0.1374453615596413,0.7394001960000001,0.3799733471715979,0.17798823243945877,0.9999814954547651,-0.0060834815732087304,-0.1720632189567029,0.3799592848908246,,,,,,,,,,,0.7348379608413238,0.46851171652178686,0.8714872673835379,0.33558000000016364,0.016692392364138553,0.01294000000007145,-8.773518131280483,-21.364111025255248,23.095451073736147,False,,
2023-04-19 08:56:29.463827-07:00,6.463036,5.41,5.25,-0.91,0.9,22.72,886.83,22.46,338.0,0.0,0.000337169,-0.0273529,0.0348849,32.6911371,-103.075236,1159.7721199999999,-104.084102,-0.48973452,-0.563019473,2.13527,35.5088,5123.17,36.7538,11150.0,0.960429,0.154694,16.0,-1371.0,54.0,,0.0,,2023-04-19 15:56:29.463827+00:00,1.0441774117447005,0.013727845095803595,5.300980639464609,5.286274625189141,-0.3945837389706053,0.9348849,175.7311837040957,0.16329443000861898,0.36327545799635397,6.051203724051633,177.1231654863547,5.993787725328038,-0.25660917759266233,0.77993505,0.39036383581475687,0.17680307961524397,0.9999240357881682,0.012325690775856882,-0.1827121104002177,0.3903045316293984,,,,,,,,,,,0.7237040639331893,0.37480938036085876,0.8150028489274774,0.4419000000000324,-0.05648441845606045,0.10631999999986874,-8.784652028188617,-21.457813361416175,23.186372409450534,False,,
2023-04-19 08:56:30.663309-07:00,7.662518,4.13,3.31,-2.37,0.7,23.17,886.87,21.79,353.0,0.0,0.00330845,-0.0228724,-0.0265342,32.6911369,-103.075236,1159.6061,-104.020144,-0.481589191,-0.561969761,2.13395,34.7546,5114.01,36.7552,11155.0,0.962301,0.158832,14.0,-1363.0,54.0,,0.0,,2023-04-19 15:56:30.663309+00:00,1.0426387197071854,0.013701660734372007,4.050959546849716,3.762688073246847,1.5008170153815517,0.6734658,201.745489986878,0.21056996850719908,0.3116566414883798,4.666303383311013,185.56270072136226,4.547038743350194,0.39869684836333674,1.131756754,0.33730740012507754,0.18440334195555566,0.9896998133708148,0.14315823208525016,1.0455362241378778,0.3304161415551113,,,,,,,,,,,0.7014362280759385,0.37480937144610665,0.7952954463475983,0.2758800000001429,-0.01970740257987913,-0.16601999999988948,-8.806919864045868,-21.45781337033093,23.194818217172525,False,,
2023-04-19 08:56:31.463386-07:00,8.462595,4.29,3.8,-1.88,0.66,22.93,886.86,22.17,322.0,0.0,-0.00276417,-0.0217791,-0.0202618,32.6911368,-103.075236,1159.60818,-103.988664,-0.48236823,-0.566019726,2.13326,34.1141,5108.15,36.7569,11129.0,0.961027,0.159722,13.0,-1347.0,54.0,,0.0,,2023-04-19 15:56:31.463386+00:00,1.0434721081158844,0.013715659370385628,4.217756227010097,4.1199787169164885,0.9029080587953664,0.6397382,192.3611525338692,0.19161491993909044,0.3227232254503359,4.232877972017404,184.3261188325594,4.129532118114944,0.2745527643010006,1.2638116,0.3236566599184552,0.17693334085181278,0.9920418672245294,-0.12590843368761778,-0.2475750839057424,0.31853810203492255,,,,,,,,,,,0.6903023208519367,0.3748093719881398,0.7854930677629904,0.277960000000121,-0.009802378584607863,0.0020799999999780994,-8.81805377126987,-21.457813369788894,23.19904797455486,False,,
2023-04-19 08:56:32.463424-07:00,9.462633,5.72,5.26,-2.21,0.33,22.13,886.8,23.25,352.0,0.0,-0.006134,-0.0202846,-0.0447371,32.6911366,-103.075236,1159.52737,-103.908451,-0.497105886,-0.577940868,2.13674,34.5526,5108.91,36.7582,11093.0,0.957246,0.160654,14.0,-1325.0,54.0,,0.0,,2023-04-19 15:56:32.463424+00:00,1.0462283928977851,0.013762422546427474,5.684422055466453,5.6167180520754645,0.8747184850928097,0.2852629,188.85184182609225,0.20430915486394396,0.37497386568739105,5.0529650742423105,186.249291764189,4.881084025292421,0.5013819334664559,0.776299862,0.34867473753935385,0.19456076648375237,0.9571925172629219,-0.2894520424800472,-0.9329207056327139,0.3198775111719625,,,,,,,,,,,0.6680344953593933,0.3748093680798473,0.765997486543196,0.19715000000019245,-0.019495581219794444,-0.08080999999992855,-8.840321596762413,-21.457813373697185,23.20752121004313,False,,
2023-04-19 08:56:33.663640-07:00,10.662849,5.55,4.19,-3.61,0.42,21.54,886.79,24.13,345.0,0.0,-0.000185096,-0.0253875,0.0217894,32.6911366,-103.075236,1159.7351299999998,-103.843961,-0.491794291,-0.562283004,2.13477,34.1013,5127.07,36.7596,11091.0,0.96591,0.172038,16.0,-1329.0,54.0,,0.0,,2023-04-19 15:56:33.663640+00:00,1.0483112294349175,0.013797260259562216,5.507948054564937,4.906692487914292,2.5023709958419715,0.4417894,207.0211907820226,0.2676427154677228,0.34914144449509016,6.2517811358609245,202.3269862408089,5.776852016968624,2.3420554566855785,0.7083602083999999,0.3816526030733585,0.27034134967973567,0.9999734229431748,-0.007290638333532949,2.2998762729825595,0.38163231720762414,,,,,,,,,,,0.6680345171159696,0.37480938028665506,0.7659975114902352,0.40490999999997257,2.494703921218644e-08,0.20775999999978012,-8.840321575005836,-21.457813361490377,23.20752119046902,False,,
2023-04-19 08:56:35.663010-07:00,12.662219,4.35,3.48,-2.55,0.56,21.73,886.79,23.89,349.0,0.0,0.00436272,-0.0221962,0.00548102,32.6911362,-103.075236,1159.7861599999999,-103.684144,-0.50591929,-0.561805295,2.13569,36.0586,5044.23,36.7626,11152.0,0.950848,0.170967,14.0,-1344.0,54.0,,0.0,,2023-04-19 15:56:35.663010+00:00,1.047635771168529,0.013786008475988255,4.2954588207527395,3.9622743370787052,1.6587189510311937,0.56548102,202.71555029457204,0.2187259710306581,0.3171408941539042,4.8297284542858305,193.37474898221404,4.619641005172925,1.0716665767833486,0.6243844679999999,0.341927684046433,0.20622497078073057,0.9812258031238832,0.19286244653610105,1.9425021638614073,0.329298721745862,,,,,,,,,,,0.6234988878652441,0.3748093849641867,0.727483977986064,0.4559400000000551,-0.038513533504171193,0.05103000000008251,-8.884857204256562,-21.457813356812846,23.22452241911221,False,,
2023-04-19 08:56:36.662883-07:00,13.662092,4.89,4.61,-1.45,0.74,22.63,886.82,22.58,330.0,0.0,0.00596113,-0.0271044,-0.0088227,32.691136,-103.075236,1159.74722,-103.655459,-0.515695853,-0.588585789,2.13799,34.1803,5013.8,36.7636,11152.0,0.949923,0.179464,14.0,-1344.0,54.0,,0.0,,2023-04-19 15:56:36.662883+00:00,1.0444833564143023,0.013733085987484253,4.806016852813156,4.794904526526961,0.3266321646980359,0.7311773,183.89700707016564,0.17836805110277898,0.34493793685963375,5.6205338797377715,196.62326722259564,5.328267560780991,1.611891316396607,0.934545716,0.36461239427508474,0.23336716289384468,0.9766583623978301,0.21479861069939157,2.7187716029255857,0.34795637657492917,,,,,,,,,,,0.6012310665438283,0.37480938351593984,0.7084919684435584,0.4170000000001437,-0.018992009542505572,-0.03893999999991138,-8.907125025577978,-21.45781335826109,23.23305038816999,False,,
2023-04-19 08:56:37.463634-07:00,14.462843,8.15,6.8,-4.41,0.8,21.62,886.63,23.98,349.0,0.0,0.00898565,-0.0264571,-0.0917956,32.6911359,-103.075237,1159.5396999999998,-103.598501,-0.516694444,-0.554597022,2.13896,35.2797,5028.45,36.7651,11095.0,0.947874,0.181116,13.0,-1322.0,54.0,,0.0,,2023-04-19 15:56:37.463634+00:00,1.0478376285214273,0.013791858989884257,8.082857497206065,7.6197841115164415,2.6965673390482774,0.7082044000000001,199.48837515971883,0.30831825639301114,0.45491160368978634,7.778706554920791,198.1045263995063,7.373542850179623,2.3172791458648025,1.14917216,0.4457852518313682,0.2869388364044913,0.9468791932262037,0.32158947967135604,4.565437216640083,0.40078236282008967,,,,,,,,,,,0.5900971382358592,0.28110702821124195,0.6536327668224006,0.209479999999985,-0.05485920162115787,-0.2075200000001587,-8.918258953885948,-21.55151571356579,23.323875585344734,False,,
2023-04-19 08:56:38.463591-07:00,15.4628,7.13,6.06,-3.61,1.08,21.7,886.68,23.87,334.0,0.0,0.00558109,-0.0273343,0.0356769,32.6911358,-103.075237,1159.7539299999999,-103.528325,-0.523554014,-0.584976432,2.14084,35.1214,5025.62,36.7665,11086.0,0.941108,0.178101,17.0,-1338.0,54.0,,0.0,,2023-04-19 15:56:38.463591+00:00,1.0476123996020756,0.0137873294472379,7.029336125232216,6.709000336701219,2.0978276486970002,1.1156769,197.36386657366347,0.26777830215388126,0.41730128266271777,7.87074977437193,194.72945948605226,7.607932006946688,2.0004504804476553,1.0570074799999998,0.4545955053796983,0.27384026238780185,0.979785364031428,0.20005159441954473,3.4819910304374226,0.4365398890504778,,,,,,,,,,,0.5789632496373275,0.28110703796632147,0.6435989521626129,0.42371000000002823,-0.010033814659787699,0.21423000000004322,-8.929392842484479,-21.55151570381071,23.328135066203057,False,,
2023-04-19 08:56:38.663189-07:00,15.662398,7.34,6.54,-3.06,1.32,21.72,886.74,23.9,343.0,0.0,0.00894192,-0.0244076,0.0367899,32.6911358,-103.075237,1159.75991,-103.514463,-0.511941963,-0.537267352,2.14084,35.1214,5025.62,36.7665,11086.0,0.941108,0.178101,17.0,-1338.0,54.0,,0.0,,2023-04-19 15:56:38.663189+00:00,1.0476122289102483,0.013786393704232283,7.198363239292923,7.049599963248979,1.455875572624147,1.3567899,191.66861753827973,0.24159756099788582,0.4310238604914925,7.83538173467266,194.36506215687785,7.587731273266824,1.9391636393947054,1.0465116399999999,0.4537202652812099,0.27048205337726455,0.9389699514501723,0.34399917190839446,4.430989663003601,0.4013075552823046,,,,,,,,,,,0.578963250180055,0.2811070382298348,0.6435989527659308,0.4296900000001642,6.033179511533149e-10,0.005980000000135988,-8.929392841941752,-21.5515157035472,23.328135065751873,False,,
2023-04-19 08:56:39.463678-07:00,16.462887,7.65,6.67,-3.69,0.68,21.64,886.64,23.99,344.0,0.0,0.0119925,-0.0223694,0.0239115,32.6911358,-103.075237,1159.78469,-103.467111,-0.530791226,-0.548154308,2.13629,35.0045,4993.92,36.7678,11114.0,0.94114,0.184883,16.0,-1383.0,54.0,,0.0,,2023-04-19 15:56:39.463678+00:00,1.04777835547998,0.01379071599012009,7.604328299292755,7.32358433438635,2.047173998602825,0.7039115,195.61736262745544,0.2717364131096363,0.44218353899729607,7.369333294483056,195.9727115689318,7.082649257126638,2.009852540496401,0.9542059399999999,0.4327360638811655,0.2676836005176967,0.88133408496136,0.47249363031190406,5.117858209411336,0.34139873660094966,,,,,,,,,,,0.5789632524290165,0.2811070393217847,0.6435989552659672,0.4544700000001285,2.5000364001215303e-09,0.024779999999964275,-8.92939283969279,-21.551515702455248,23.32813506388224,False,,
2023-04-19 08:56:39.662899-07:00,16.662108,7.54,6.49,-3.71,0.95,21.96,886.65,23.49,332.0,0.0,0.00278057,-0.0208252,0.021259,32.6911358,-103.075237,1159.81252,-103.445187,-0.540341679,-0.567959275,2.13629,35.0045,4993.92,36.7678,11114.0,0.94114,0.184883,16.0,-1383.0,54.0,,0.0,,2023-04-19 15:56:39.662899+00:00,1.0466540105880027,0.013771835928450845,7.456372064334723,7.153932838147433,2.102077379419479,0.971259,196.3746453150566,0.27273080246580184,0.43506812950409257,6.9727105214989304,193.42870070637474,6.736113636140139,1.6316651907684938,1.2180543400000001,0.41838414271894975,0.24831441269288615,0.9912037118040122,0.13234501012863564,2.5088036209137403,0.41107906870796257,,,,,,,,,,,0.5789632549547872,0.28110704054813535,0.643598958073716,0.48230000000012296,2.807748811228805e-09,0.02782999999999447,-8.929392837167018,-21.551515701228897,23.328135061782486,False,,
2023-04-19 08:56:40.462962-07:00,17.462171,6.85,6.0,-3.23,0.75,22.03,886.69,22.68,350.0,0.0,0.00716407,-0.0268837,0.03003,32.6911356,-103.075237,1159.87869,-103.397657,-0.529419904,-0.575094402,2.13514,33.3226,4964.98,36.769,11149.0,0.940397,0.199767,14.0,-1404.0,54.0,,0.0,,2023-04-19 15:56:40.462962+00:00,1.046453010621838,0.013767868627899534,6.790044881689531,6.558245664617369,1.7590120232351105,0.78003,195.0141446358278,0.24961583511599092,0.4110255507794869,7.157563468720616,189.49842762860885,6.99907284944649,1.1941425622416184,1.1652338199999999,0.42903855675237884,0.23252576661078644,0.9662789220467042,0.2574976598112289,2.9561196673937014,0.400887716969404,,,,,,,,,,,0.556695443694028,0.28110704409370385,0.6236433173447706,0.5484700000001794,-0.0199556407289454,0.06617000000005646,-8.951660648427778,-21.551515697683328,23.336667654832414,False,,
2023-04-19 08:56:41.463634-07:00,18.462843,7.78,7.2,-2.78,0.99,21.94,886.68,22.78,325.0,0.0,0.00652439,-0.0256972,-0.00165844,32.6911355,-103.075237,1159.88809,-103.396571,-0.536210308,-0.582162835,2.13723,34.961,4966.9,36.7705,11141.0,0.940476,0.207028,13.0,-1333.0,54.0,,0.0,,2023-04-19 15:56:41.463634+00:00,1.0467603647113488,0.013773140609068797,7.693474515728107,7.622486295317199,1.0427141515579956,0.98834156,187.7894002489213,0.22912772137215534,0.4547170603051314,7.233805411340152,192.8436076468882,7.0309803693520205,1.5231566430747043,0.9733762159999999,0.43099531207593555,0.2443480777316557,0.9692477117472822,0.24608712536956787,3.2065498385565303,0.4051650280183898,,,,,,,,,,,0.5455615351566077,0.28110704482279025,0.6137251496325018,0.5578700000000936,-0.009918167712268833,0.009399999999914144,-8.962794556965198,-21.551515696954244,23.340940750244627,False,,
2023-04-19 08:56:41.662896-07:00,18.662105,6.24,5.1,-3.51,0.75,21.98,886.7,22.75,322.0,0.0,0.00611456,-0.0306049,0.00247225,32.6911355,-103.075237,1159.88076,-103.35636,-0.529712629,-0.561451389,2.13723,34.961,4966.9,36.7705,11141.0,0.940476,0.207028,13.0,-1333.0,54.0,,0.0,,2023-04-19 15:56:41.662896+00:00,1.0466421012029827,0.013770861087701971,6.164825402976569,5.742285113474073,2.243041222260367,0.75247225,201.3365225348673,0.262992020836925,0.3792048794766676,7.096186605333642,193.14280130953983,6.888767115235656,1.5306140976036418,1.02425214,0.4251527392262243,0.24309325477361515,0.9806202144014512,0.1959183378534329,2.8505869276343248,0.40894014506030085,,,,,,,,,,,0.5455615345297378,0.2811070444997881,0.6137251489273093,0.5505400000001828,-7.051924599821291e-10,-0.007329999999910797,-8.962794557592069,-21.551515697277246,23.34094075078358,False,,
2023-04-19 08:56:42.463487-07:00,19.462696,6.19,4.63,-4.02,0.91,22.0,886.77,22.72,351.0,0.0,0.0141828,-0.0233639,-0.0243688,32.6911354,-103.075237,1159.8054399999999,-103.306143,-0.540627205,-0.595925006,2.13954,34.3859,4966.15,36.772,11082.0,0.91891,0.207752,17.0,-1358.0,54.0,,0.0,,2023-04-19 15:56:42.463487+00:00,1.0466537994132186,0.013769968772861265,6.1175986836925365,5.40755944121583,2.8606493221704397,0.8856312000000001,207.8792573957208,0.2882371042659819,0.3662722393630903,6.023994784328658,200.18654580434747,5.618243799221486,2.0648519452211347,1.026304428,0.37468973877682155,0.25407249939193505,0.8548268724653959,0.5189133050048242,4.680472388614353,0.28221468958868146,,,,,,,,,,,0.5344276195830525,0.28110704149562177,0.6038493598171891,0.4752200000000357,-0.009875789110120214,-0.07532000000014705,-8.973928472538754,-21.55151570028141,23.345218379996314,False,,
2023-04-19 08:56:43.463477-07:00,20.462686,5.31,4.24,-3.16,0.48,21.76,886.78,23.03,337.0,0.0,0.0074178,-0.0293324,-0.0136701,32.6911353,-103.075237,1159.79849,-103.243716,-0.538125601,-0.602923558,2.13618,34.5492,4973.03,36.7733,11113.0,0.903266,0.211643,16.0,-1362.0,54.0,,0.0,,2023-04-19 15:56:43.463477+00:00,1.0475173868281635,0.01378419229765484,5.264099684017134,4.821838095127975,2.112018671234209,0.46632989999999996,203.6539529973676,0.24649121994158124,0.34521688511180093,6.114604060312793,199.54626316110222,5.744995185616872,2.023961994463458,0.81397672,0.37954086993300545,0.2528780519631884,0.9694802250266965,0.24516951948026883,3.370688838912061,0.3570510785282746,,,,,,,,,,,0.523293709799467,0.2811070415042327,0.5940180767442613,0.468270000000075,-0.009831283072927799,-0.00694999999996071,-8.98506238232234,-21.5515157002728,23.34950052984708,False,,
2023-04-19 08:56:43.663038-07:00,20.662247,6.91,5.73,-3.78,0.75,22.05,886.73,22.66,346.0,0.0,0.0118465,-0.0276762,-0.0136383,32.6911353,-103.075237,1159.8006799999998,-103.227514,-0.538615626,-0.577167416,2.13618,34.5492,4973.03,36.7733,11113.0,0.903266,0.211643,16.0,-1362.0,54.0,,0.0,,2023-04-19 15:56:43.663038+00:00,1.0464293166872725,0.013766853176354916,6.842637982275184,6.4152353628169,2.3804305904895666,0.7363617,200.35782340942973,0.2762512007155869,0.40508959854187715,6.291732876836727,199.0526541131473,5.930248173809742,2.0179621112640844,0.76247486,0.38676366467902656,0.25452245192006084,0.9193220756643582,0.3935059354014575,4.188744971537116,0.3292419280821138,,,,,,,,,,,0.5232937099791137,0.2811070416007368,0.5940180769481878,0.47046000000000276,2.0392643129696353e-10,0.0021899999999277497,-8.985062382142692,-21.551515700176296,23.349500529688875,False,,
2023-04-19 08:56:44.463687-07:00,21.462896,5.69,5.02,-2.62,0.52,22.19,886.77,22.39,345.0,0.0,0.00438089,-0.0300151,-0.043963,32.6911352,-103.075238,1159.6935099999998,-103.173302,-0.532488825,-0.595526005,2.13573,34.6689,4978.65,36.7746,11141.0,0.87897,0.199378,14.0,-1392.0,54.0,,0.0,,2023-04-19 15:56:44.463687+00:00,1.0459804594596447,0.01375876219656462,5.634605838460845,5.454975245339012,1.4113922302307118,0.47603700000000004,194.50629772256445,0.2225422349005298,0.36805544056346556,5.966408129752058,190.52112500432463,5.843903890248384,1.0967018985963786,0.7008075199999999,0.3829392156212876,0.21479548333408077,0.9895156126394552,0.1444259406850571,1.9292149676946369,0.37497831073005067,,,,,,,,,,,0.5121597928780288,0.18740469185941752,0.5453697571114378,0.36329000000000633,-0.04864831983675,-0.10716999999999643,-8.996196299243778,-21.645218049917617,23.440286096441035,False,,
2023-04-19 08:56:45.663599-07:00,22.662808,5.6,4.96,-2.56,0.48,22.1,886.79,22.48,351.0,0.0,0.0110443,-0.0279698,-0.0176959,32.6911351,-103.075238,1159.6741,-103.106152,-0.533326608,-0.585028354,2.13444,34.1893,4990.47,36.7762,11146.0,0.862471,0.198344,14.0,-1371.0,54.0,,0.0,,2023-04-19 15:56:45.663599+00:00,1.0463228999226954,0.013764150574508442,5.557304131807264,5.383325326900526,1.3796512741100297,0.4623041,194.37451806440822,0.22012007550914356,0.36520299610156537,5.5873605219053,185.17861706068848,5.5096292134825635,0.5038250483176949,0.66847126,0.37005133153096315,0.19323975445866973,0.9301144497649909,0.3672698059170781,2.4921354095046375,0.32119555517706366,,,,,,,,,,,0.5010258823354521,0.18740469149911843,0.5349275214137875,0.34388000000012653,-0.010442235697650237,-0.0194099999998798,-9.007330209786353,-21.645218050277915,23.444561457877747,False,,
2023-04-19 08:56:46.463443-07:00,23.462652,5.4,5.35,-0.07,0.72,22.46,886.81,21.97,323.0,0.0,0.0053403,-0.0301919,-0.0045234,32.691135,-103.075238,1159.67898,-103.059886,-0.53734299,-0.606344393,2.1361,34.476,5002.99,36.7775,11146.0,0.830561,0.195144,14.0,-1371.0,54.0,,0.0,,2023-04-19 15:56:46.463443+00:00,1.045072235403201,0.01374303301397725,5.319821773658624,5.197245058655487,-1.1354063165992665,0.7154766,167.67660062706375,0.15782167600443836,0.35836462510366984,5.306849244556257,174.4046755652301,5.241423239232394,-0.5095402343276276,0.597804698,0.3603212065832712,0.16715066026258155,0.984714727163795,0.17417492961598313,0.4111727509559745,0.34942697151374774,,,,,,,,,,,0.4898919751424473,0.18740469185239111,0.5245137422768424,0.3487600000000839,-0.010413779136945078,0.004879999999957363,-9.01846411697936,-21.645218049924644,23.448841324424283,False,,
2023-04-19 08:56:47.663244-07:00,24.662453,5.51,5.16,-1.88,0.43,22.31,886.81,22.17,350.0,0.0,0.0056511,-0.0323989,-0.0326516,32.6911349,-103.075238,1159.5506799999998,-103.010921,-0.540889812,-0.609659195,2.13617,36.0789,5004.47,36.7789,11125.0,0.688801,-1.0,14.0,-1347.0,54.0,,0.0,,2023-04-19 15:56:47.663244+00:00,1.0456028007430453,0.013751858218794662,5.460353059249646,5.418386428028529,0.6756804334988556,0.3973484,187.10817104516684,0.194071957636046,0.3665053910544655,5.642739113372382,184.07742070002126,5.600799217994057,0.39015084554555907,0.4265239,0.37345126630095066,0.18811570639468628,0.9851268987241266,0.1718283835988232,1.3467243689963642,0.3624676756491799,,,,,,,,,,,0.47875805652088105,0.18740468829321028,0.5141301332133008,0.22046000000000276,-0.010383609063541632,-0.12830000000008113,-9.029598035600925,-21.645218053483823,23.4531257035686,False,,
2023-04-19 08:56:48.663326-07:00,25.662535,4.61,3.83,-2.44,0.76,22.87,886.84,21.46,341.0,0.0,0.00622557,-0.0321041,-0.0215904,32.6911348,-103.075238,1159.51541,-102.947593,-0.541060265,-0.610766976,2.14,34.3091,5018.07,36.78,11100.0,0.608478,-1.0,17.0,-1338.0,54.0,,0.0,,2023-04-19 15:56:48.663326+00:00,1.0436600718383442,0.013719092058561864,4.513061578820174,4.247225474468344,1.5260408196539135,0.7384096,199.76351472347187,0.21544183580252885,0.3251933305760612,5.509440413197607,195.3563199165926,5.3148612052206525,1.4355344265624204,0.6931679399999999,0.36323609424694864,0.2216582609071535,0.9817120536848013,0.1903718562444823,2.4210814433554693,0.3501640520982981,,,,,,,,,,,0.4676241458748615,0.18740468746698902,0.5037785810153044,0.18519000000014785,-0.010351552197996439,-0.03526999999985492,-9.040731946246945,-21.645218054310043,23.457414579243796,False,,
2023-04-19 08:56:49.463659-07:00,26.462868,4.95,4.87,-0.56,0.66,22.9,886.85,21.39,347.0,0.0,0.009399,-0.0299226,-0.0264003,32.6911347,-103.075239,1159.45852,-102.915096,-0.553920688,-0.614024415,2.13907,35.0755,5039.1,36.7815,11095.0,0.544838,-1.0,16.0,-1342.0,54.0,,0.0,,2023-04-19 15:56:49.463659+00:00,1.0435660804535345,0.013717375496671328,4.871315980041982,4.842041676323348,-0.533246455365772,0.6335997,173.71543099993931,0.16185603051139041,0.34535244062192066,5.694185915399788,182.9802519113342,5.625954848033507,0.330426844437157,0.63099088,0.3746335737135943,0.1895969313791657,0.9540415444370823,0.29967437576160333,2.001195444137704,0.3414145402766332,,,,,,,,,,,0.4564902330966227,0.09370234240676562,0.4660080062457336,0.12830000000008113,-0.0377705747695708,-0.05689000000006672,-9.051865859025183,-21.73892039937027,23.548183277270937,False,,
2023-04-19 08:56:50.463818-07:00,27.463027,7.05,6.92,-1.23,0.59,21.94,886.8,22.65,347.0,0.0,0.00795351,-0.0324916,-0.0185855,32.6911346,-103.075239,1159.4158,-102.860649,-0.541766925,-0.603210975,2.1378,34.572,5065.93,36.7822,11156.0,0.434829,-1.0,15.0,-1387.0,54.0,,0.0,,2023-04-19 15:56:50.463818+00:00,1.0469020293973297,0.013773635202663524,6.995627137044482,6.9876894402219545,-0.33315961274404515,0.5714144999999999,177.27031438938764,0.17482552357031722,0.4278634299874078,6.691113820478398,179.75671936891644,6.68326602426843,-0.03127517202929738,0.813934232,0.41552319018874184,0.18166960766016113,0.9713222852127928,0.23776673074464796,1.5586800417211653,0.3921669163362921,,,,,,,,,,,0.4453563222144601,0.09370234188422495,0.45510700127659887,0.08558000000016364,-0.010901004969134709,-0.04271999999991749,-9.062999769907346,-21.73892039989281,23.55246536951528,False,,
2023-04-19 08:56:51.662929-07:00,28.662138,7.04,6.93,-0.85,0.89,22.0,886.76,22.59,317.0,0.0,0.00581438,-0.0280359,0.0629479,32.6911346,-103.075239,1159.67312,-102.796402,-0.563050349,-0.617539498,2.1403,35.2553,5060.6,36.7841,11155.0,0.376352,-1.0,16.0,-1356.0,54.0,,0.0,,2023-04-19 15:56:51.662929+00:00,1.0466419964225964,0.01376992757878411,6.953454308383043,6.918109697780905,-0.7002035620021485,0.9529479000000001,174.22059591039886,0.1667561125232426,0.4247366783000897,7.037412941406837,178.83991779110698,7.02517240952171,-0.14134000386998066,0.7966878000000002,0.42925122897870205,0.18123551196101856,0.9791643457202148,0.20306940702701537,1.2882025030506803,0.411617971133825,,,,,,,,,,,0.44535634017878506,0.09370234566389357,0.4551070196342367,0.3429000000000997,1.8357637854293785e-08,0.25731999999993604,-9.062999751943021,-21.73892039611314,23.552465359113963,False,,
2023-04-19 08:56:52.463772-07:00,29.462981,6.18,5.98,-1.17,0.98,22.68,886.78,21.65,349.0,0.0,0.0122058,-0.0281493,0.0191381,32.6911346,-103.075239,1159.66885,-102.726441,-0.555598392,-0.607897174,2.13639,35.1661,5049.0,36.7854,11124.0,0.400235,-1.0,14.0,-1326.0,54.0,,0.0,,2023-04-19 15:56:52.463772+00:00,1.0442597185866669,0.013729987388863298,6.064902023791827,6.062686706139321,-0.16390991853989162,0.9991381,178.45133686624015,0.17378802613095914,0.3904311156050378,5.956043908674258,180.62126222545507,5.934262912513507,0.08972828975496376,0.6131512720000001,0.38590584073135187,0.1819829388144773,0.9174632096849754,0.3978206365619345,2.4430946541001353,0.32610619425571313,,,,,,,,,,,0.4453563398806828,0.09370234560117328,0.45510701932960773,0.33863000000019383,-3.0462898870098343e-10,-0.004269999999905849,-9.062999752241124,-21.73892039617586,23.55246535928656,False,,
2023-04-19 08:56:53.463452-07:00,30.462661,5.51,5.39,-0.46,1.06,23.22,886.84,20.96,325.0,0.0,0.014266,-0.0284915,0.011183,32.6911345,-103.075239,1159.7216999999998,-102.692106,-0.545735213,-0.610022336,2.13562,34.5731,5067.94,36.7869,11096.0,0.396708,-1.0,14.0,-1319.0,54.0,,0.0,,2023-04-19 15:56:53.463452+00:00,1.042427554967057,0.01369861731698617,5.3794365746627495,5.330870329375381,-0.7212207652338575,1.071183,172.29515724077675,0.16158071348469852,0.36256633334520566,5.425205810797705,173.82899564013618,5.374997732711157,-0.6192942763843561,1.102362506,0.3653187512887269,0.16403532666443693,0.8941728373505825,0.44772194154900286,1.8527483004413519,0.2939337936500311,,,,,,,,,,,0.434222434502989,0.09370234648242141,0.4442175732251194,0.3914800000000014,-0.010889446104488332,0.05284999999980755,-9.074133657618818,-21.738920395294613,23.55675193207431,False,,
2023-04-19 08:56:53.662863-07:00,30.662072,7.1,6.97,-0.19,1.33,23.23,886.82,20.97,337.0,0.0,0.00871107,-0.0293669,0.0158175,32.6911345,-103.075239,1159.7216999999998,-102.68026,-0.535462546,-0.590667399,2.13562,34.5731,5067.94,36.7869,11096.0,0.396708,-1.0,14.0,-1319.0,54.0,,0.0,,2023-04-19 15:56:53.662863+00:00,1.0423688749585747,0.01369795177718343,6.942094245303983,6.8123433151995,-1.3359083301407235,1.3458175,168.9050237330354,0.1596759277079925,0.4203034617905537,5.47127471186152,178.19772940705403,5.405379177722168,-0.2739519804945555,1.0685164860000003,0.36632894913377584,0.17210221515585178,0.9587112238394252,0.28438141515280413,1.274548541504961,0.3369904566284626,,,,,,,,,,,0.434222434502989,0.09370234648242141,0.4442175732251194,0.3914800000000014,0.0,0.0,-9.074133657618818,-21.738920395294613,23.55675193207431,False,,
2023-04-19 08:56:54.463617-07:00,31.462826,6.64,6.41,-1.21,1.19,22.05,886.83,22.45,349.0,0.0,0.0168755,-0.0284745,-0.0521561,32.6911346,-103.07524,1159.47488,-102.629669,-0.547098944,-0.596467662,2.1356,33.9599,5105.03,36.7882,11096.0,0.290999,-1.0,16.0,-1325.0,54.0,,0.0,,2023-04-19 15:56:54.463617+00:00,1.04654732660198,0.013767264931459928,6.494194774689313,6.4909917974580535,-0.20393934621413062,1.1378439,178.20042582412822,0.17508138708760843,0.4072189185940014,6.212267434835672,180.3914693143021,6.152655026131567,0.06580897685964422,0.8087092,0.39698499888611966,0.18618244140348117,0.8602687128203065,0.5098408984599931,3.1934885702523785,0.29775299450245113,,,,,,,,,,,0.44535632633902217,0.0,0.44535632633902217,0.1446600000001581,0.0011387531139027685,-0.24681999999984328,-9.062999765782784,-21.832622741777033,23.638980107850223,False,,
2023-04-19 08:56:54.663127-07:00,31.662336,8.41,8.23,-1.6,0.78,21.63,886.7,23.08,339.0,0.0,0.0115389,-0.0309076,-0.0411688,32.6911345,-103.07524,1159.50686,-102.592169,-0.550340048,-0.589173109,2.1356,33.9599,5105.03,36.7882,11096.0,0.290999,-1.0,16.0,-1325.0,54.0,,0.0,,2023-04-19 15:56:54.663127+00:00,1.0478848067305662,0.01379155612585389,8.352876976148291,8.349948420846548,-0.22116769174191978,0.7388312,178.48274355106474,0.1860164693826201,0.4848898293708932,6.975153175030556,178.23597400363116,6.939067680533737,-0.07238699582591272,1.02191146,0.4280940995738642,0.1874685343988536,0.9368408923307608,0.3497558326274256,2.359164296500445,0.3764249321896635,,,,,,,,,,,0.4342224198792941,0.0,0.4342224198792941,0.17664000000013402,-0.01113390645972806,0.03197999999997592,-9.074133672242512,-21.832622741777033,23.643250996563165,False,,
2023-04-19 08:56:56.463697-07:00,33.462906,4.55,4.15,-1.78,0.53,22.5,886.75,22.54,341.0,0.0,0.0054496,-0.032424,0.0641268,32.6911345,-103.07524,1159.83181,-102.526359,-0.534273022,-0.593484736,2.1339,34.3176,5048.01,36.7907,11116.0,0.354267,-1.0,19.0,-1326.0,54.0,,0.0,,2023-04-19 15:56:56.463697+00:00,1.0448601440603658,0.013740435545319188,4.48479219385536,4.404852723865801,0.842990808442182,0.5941268000000001,190.83413670571053,0.1919298933653933,0.32963865211533927,5.131708409668528,184.13915330288054,5.048747262730302,0.408004288243849,0.70860306,0.3524630867877928,0.18886105539150566,0.9861680959926,0.16574826227242942,1.2391818975444848,0.34281931484283296,,,,,,,,,,,0.43422244199793897,0.0,0.43422244199793897,0.5015900000000784,2.211864486012516e-08,0.32494999999994434,-9.074133650123867,-21.832622741777033,23.643250988074165,False,,
2023-04-19 08:56:58.663050-07:00,35.662259,6.05,5.93,-0.62,1.07,23.2,886.83,20.94,327.0,0.0,0.0134448,-0.0322695,-0.0261065,32.6911343,-103.07524,1159.7995799999999,-102.454661,-0.553090998,-0.618156865,2.13372,33.5409,5050.24,36.7935,11140.0,0.410401,-1.0,12.0,-1346.0,54.0,,0.0,,2023-04-19 15:56:58.663050+00:00,1.042486150878706,0.013699744885678353,5.928749658845344,5.891893184751447,-0.6600509198071334,1.0438935,173.60797877045468,0.16437281372565524,0.3835187011449961,5.7659171094890755,176.97844351140031,5.719045626949236,-0.36713762549726076,0.96446598,0.37895372468462174,0.17126506110851622,0.9230853013930047,0.3845952760398724,1.8606185858963156,0.32389351449642145,,,,,,,,,,,0.4119546228141006,0.0,0.4119546228141006,0.4693600000000515,-0.022267819183838355,-0.03223000000002685,-9.096401469307706,-21.832622741777033,23.651806177871133,False,,
2023-04-19 08:56:59.663185-07:00,36.662394,7.99,7.91,-0.23,1.12,22.03,886.72,22.41,350.0,0.0,0.00549846,-0.0397562,-0.0137286,32.6911342,-103.075241,1159.7480699999999,-102.379641,-0.559892903,-0.632320373,2.13349,33.3017,5063.47,36.7949,11118.0,0.48997,-1.0,14.0,-1319.0,54.0,,0.0,,2023-04-19 15:56:59.663185+00:00,1.0464884159949885,0.013767992169643356,7.873258070405189,7.735633887001737,-1.4656606051439185,1.1062714,169.2714156009507,0.16104459973462584,0.4586872590504101,7.294566239078767,170.75496366983776,7.130102978630693,-1.2977069919602529,1.10482426,0.4346308597844182,0.16658851917824533,0.9905709932151587,0.13700039197292063,-0.30864400104862977,0.4264846882168201,,,,,,,,,,,0.4008207110826259,-0.09370234956883115,0.41162771134545995,0.417850000000044,-0.0003269114686406671,-0.051510000000007494,-9.107535381039181,-21.926325091345863,23.742597430109953,False,,
2023-04-19 08:57:00.463811-07:00,37.46302,6.31,6.16,-0.43,1.26,22.36,886.81,21.98,326.0,0.0,0.0102788,-0.0351464,-0.0206905,32.691134,-103.075241,1159.67275,-102.354006,-0.556204351,-0.61781731,2.13312,34.2829,5043.11,36.796,11089.0,0.51052,-1.0,14.0,-1326.0,54.0,,0.0,,2023-04-19 15:57:00.463811+00:00,1.045425885782343,0.013748915203325057,6.138724484113408,6.074213777115921,-0.8876177565532146,1.2393095,171.6862775533516,0.16259060031728964,0.3905514932770134,6.221672353099402,177.4211820078646,6.1933067806897695,-0.2805004149685243,0.9469770000000001,0.39605445567077835,0.17471232561389355,0.9597959236497592,0.28069874411066675,1.4692302803628394,0.3651082224149817,,,,,,,,,,,0.378552889094599,-0.09370234867239836,0.38997746087253743,0.34253000000012435,-0.021650250472922516,-0.07531999999991967,-9.129803203027206,-21.92632509044943,23.75114815115425,False,,
2023-04-19 08:57:01.663566-07:00,38.662775,5.29,5.2,-0.45,0.89,22.78,886.81,21.42,338.0,0.0,0.00694797,-0.0336572,0.00813176,32.6911339,-103.075241,1159.6838599999999,-102.283549,-0.552167645,-0.622684479,2.13297,35.0433,5043.52,36.7975,11110.0,0.442333,-1.0,16.0,-1340.0,54.0,,0.0,,2023-04-19 15:57:01.663566+00:00,1.0439421603336607,0.013724244359504693,5.18516654479213,5.143035071540835,-0.6596532044434517,0.8981317600000001,172.69106491748238,0.16305331622634675,0.3551418041326705,5.899477507947525,176.8589431581804,5.857146326933039,-0.2740768897374656,0.7437549500000001,0.3823487736654268,0.17551208944871347,0.9793503177047885,0.2021706091684194,0.9157255518646954,0.3667912076188624,,,,,,,,,,,0.36741898075260315,-0.09370234894054465,0.37917916294841064,0.35364000000004125,-0.010798297924126787,0.011109999999916909,-9.140937111369203,-21.92632509071758,23.755430184651214,False,,
2023-04-19 08:57:02.463777-07:00,39.462986,5.64,5.49,-1.13,0.63,22.59,886.79,21.7,346.0,0.0,0.00856258,-0.0309748,0.00657704,32.6911338,-103.075241,1159.6798299999998,-102.230767,-0.562381428,-0.627399351,2.13354,34.2763,5041.64,36.7983,11142.0,0.4461,-1.0,14.0,-1360.0,54.0,,0.0,,2023-04-19 15:57:02.463777+00:00,1.0445892885716368,0.013735311874458317,5.57403028408543,5.573804765120654,-0.05014028539805081,0.63657704,179.4845981570116,0.17450161736202754,0.37094093128144423,6.040350231080348,183.29356555677995,5.984375897355703,0.36626066135263535,0.736450932,0.38684436855363413,0.19167754006898233,0.963850429248936,0.26644389660234613,1.9475209284863517,0.3596389057094718,,,,,,,,,,,0.35628507294272915,-0.09370234898630563,0.368400846100219,0.3496099999999842,-0.010778316848191638,-0.0040300000000570435,-9.152071019179077,-21.92632509076334,23.759716663418686,False,,
2023-04-19 08:57:03.463778-07:00,40.462987,6.03,5.93,-0.7,0.84,22.63,886.79,21.64,330.0,0.0,0.0102405,-0.0304805,-0.0215686,32.6911337,-103.075241,1159.59585,-102.213255,-0.560803004,-0.633145595,2.13164,34.2611,5046.06,36.7997,11154.0,0.437554,-1.0,16.0,-1377.0,54.0,,0.0,,2023-04-19 15:57:03.463778+00:00,1.0444480228621809,0.013732963119802705,5.939857609798448,5.913391325301633,-0.5600995077019244,0.8184313999999999,174.58924971667025,0.16640474501798025,0.3838815710143854,6.559474759810472,183.34673608744163,6.480039246834787,0.4010543687177098,0.581621282,0.4064702727698686,0.19825050688541004,0.9479311332476218,0.31847537835738493,2.4439048731389006,0.3657964724532635,,,,,,,,,,,0.34515115940473107,-0.09370234785771359,0.3576443104992417,0.26563000000010106,-0.01075653560097728,-0.08397999999988315,-9.163204932717075,-21.926325089634748,23.764007586585993,False,,
2023-04-19 08:57:04.662896-07:00,41.662105,8.16,7.94,-1.21,1.42,22.19,886.67,22.23,350.0,0.0,0.013904,-0.0327284,0.0541054,32.6911335,-103.075241,1159.83901,-102.123902,-0.581000153,-0.615892473,2.13161,34.5347,5032.62,36.8012,11141.0,0.41369,-1.0,13.0,-1341.0,54.0,,0.0,,2023-04-19 15:57:04.662896+00:00,1.045862505485169,0.01375835099549294,7.99816974363446,7.98430749944438,-0.4706941706734252,1.4741054,176.6261805315783,0.17673737436461712,0.46862513569491,7.682899018806227,175.15153282203937,7.640081745678295,-0.6599418135874516,1.0275516,0.4542286139232978,0.17287918182846215,0.9203872957656634,0.39100796129128784,2.379930726306011,0.38568957603539844,,,,,,,,,,,0.3228833547250645,-0.0937023516393039,0.3362049842897151,0.50879000000009,-0.0214393262095266,0.24315999999998894,-9.185472737396742,-21.926325093416338,23.77260275004901,False,,
2023-04-19 08:57:05.463474-07:00,42.462683,7.26,7.03,-1.62,0.83,21.93,886.75,22.48,320.0,0.0,0.0101779,-0.039449,0.00631309,32.6911334,-103.075241,1159.80728,-102.09078,-0.576505792,-0.631942715,2.12861,33.4072,5005.62,36.8025,11108.0,0.528467,-1.0,14.0,-1329.0,54.0,,0.0,,2023-04-19 15:57:05.463474+00:00,1.0468784790275423,0.0137740197514219,7.174964058529666,7.173931368978099,0.12172902030539383,0.83631309,180.97211549566612,0.18805159022368634,0.4347037142134327,7.370219382675917,178.27393175612445,7.340690120538144,-0.21896913613230917,0.804048298,0.44180230308220664,0.18282628148246477,0.9682920923711544,0.2498207834658513,1.6218308741026157,0.41438635660109624,,,,,,,,,,,0.31174944461061993,-0.09370235127819085,0.3255270293694388,0.477060000000165,-0.010677954920276345,-0.031729999999924985,-9.196606647511187,-21.926325093055222,23.776906987987108,False,,
2023-04-19 08:57:06.463724-07:00,43.462933,7.66,7.54,0.42,1.29,22.26,886.77,22.14,346.0,0.0,0.00873355,-0.0388298,-0.00865076,32.6911332,-103.075241,1159.77786,-102.071092,-0.564408611,-0.623111338,2.12985,33.243,4974.72,36.8035,11086.0,0.598113,-1.0,17.0,-1323.0,54.0,,0.0,,2023-04-19 15:57:06.463724+00:00,1.0457326051819893,0.013754638132502248,7.5119293638931195,7.24661971757201,-1.9787838277629652,1.28134924,164.72697798025118,0.1635887316642293,0.4376694341897682,7.114050862387136,178.26887110397894,7.042169237144586,-0.23807762950868358,0.9170966760000001,0.4291789157006324,0.18537672405000102,0.9756267298569788,0.21943674256736867,1.3130357788774811,0.40861039731646387,,,,,,,,,,,0.2894816262586927,-0.09370235105596446,0.3042691941928934,0.4476400000000922,-0.021257835176545392,-0.029420000000072832,-9.218874465863113,-21.926325092832997,23.785528762126372,False,,
2023-04-19 08:57:07.662924-07:00,44.662133,6.92,6.52,-0.63,2.21,22.16,886.75,22.17,350.0,0.0,0.00876711,-0.0341632,0.00337065,32.691133,-103.075242,1159.7582,-101.996869,-0.572301459,-0.622145182,2.13118,34.0815,4963.13,36.8048,11107.0,0.576941,-1.0,17.0,-1340.0,54.0,,0.0,,2023-04-19 15:57:07.662924+00:00,1.0460631255001427,0.013760448156803304,6.5154340363450265,6.474383915060713,-0.7302284590224877,2.21337065,173.56495688713528,0.16622353468519907,0.40579358761685536,7.494676623093727,180.90152434936243,7.3560797302799745,0.16260478165299827,1.0456087722,0.4422220649740768,0.20374731826342335,0.9686139470510942,0.2485699530878584,1.9860016528325315,0.4150894249422628,,,,,,,,,,,0.26721380781274173,-0.18740469956999395,0.32637974892248534,0.42798000000016145,0.022110554729591947,-0.019659999999930733,-9.241142284309065,-22.02002744134703,23.88054269141556,False,,
2023-04-19 08:57:11.463547-07:00,48.462756,4.26,3.87,0.06,1.77,22.99,886.88,21.08,349.0,0.0,0.0103381,-0.0396182,0.00380559,32.6911324,-103.075242,1159.8116699999998,-101.84898,-0.564722374,-0.626163333,2.12963,33.1727,4958.86,36.8104,11095.0,0.581845,-1.0,13.0,-1323.0,54.0,,0.0,,2023-04-19 15:57:11.463547+00:00,1.0432842205589092,0.013712228423972468,3.8295427264606086,3.7356007062070846,-0.8430212675683104,1.77380559,167.28296284496406,0.16259154423528113,0.30693207954564744,3.80980378242993,185.2948742057806,3.6093514736234966,0.1546949871517025,1.090443638,0.3062257007003809,0.17708052570267557,0.9675998670064755,0.2524886083946183,1.0610029797768172,0.28692582581869347,,,,,,,,,,,0.20041035753936587,-0.18740470240026416,0.27438081910145984,0.48144999999999527,-0.0519989298210255,0.05346999999983382,-9.30794573458244,-22.0200274441773,23.906473233002245,False,,
2023-04-19 08:57:14.463818-07:00,51.463027,4.92,4.87,0.07,0.68,22.54,886.84,21.61,348.0,0.0,0.0084345,-0.0290267,0.0205046,32.6911318,-103.075242,1159.90566,-101.782274,-0.533314337,-0.596905405,2.1318,34.8264,5013.74,36.8131,11152.0,0.549856,-1.0,14.0,-1373.0,54.0,,0.0,,2023-04-19 15:57:14.463818+00:00,1.0448248316330842,0.013738453918841912,4.840335662189124,4.724071838229153,-1.0545115409088939,0.7005046,167.41667682768053,0.16286764325528966,0.33907394826892706,4.972621389324337,172.83398879079337,4.889510975927028,-0.6148416866329471,0.9719959979999999,0.3451267451733936,0.16891227311055024,0.9602807080039477,0.2790357716054286,0.7739278577907824,0.3185264710212477,,,,,,,,,,,0.13360690699476588,-0.187404706420898,0.23015501207970898,0.5754400000000714,-0.04422580702175086,0.09399000000007618,-9.37474918512704,-22.020027448197933,23.932562150831874,False,,
2023-04-19 08:57:15.663248-07:00,52.662457,5.12,4.44,-2.46,0.73,22.72,886.81,21.37,324.0,0.0,0.0119556,-0.0316979,-0.0210002,32.6911317,-103.075242,1159.82144,-101.760018,-0.510450667,-0.566743868,2.12992,34.6665,5034.72,36.8143,11152.0,0.502828,-1.0,14.0,-1373.0,54.0,,0.0,,2023-04-19 15:57:15.663248+00:00,1.0441538632086396,0.01372776325114094,5.049251642484524,4.816485650938046,1.5153904194763068,0.7089998,197.46491800046942,0.21841185091098794,0.34238136450880063,4.701630278245879,190.2977930108249,4.597935523219729,0.8133648289468074,0.65965064,0.33513108509807826,0.19387186452086602,0.9356589581609749,0.3529055312872258,2.383668967103416,0.2943849436042328,,,,,,,,,,,0.1224729959894674,-0.18740470415666338,0.22387531772547553,0.4912200000001121,-0.0062796943542334505,-0.08421999999995933,-9.38588309613234,-22.020027445933696,23.9369256633749,False,,
2023-04-19 08:57:17.463467-07:00,54.462676,4.81,4.71,-0.75,0.62,22.91,886.83,21.1,327.0,0.0,0.00904974,-0.0215838,-0.0135343,32.6911314,-103.075242,1159.74478,-101.737207,-0.489974929,-0.551483912,2.13044,34.5793,5068.28,36.8166,11130.0,0.470714,-1.0,13.0,-1330.0,54.0,,0.0,,2023-04-19 15:57:17.463467+00:00,1.0435072985641576,0.013716708086581531,4.7473616743041775,4.742501778646043,-0.21475508420358272,0.6064657,177.4072419034086,0.1689166500262843,0.3393742164294672,4.370611265076085,183.97675727243478,4.328105114782398,0.23174176322418988,0.683262532,0.3259068863632651,0.17698230220723093,0.9222177092617256,0.3866710445896554,1.8872692838476257,0.27843931185815557,,,,,,,,,,,0.0890712693196154,-0.18740470253434433,0.20749509283400785,0.414560000000165,-0.016380224891467676,-0.0766599999999471,-9.41928482280219,-22.020027444311378,23.95004248892469,False,,
2023-04-19 08:57:18.463631-07:00,55.46284,2.51,2.28,-0.2,1.03,23.65,886.89,20.84,350.0,0.0,0.0130257,-0.0223082,7.72156e-05,32.6911313,-103.075242,1159.7340299999998,-101.718942,-0.486483831,-0.548461841,2.13362,34.4465,5085.92,36.8182,11097.0,0.451958,-1.0,14.0,-1327.0,54.0,,0.0,,2023-04-19 15:57:18.463631+00:00,1.0409759862836845,0.01367375045076238,2.2651020640668413,2.2507890346319424,-0.25423627243269775,1.0300772156,173.5555111035324,0.1634918668232582,0.26707229833930174,3.255371293090209,173.55551352616266,3.1295716439870285,-0.43754049121413807,1.09846909912,0.2893239454603161,0.16943224704724813,0.86356681797837,0.5042344205691563,1.2001922948009753,0.22002109737345057,,,,,,,,,,,0.07793736008067738,-0.18740470242845153,0.20296490974708323,0.4038100000000213,-0.004530183086924627,-0.0107500000001437,-9.43041873204113,-22.020027444205486,23.954423518531915,False,,
2023-04-19 08:57:19.463828-07:00,56.463037,4.66,4.52,-0.75,0.89,23.07,886.84,21.58,345.0,0.0,0.010453,-0.020258,-0.00367457,32.6911313,-103.075242,1159.74832,-101.704277,-0.484397036,-0.536824544,2.13207,34.1145,5098.79,36.8194,11083.0,0.495003,-1.0,18.0,-1344.0,54.0,,0.0,,2023-04-19 15:57:19.463828+00:00,1.0429554198419644,0.013707384589310673,4.56115280715933,4.557905963338978,-0.17207021711041098,0.88632543,177.8379945495529,0.169037084044105,0.33285185788948735,5.172915374275273,174.3946217163578,5.089770285670592,-0.5942869993665836,0.89630525628,0.3546111922238789,0.1685248369212458,0.8886696741027864,0.4585479367852912,1.8057788291547077,0.28228137371302975,,,,,,,,,,,0.07793736025526267,-0.18740470284825156,0.20296491020173923,0.41810000000009495,4.546560072871131e-10,0.014290000000073633,-9.430418731866544,-22.020027444625285,23.954423518849083,False,,
2023-04-19 08:57:20.463285-07:00,57.462494,6.22,6.12,-0.85,0.69,21.48,886.79,23.77,329.0,0.0,0.0130246,-0.0185694,-0.00726276,32.6911311,-103.075242,1159.7645499999999,-101.676565,-0.502001022,-0.54981871,2.13516,34.0235,5124.46,36.8207,11121.0,0.418584,-1.0,17.0,-1364.0,54.0,,0.0,,2023-04-19 15:57:20.463285+00:00,1.0485247130372868,0.013800817335343453,6.159371604112997,6.146810059680331,-0.39317254197895596,0.6827372399999999,176.34013738442434,0.17078162084122456,0.391644787750004,5.969855844162952,179.6258097673413,5.950645080883553,-0.035097537498787405,0.6633064839999999,0.38408712458318256,0.1789179016858582,0.8186926166881131,0.5742320083210011,3.388316780787057,0.26411095297387693,,,,,,,,,,,0.05566954287757533,-0.1874047037448673,0.1954983912718969,0.4343300000000454,-0.007466518929842347,0.01622999999995045,-9.45268654924423,-22.0200274455219,23.963198695078265,False,,
2023-04-19 08:57:21.463672-07:00,58.462881,4.8,4.39,-1.33,1.44,23.44,886.84,21.1,350.0,0.0,0.00893698,-0.0224831,-0.0043644,32.691131,-103.075242,1159.7645499999999,-101.679668,-0.487852401,-0.541152941,2.13476,35.2013,5087.93,36.8221,11152.0,0.430329,-1.0,12.0,-1357.0,54.0,,0.0,,2023-04-19 15:57:21.463672+00:00,1.0416543189776684,0.01368577926788223,4.565474723550759,4.545865605177988,0.42268824331964505,1.4356356,185.31225923261053,0.18115131448117192,0.3324671147334699,4.217602286336566,191.61159399078127,4.111958921885569,0.8001670628416544,1.06499017298,0.31870974594310997,0.18963034722801675,0.9292763718827798,0.36938519821505783,2.2624731064704693,0.2764368216145367,,,,,,,,,,,0.04453563444370828,-0.18740470395477932,0.19262384535586993,0.4343300000000454,-0.002874545916026955,0.0,-9.463820457678098,-22.020027445731813,23.96759283628518,False,,
2023-04-19 08:57:22.463687-07:00,59.462896,3.88,3.26,-1.91,0.89,23.48,886.85,21.02,329.0,0.0,0.0121146,-0.0251033,-0.0350704,32.6911308,-103.075242,1159.60403,-101.657883,-0.473700622,-0.532985811,2.13704,35.3313,5065.36,36.8231,11132.0,0.404172,-1.0,14.0,-1326.0,54.0,,0.0,,2023-04-19 15:57:22.463687+00:00,1.0415255979444724,0.013683488343571684,3.7584790759348556,3.553596949303778,1.2239745447267312,0.8549296,199.00537620841192,0.19848954648598763,0.30058221386813905,3.8496410598944535,191.22271598688403,3.7423269638815255,0.6713467190478555,0.8061708598000001,0.3072113863431586,0.1847267873217103,0.9006111056316513,0.4346258579662912,2.2311343783712645,0.25161072284854985,,,,,,,,,,,0.022267817015653685,-0.18740469965897733,0.18872301695583962,0.27381000000013955,-0.0039008284000303095,-0.16051999999990585,-9.486088275106152,-22.02002744143601,23.976394209403157,False,,
2023-04-19 08:57:23.463609-07:00,60.462818,5.64,4.52,-3.29,0.79,22.49,886.75,22.32,349.0,0.0,0.0102699,-0.0220999,0.0197075,32.6911307,-103.075242,1159.7041299999999,-101.647231,-0.468330924,-0.521741402,2.13667,34.5236,5099.6,36.8241,11094.0,0.349969,-1.0,15.0,-1330.0,54.0,,0.0,,2023-04-19 15:57:23.463609+00:00,1.0448954863734514,0.013741023306506889,5.574720471218224,5.069032316566393,2.3200042469411732,0.8097075,204.5927114647004,0.2538565319547379,0.35088080198068766,4.891726848485142,195.1038693569811,4.518505747589437,1.2326511290692774,0.8389282999999998,0.33219759914390434,0.21440874915629707,0.906864216061614,0.4214229391323569,3.0220491724764615,0.2758411089140333,,,,,,,,,,,0.011133908328414254,-0.18740470280954574,0.18773515001139157,0.3739100000000235,-0.0009878669444480515,0.10009999999988395,-9.497222183793392,-22.020027444586578,23.98080144341893,False,,
2023-04-19 08:57:24.463315-07:00,61.462524,5.06,2.64,-4.27,0.62,22.54,886.84,22.31,341.0,0.0,0.0108095,-0.0193861,0.0241198,32.6911306,-103.075242,1159.8429199999998,-101.641464,-0.473715889,-0.527259199,2.13567,35.6438,5122.23,36.8254,11094.0,0.404191,-1.0,15.0,-1330.0,54.0,,0.0,,2023-04-19 15:57:24.463315+00:00,1.0448248316330842,0.013738453918841912,5.014801067514763,3.427937228489389,3.66025628942615,0.6441198,226.87722561339314,0.30048087481599906,0.2966832793080371,4.782021528300588,211.25801135611118,3.879774110083214,2.319287415891615,0.8417012479999999,0.31267193118040776,0.2512620798320909,0.8734017962595392,0.48700031035987074,3.9151209908185978,0.24584736478861338,,,,,,,,,,,0.0,-0.18740470709671744,0.18740470709671744,0.5126999999999953,-0.00033044291467412834,0.13878999999997177,-9.508356092121806,-22.02002744887375,23.985213036863843,False,,
2023-04-19 08:57:26.463238-07:00,63.462447,6.39,5.7,-2.87,0.46,22.4,886.74,22.44,349.0,0.0,0.00811505,-0.0211481,-0.0383014,32.6911304,-103.075242,1159.5853499999998,-101.596189,-0.485230759,-0.544267594,2.13948,34.8654,5151.61,36.8277,11126.0,0.525447,-1.0,15.0,-1359.0,54.0,,0.0,,2023-04-19 15:57:26.463238+00:00,1.0452018877982239,0.013746274418366,6.363480050542535,6.139413680386793,1.6737616361753247,0.42169860000000003,195.249699031047,0.2354763193814063,0.39132350939227967,5.923701022611646,189.07802241342307,5.827424879324757,0.8949948114879296,0.7726416540000001,0.38057191464295387,0.20459744919497352,0.9336239173623078,0.3582546314132711,2.9232905141513172,0.3327646021139368,,,,,,,,,,,-0.022267817658688273,-0.1874046999498595,0.18872301732056285,0.2551300000000083,0.0013183102238454036,-0.257569999999987,-9.530623909780495,-22.020027441726892,23.994049275686773,False,,
2023-04-19 08:57:26.663005-07:00,63.662214,5.64,5.43,-1.49,0.35,22.01,886.79,22.97,349.0,0.0,0.00953092,-0.0215719,-0.0261424,32.6911304,-103.075242,1159.6,-101.583641,-0.485742054,-0.542425014,2.13948,34.8654,5151.61,36.8277,11126.0,0.525447,-1.0,15.0,-1359.0,54.0,,0.0,,2023-04-19 15:57:26.663005+00:00,1.0466419440377284,0.013769460871784598,5.609829636763453,5.597022589692657,0.3788491572904342,0.32385759999999997,183.8723085467256,0.18573403891550527,0.37034874039155646,6.547536041882653,188.98752222489446,6.446684723235563,0.9710202533747025,0.6952975864,0.40490430266273697,0.21159054739345037,0.9146999240853431,0.4041337017352892,3.493514713168697,0.34053172836284396,,,,,,,,,,,-0.02226781770982642,-0.18740470038023527,0.18872301775396613,0.2697800000000825,4.3340328548246987e-10,0.014650000000074215,-9.530623909831633,-22.020027442157268,23.994049276102054,False,,
2023-04-19 08:57:27.463256-07:00,64.462465,7.01,6.88,-0.3,1.28,22.38,886.77,22.47,317.0,0.0,0.00482472,-0.0221462,0.00675784,32.6911303,-103.075242,1159.60879,-101.56434,-0.494367221,-0.548810357,2.1418,35.0387,5144.87,36.8286,11148.0,0.535829,-1.0,14.0,-1366.0,54.0,,0.0,,2023-04-19 15:57:27.463256+00:00,1.0453079853037306,0.01374757415491772,6.863907895625015,6.778331691453916,-1.080486501653268,1.28675784,170.94307717342235,0.16462527050559342,0.41692703033914824,6.5970254867490015,179.2237716550481,6.5190425849674245,0.03722608357570112,0.9018366784000001,0.4076434656069007,0.1918054949148132,0.9770816726889507,0.21286475728819487,1.4240473416083022,0.3892695985476704,,,,,,,,,,,-0.033401725902523875,-0.18740470084837274,0.1903580762493029,0.2785700000001725,0.0016350584953367664,0.008790000000090004,-9.54175781802433,-22.020027442625405,23.998473927143877,False,,
2023-04-19 08:57:28.662948-07:00,65.662157,4.37,4.09,-1.23,0.91,22.59,886.86,22.18,345.0,0.0,0.00643963,-0.0227559,0.00195554,32.6911301,-103.075242,1159.6609099999998,-101.546272,-0.496141374,-0.557650955,2.14444,34.9721,5103.96,36.8303,11147.0,0.531178,-1.0,14.0,-1377.0,54.0,,0.0,,2023-04-19 15:57:28.662948+00:00,1.044671744677592,0.01373559867655695,4.2488769597523826,4.230672190948455,0.3928972281017707,0.91195554,185.30576882719848,0.17910057986214714,0.3215864159510489,4.8263276067338925,180.4753769227168,4.779284488691536,0.058958287082159874,1.1745505400000003,0.3409526750937747,0.17850272136941367,0.9622140123662694,0.27229431577982827,1.3581024897409755,0.31595033661614635,,,,,,,,,,,-0.05566954268138581,-0.18740470279933574,0.19549839030964422,0.33069000000000415,0.005140314060341322,0.052119999999831634,-9.564025634803192,-22.020027444576368,24.007336274627992,False,,
2023-04-19 08:57:29.463756-07:00,66.462965,6.14,6.03,-0.96,0.67,21.68,886.8,23.52,336.0,0.0,0.0177419,-0.0195736,-0.0050676,32.69113,-103.075241,1159.6347899999998,-101.550404,-0.490239693,-0.550225658,2.1399,35.3096,5080.24,36.8315,11080.0,0.584073,-1.0,17.0,-1341.0,54.0,,0.0,,2023-04-19 15:57:29.463756+00:00,1.0478252547395381,0.01378900897958426,6.085632896387349,6.080533214110185,-0.2490854907350832,0.6649324000000001,177.65422341526522,0.17324540709055675,0.38887306590191506,6.060832720587311,186.16315325052878,6.000876430806728,0.6586163908001638,0.642270038,0.3859984297986463,0.1983762575635271,0.7409243208784847,0.6715885278433189,4.518104670008211,0.23001664235998814,,,,,,,,,,,-0.06680345066083893,-0.0937023523130596,0.11507750366251385,0.30457000000001244,-0.08042088664713037,-0.026119999999991705,-9.575159542782645,-21.926325094090092,23.925873283988327,False,,
2023-04-19 08:57:29.662926-07:00,66.662135,6.78,6.39,-2.22,0.46,21.95,886.77,22.36,343.0,0.0,0.0141682,-0.0198905,-0.00937885,32.69113,-103.075241,1159.6105,-101.546119,-0.496245447,-0.548277311,2.1399,35.3096,5080.24,36.8315,11080.0,0.584073,-1.0,17.0,-1341.0,54.0,,0.0,,2023-04-19 15:57:29.662926+00:00,1.046831138247413,0.013772920958124825,6.746832941971928,6.685148625165333,0.9102431578032598,0.45062115,187.753654998003,0.20967820616980226,0.413016191300087,6.242427363138985,187.07987142033912,6.164945465410632,0.7816084363966022,0.509893506,0.3923230828834691,0.20378744259711606,0.8144939248321645,0.5801720834472271,4.213344578048422,0.2691547822766276,,,,,,,,,,,-0.06680345040647466,-0.09370235195627366,0.11507750322433877,0.2802800000001753,-4.3817507955346e-10,-0.024289999999837164,-9.575159542528281,-21.926325093733308,23.925873283559564,False,,
2023-04-19 08:57:31.463075-07:00,68.462284,7.57,6.9,-3.12,0.33,21.07,886.65,24.37,351.0,0.0,0.0175153,-0.0202608,0.0135568,32.6911298,-103.075241,1159.69204,-101.480343,-0.501417773,-0.545719021,2.15112,35.6576,5024.78,36.8341,11136.0,0.68681,-1.0,15.0,-1378.0,54.0,,0.0,,2023-04-19 15:57:31.463075+00:00,1.0498200838305536,0.013824592325908925,7.556781704153578,7.362670217132557,1.7017746613401807,0.3435568,193.01454127240493,0.24642540985216785,0.4408777075035338,6.945614477932042,191.67913430853727,6.765730401478889,1.4498492584239115,0.7441271,0.41659009366098176,0.2334533308488301,0.7565027094655347,0.6539905584726012,5.52153869605252,0.25847735863612525,,,,,,,,,,,-0.08907126929146618,-0.09370235336389358,0.12928194784704036,0.36182000000007974,0.014204444622701595,0.08153999999990447,-9.597427361413272,-21.92632509514093,23.934793588736273,False,,
2023-04-19 08:57:31.662948-07:00,68.662157,7.23,6.73,-2.6,0.47,21.15,886.65,24.26,351.0,0.0,0.0113694,-0.0197939,0.0152092,32.6911298,-103.075241,1159.73623,-101.488927,-0.51545116,-0.564921613,2.15112,35.6576,5024.78,36.8341,11136.0,0.68681,-1.0,15.0,-1378.0,54.0,,0.0,,2023-04-19 15:57:31.662948+00:00,1.0495347096997127,0.013819833372949415,7.197172219094836,7.093222775598932,1.2188021197204535,0.48520919999999995,189.749713855508,0.22446008654034907,0.42965396283134777,6.561383356417631,192.29510055606633,6.380894632150529,1.386208985334487,0.6886043000000001,0.4016676243861036,0.22730945112081039,0.8671351316055836,0.49807295001371754,4.380181524092772,0.3072424141406754,,,,,,,,,,,-0.08907126990847498,-0.09370235401298255,0.12928194874259402,0.4060100000001512,8.955536590082858e-10,0.04419000000007145,-9.597427362030281,-21.926325095790016,23.9347935895783,False,,
2023-04-19 08:57:32.463761-07:00,69.46297,4.8,3.22,-3.53,0.44,21.69,886.79,23.44,327.0,0.0,0.0140356,-0.0208349,0.019698,32.6911297,-103.075241,1159.81033,-101.479477,-0.49785998,-0.551470358,2.15013,36.5667,4979.72,36.8347,11153.0,0.754477,0.109649,12.0,-1375.0,54.0,,0.0,,2023-04-19 15:57:32.463761+00:00,1.0477779005636136,0.013788375721543608,4.769516144447333,3.83728211684647,2.8325871933400433,0.459698,216.43383053786093,0.2649547019613019,0.3087321345129963,4.787571644975936,200.29702113070874,4.427481710919055,1.6291939039889918,0.7226626140000001,0.328483578823769,0.2214306483225613,0.8293643890254888,0.5587080724460473,3.824865179283594,0.23628203887055907,,,,,,,,,,,-0.10020517945687438,-0.09370235520636333,0.13719041278895505,0.4801100000001952,0.00790846404636103,0.07410000000004402,-9.608561271578681,-21.926325096983398,23.939260263598076,False,,
