Timestamp,Seconds,S,Um,Vm,Wm,T,P,H,MD,Sts,Vx,Vy,Vz,Lat,Lon,Alt,Yaw,Roll,Pitch,CH4,C2H6,H2O,T_a,Batt,R,C2C1,Power,Current,SOC,Lat_a,Lon_a,TS,Timestamp_UTC,Rho,Rho_err,Sc,V,U,W,WD,V_err,U_err,Sc_avg,WD_avg,V_avg,U_avg,W_avg,U_err_avg,V_err_avg,Nx,Ny,cross_wind,cross_wind_err,CH4_sub,CH4_res,CH4_adj,CH4_adj_err,BG_Samples_CH4,C2H6_sub,C2H6_res,C2H6_adj,C2H6_adj_err,BG_Samples_C2H6
2023-04-19 08:56:23.000791-07:00,0.0,5.53,5.33,-1.16,0.92,22.76,886.85,22.4,324.0,0.0,-0.00245635,-0.0179535,0.0313469,32.6911383,-103.075236,1159.57595,-104.488429,-0.460549453,-0.538184239,,,,,,,,,,,,,,2023-04-19 15:56:23.000791+00:00,1.0440598091253046,0.013725580749645723,5.4369240575446485,5.432756824405854,-0.21282973095735513,0.9513469,177.75656940056996,0.16767664812183777,0.3689903255244073,,,,,,,,0.9907698920090683,-0.13555449490274832,,,,,,,,,,,,
2023-04-19 08:56:23.210336-07:00,0.209545,6.53,5.97,-2.56,0.66,22.65,886.76,22.59,338.0,0.0,0.00220699,-0.0185661,0.0603556,32.6911382,-103.075236,1159.6279499999998,-104.488516,-0.466599308,-0.567782962,,,,,,,,,,,,,,2023-04-19 15:56:23.210336+00:00,1.0443420731714987,0.013731666206923395,6.4777145355770624,6.402050830058435,0.987183252377421,0.7203556,188.76585282239907,0.21781417963038716,0.4061270286543034,,,,,,,,0.9930087265351307,0.11804096333509811,,,,,,,,,,,,
2023-04-19 08:56:23.420642-07:00,0.419851,5.95,4.75,-3.43,1.04,22.34,886.79,23.02,348.0,0.0,-0.00158889,-0.019381,0.0608033,32.6911382,-103.075236,1159.62356,-104.475353,-0.471820995,-0.536357776,,,,,,,,,,,,,,2023-04-19 15:56:23.420642+00:00,1.0454730657625497,0.013750010124242032,5.8403329698448765,5.437206315868647,2.1321999618551657,1.1008033,201.41262415764803,0.25843214938098275,0.36918578192019946,,,,,,,,0.9966563343573787,-0.08170771802781585,,,,,,,,,,,,
2023-04-19 08:56:23.629953-07:00,0.629162,6.18,5.06,-3.45,0.77,21.89,886.76,23.63,350.0,0.0,-0.00676654,-0.0230854,0.0462197,32.6911382,-103.075236,1159.58901,-104.447018,-0.467713124,-0.545797732,2.13828,35.4978,5129.67,36.7451,11144.0,0.957099,0.155642,17.0,-1357.0,54.0,,0.0,,2023-04-19 15:56:23.629953+00:00,1.0470322167981607,0.013776424043968189,6.100210901062242,5.737633113751523,2.0717478826876174,0.8162197,199.85366676019635,0.2594350778316047,0.38051589267436137,6.220991431897643,197.96521662922257,5.897820127879295,1.885323972003707,0.977178788,0.38684797742462107,0.25283006621910287,0.959627089143083,-0.2812753984670067,0.15029624878961134,0.35680330575228597,,,,,,,,,,
2023-04-19 08:56:23.840095-07:00,0.839304,6.91,5.91,-3.35,1.25,21.9,886.76,23.68,352.0,0.0,-0.00364951,-0.02123,0.0310441,32.6911381,-103.075236,1159.57693,-104.445427,-0.471551603,-0.559532014,,,,,,,,,,,,,,2023-04-19 15:56:23.840095+00:00,1.0469967301953205,0.013775833198653397,6.771975914212444,6.537612850220414,1.7661472201677784,1.2810441,195.1176759628523,0.25453038174162457,0.4115479971754522,,,,,,,,0.98554421139159,-0.16941843876192741,,,,,,,,,,,,
2023-04-19 08:56:24.050000-07:00,1.049209,6.01,4.61,-3.74,0.96,21.47,886.77,24.28,352.0,0.0,-0.00487997,-0.0215055,0.00747124,32.6911381,-103.075236,1159.50967,-104.419317,-0.472673813,-0.538805066,,,,,,,,,,,,,,2023-04-19 15:56:24.050000+00:00,1.0485366536447338,0.013801327567545445,5.914722838791588,5.374597529497459,2.4693415429305525,0.96747124,204.67626344301712,0.27393854251091515,0.3668631866987892,,,,,,,,0.9752077071080446,-0.2212915000560804,,,,,,,,,,,,
2023-04-19 08:56:24.260258-07:00,1.259467,6.32,4.42,-4.42,0.9,21.87,886.8,23.71,346.0,0.0,-0.00351384,-0.0236782,-0.00830497,32.6911381,-103.075236,1159.5050299999998,-104.420555,-0.469620532,-0.53848382,,,,,,,,,,,,,,2023-04-19 15:56:24.260258+00:00,1.047150429987316,0.013777770866217861,6.228657728286187,5.357809851690624,3.1764840136959815,0.89169503,210.66242425969708,0.3092017819364264,0.36632816749437036,,,,,,,,0.9891673473532234,-0.14679223048304518,,,,,,,,,,,,
2023-04-19 08:56:24.463065-07:00,1.462274,7.37,4.88,-5.44,0.97,21.8,886.76,23.76,333.0,0.0,-0.00218915,-0.0221996,0.000184113,32.691138,-103.075236,1159.5571499999999,-104.381324,-0.470462692,-0.52250967,,,,,,,,,,,,,,2023-04-19 15:56:24.463065+00:00,1.0473517045062868,0.013781743971929874,7.288406133352337,6.056036972765746,4.055278060649141,0.970184113,213.80728162784047,0.3644674184041256,0.39256807224345175,,,,,,,,0.9951729994075995,-0.09813613631115665,,,,,,,,,,,,
2023-04-19 08:56:24.663404-07:00,1.662613,6.26,4.99,-3.67,0.9,22.4,886.73,22.96,324.0,0.0,-0.00628739,-0.0232823,0.00958229,32.691138,-103.075236,1159.56594,-104.393011,-0.477102216,-0.561516866,2.14195,36.2265,5130.2,36.7467,11158.0,0.959398,0.157077,14.0,-1361.0,54.0,,0.0,,2023-04-19 15:56:24.663404+00:00,1.045190100781874,0.01374623337761254,6.1703269469511985,5.7223572850035564,2.3081511508215447,0.90958229,201.96701453303575,0.270416689687373,0.379858566531124,6.743096396875854,205.14137790726335,6.060714435639123,2.8558467358271526,0.8621690866,0.39304455376412406,0.30260852722902504,0.9654168829560701,-0.2607110318022343,1.1769875399283452,0.3669061946610557,,,,,,,,,,
2023-04-19 08:56:24.863757-07:00,1.862966,7.36,5.77,-4.49,0.86,22.15,886.74,23.25,334.0,0.0,0.00463744,-0.0186649,0.0145357,32.691138,-103.075236,1159.5836399999998,-104.365312,-0.47114435,-0.528065142,,,,,,,,,,,,,,2023-04-19 15:56:24.863757+00:00,1.046086752247765,0.013760996524382282,7.295902365125486,6.684912112361529,2.922694197388052,0.8745357,203.61531312635572,0.31288906918962667,0.41722002837332367,,,,,,,,0.9704936409478467,0.24112671540041347,,,,,,,,,,,,
2023-04-19 08:56:25.063403-07:00,2.062612,6.79,5.85,-3.38,0.65,22.18,886.73,23.28,340.0,0.0,-0.00897682,-0.0224709,0.0148483,32.6911379,-103.075236,1159.5722899999998,-104.34163,-0.465864938,-0.532448123,,,,,,,,,,,,,,2023-04-19 15:56:25.063403+00:00,1.0459686936175898,0.013759187054139047,6.732188810664069,6.482455956374161,1.816626256581042,0.6648483000000001,195.65485598938795,0.2560676769275736,0.4092479341783505,,,,,,,,0.9286410503714163,-0.3709795136730229,,,,,,,,,,,,
2023-04-19 08:56:25.262933-07:00,2.262142,6.21,5.64,-2.59,0.17,22.03,886.75,23.45,349.0,0.0,-0.00397594,-0.0209048,0.0233996,32.6911379,-103.075236,1159.62563,-104.344405,-0.478564633,-0.567261013,,,,,,,,,,,,,,2023-04-19 15:56:25.262933+00:00,1.0465238213681387,0.013768115714458386,6.184984078445014,6.084934973702196,1.1079685990289523,0.1933996,190.3195822840857,0.2193598821145216,0.39358008783307313,,,,,,,,0.9823897227505378,-0.186843337141364,,,,,,,,,,,,
2023-04-19 08:56:25.463350-07:00,2.462559,5.61,5.26,-0.88,1.73,23.02,886.82,22.05,353.0,0.0,-0.00441446,-0.0220741,0.0373461,32.6911379,-103.075236,1159.6588399999998,-104.353705,-0.472882433,-0.543022683,,,,,,,,,,,,,,2023-04-19 15:56:25.463350+00:00,1.0431079689375102,0.013710227932034568,5.311486690283337,5.291886944299164,-0.45587655106738445,1.7673461,175.0763356242629,0.16171720673094567,0.3637429481127408,,,,,,,,0.9805837509649276,-0.19610075814119884,,,,,,,,,,,,
2023-04-19 08:56:25.662905-07:00,2.662114,4.95,4.36,-1.67,1.66,22.82,886.88,22.36,351.0,0.0,-0.00758607,-0.0207488,0.0320957,32.6911378,-103.075236,1159.61367,-104.332156,-0.470327805,-0.54692199,2.13708,34.9065,5105.41,36.7479,11149.0,0.960832,0.1571,14.0,-1361.0,54.0,,0.0,,2023-04-19 15:56:25.662905+00:00,1.0438834647981734,0.013722185648520058,4.647403665967755,4.6169512253574085,0.5311517835056735,1.6920956999999999,186.56267527139013,0.18338374026610743,0.33979072376355346,4.6575276321133865,188.0135930549107,4.571945228123601,0.6011207913811478,1.196644756,0.34054240486436266,0.1880818198364464,0.9391951924170834,-0.3433837365697999,-1.0053618784984222,0.30120577584484576,,,,,,,,,,
2023-04-19 08:56:25.863089-07:00,2.862298,4.21,3.35,-2.3,1.12,22.96,886.88,22.17,348.0,0.0,-0.00558214,-0.0204655,0.0125035,32.6911378,-103.075236,1159.5863299999999,-104.317397,-0.479025275,-0.573878247,,,,,,,,,,,,,,2023-04-19 15:56:25.863089+00:00,1.043389919544478,0.01371398451305868,4.042422293677214,3.7942602340766993,1.3945491301932602,1.1325035,200.18048863251082,0.20710806882275976,0.3131282944021729,,,,,,,,0.9647561622929615,-0.26314548697964973,,,,,,,,,,,,
2023-04-19 08:56:26.063567-07:00,3.062776,3.34,2.89,-1.18,1.19,23.13,886.88,21.94,336.0,0.0,-0.00215534,-0.0201722,0.00787888,32.6911378,-103.075236,1159.5936499999998,-104.293423,-0.47941045,-0.559726684,,,,,,,,,,,,,,2023-04-19 15:56:26.063567+00:00,1.0427912416508551,0.013704039386610717,3.1013414321936104,3.0716927631825413,0.42781099524523764,1.19787888,187.92888346230393,0.16884020124789761,0.2924699702102728,,,,,,,,0.9943402683001457,-0.10624232130744508,,,,,,,,,,,,
2023-04-19 08:56:26.263760-07:00,3.262969,4.36,3.83,-1.5,1.44,23.21,886.87,21.78,327.0,0.0,-0.00161351,-0.0211733,0.0102566,32.6911377,-103.075236,1159.6338099999998,-104.281448,-0.477988017,-0.544005367,,,,,,,,,,,,,,2023-04-19 15:56:26.263760+00:00,1.0424979937361087,0.013699323662857827,4.092048909293955,4.06049092558176,0.507225511308356,1.4502566,187.12035011876475,0.17801549212755743,0.3213640997637901,,,,,,,,0.9971089891781301,-0.07598462805178256,,,,,,,,,,,,
2023-04-19 08:56:26.463131-07:00,3.46234,4.72,4.31,-1.83,0.6,22.83,886.84,22.35,325.0,0.0,-0.00878114,-0.0218441,0.0218183,32.6911377,-103.075236,1159.66482,-104.27424,-0.482235784,-0.559700482,,,,,,,,,,,,,,2023-04-19 15:56:26.463131+00:00,1.043801116513233,0.013721435993894538,4.6594930360958795,4.60630278374484,0.7020327755101838,0.6218182999999999,188.6655938223646,0.18909595204293989,0.339360348975514,,,,,,,,0.9278381927126493,-0.3729829595889396,,,,,,,,,,,,
2023-04-19 08:56:26.663308-07:00,3.662517,4.18,3.8,-1.3,1.15,23.04,886.84,22.05,338.0,0.0,-0.00401413,-0.0210943,0.033121,32.6911377,-103.075236,1159.69705,-104.28002,-0.483694581,-0.571690663,2.138,35.2879,5094.32,36.7494,11116.0,0.962217,0.154528,14.0,-1325.0,54.0,,0.0,,2023-04-19 15:56:26.663308+00:00,1.043061056975545,0.013709139413825169,3.99486926580944,3.982151971077617,0.3185060912313979,1.1831209999999999,184.57297672991535,0.17210958492437212,0.31888576016812265,4.1682603568103,189.98042548664438,4.077540992891793,0.7133514986521916,1.0441177799999999,0.32209787906015985,0.1859284650530315,0.9823713524251139,-0.18693989925762955,-0.06147902594461119,0.31090957926172574,,,,,,,,,,
2023-04-19 08:56:26.863750-07:00,3.862959,4.14,3.22,-2.48,0.76,22.88,886.87,22.3,346.0,0.0,-0.00330403,-0.0224785,0.0411185,32.6911376,-103.075236,1159.71523,-104.267025,-0.476062034,-0.55664244,,,,,,,,,,,,,,2023-04-19 15:56:26.863750+00:00,1.0436601203379159,0.013718628791104595,4.0423884138569495,3.7093837509755003,1.6066661994589397,0.8011185000000001,203.4191544582646,0.21474073774760555,0.31052250705674206,,,,,,,,0.9893694711340483,-0.14542368991307295,,,,,,,,,,,,
2023-04-19 08:56:27.063455-07:00,4.062664,4.23,3.82,-1.42,1.13,22.66,886.87,22.57,350.0,0.0,-0.0039162,-0.0225983,0.0342745,32.6911376,-103.075236,1159.6963099999998,-104.246595,-0.477501468,-0.564256117,,,,,,,,,,,,,,2023-04-19 15:56:27.063455+00:00,1.0444363119016706,0.013731529652950917,4.052502158995274,4.029375533079246,0.43232691575208065,1.1642744999999999,186.12405230391266,0.1756805584226826,0.32035667933663053,,,,,,,,0.9853141731504712,-0.17075122309606827,,,,,,,,,,,,
2023-04-19 08:56:27.263564-07:00,4.262773,4.55,3.76,-2.32,1.09,22.55,886.85,22.76,351.0,0.0,-0.00254361,-0.0244786,0.0199231,32.6911375,-103.075235,1159.6611599999999,-104.225596,-0.481324598,-0.569866272,,,,,,,,,,,,,,2023-04-19 15:56:27.263564+00:00,1.0448012787225867,0.013737907366720372,4.394032312148469,4.190341338593809,1.3223310577448686,1.1099231,197.51394702366105,0.208110965784769,0.3255275197266017,,,,,,,,0.9946445227571539,-0.10335508380913627,,,,,,,,,,,,
2023-04-19 08:56:27.463184-07:00,4.462393,4.13,3.62,-1.87,0.65,22.32,886.84,23.04,347.0,0.0,-0.00402371,-0.0252804,0.00773992,32.6911375,-103.075236,1159.65286,-104.211544,-0.478394394,-0.564446945,2.13957,35.2915,5109.04,36.7509,11098.0,0.962774,0.157819,17.0,-1324.0,54.0,,0.0,,2023-04-19 15:56:27.463184+00:00,1.045602783584075,0.013751392735852505,4.048935474872307,3.943022837210258,0.9200268392377503,0.65773992,193.13385938074754,0.19069407127659369,0.31765975800913043,4.211972095442365,194.30847334382798,4.06535200203289,1.0489013974250558,0.8985165119999999,0.3215099293563727,0.19721052261617558,0.9875692225153726,-0.15718470262841258,0.39685159203098863,0.3136042279803918,,,,,,,,,,
2023-04-19 08:56:27.663165-07:00,4.662374,4.54,3.74,-2.48,0.71,22.69,886.87,22.53,340.0,0.0,-0.00130969,-0.0236515,0.00696647,32.6911374,-103.075236,1159.66885,-104.199136,-0.479443049,-0.560003586,,,,,,,,,,,,,,2023-04-19 15:56:27.663165+00:00,1.0443303996201772,0.013729768991494943,4.464793669658025,4.210414005069384,1.4855290029258814,0.7169664699999999,199.43399064786954,0.21486014694553743,0.326101493287239,,,,,,,,0.9984703492628815,-0.05528979691461629,,,,,,,,,,,,
2023-04-19 08:56:27.863425-07:00,4.862634,4.21,3.59,-2.03,0.85,22.86,886.85,22.27,330.0,0.0,-0.00426915,-0.0243369,-0.00632143,32.6911373,-103.075235,1159.60854,-104.182115,-0.482986767,-0.559764038,,,,,,,,,,,,,,2023-04-19 15:56:27.863425+00:00,1.043707098132728,0.013719718836282237,4.099596861537753,3.953606296211754,1.0842931714646984,0.84367857,195.33651736294905,0.19670687065129513,0.31790419642226153,,,,,,,,0.9849603417338033,-0.1727805695430751,,,,,,,,,,,,
2023-04-19 08:56:28.063562-07:00,5.062771,4.22,3.68,-1.97,0.6,22.95,886.87,22.12,324.0,0.0,-0.00454586,-0.0247417,-0.0240151,32.6911373,-103.075235,1159.57803,-104.178431,-0.479923926,-0.567753825,,,,,,,,,,,,,,2023-04-19 15:56:28.063562+00:00,1.0434133921770794,0.013714529140471872,4.149015979894191,4.025693336887445,1.0040551572286205,0.5759849,194.0045165974674,0.19445301880914032,0.32017734373641044,,,,,,,,0.9835368091861152,-0.18070789959488545,,,,,,,,,,,,
2023-04-19 08:56:28.263304-07:00,5.262513,4.53,4.14,-1.62,0.88,22.97,886.85,22.1,337.0,0.0,-0.0033617,-0.0234576,-0.0245046,32.6911373,-103.075235,1159.6090299999998,-104.169394,-0.484061261,-0.567882965,,,,,,,,,,,,,,2023-04-19 15:56:28.263304+00:00,1.0433193911869134,0.013713276610976816,4.421978099279635,4.387147054991992,0.5539233055070237,0.8554954,187.19611454779886,0.1821758387532378,0.33184476812812247,,,,,,,,0.9898866886652143,-0.14186029607827896,,,,,,,,,,,,
2023-04-19 08:56:28.463477-07:00,5.462686,4.84,4.75,-0.72,0.59,22.46,886.83,22.85,345.0,0.0,-0.00624832,-0.0248552,-0.00590114,32.6911373,-103.075235,1159.6698199999998,-104.165745,-0.48245363,-0.574217533,,,,,,,,,,,,,,2023-04-19 15:56:28.463477+00:00,1.0450958046510759,0.013743115055704172,4.780131398276462,4.756910002286573,-0.4705989958918745,0.58409886,174.3501379358538,0.15946210622112084,0.3444504001778876,,,,,,,,0.9698247458879159,-0.24380312193128167,,,,,,,,,,,,
2023-04-19 08:56:28.663423-07:00,5.662632,5.69,5.59,-0.24,0.99,22.43,886.85,22.83,353.0,0.0,-0.000163861,-0.0269349,0.00979508,32.6911372,-103.075235,1159.6658,-104.155502,-0.480351,-0.569748445,2.13738,35.0414,5119.72,36.7522,11120.0,0.962726,0.154894,18.0,-1343.0,54.0,,0.0,,2023-04-19 15:56:28.663423+00:00,1.0452254486713202,0.013744961263606503,5.568810196726253,5.452021005880933,-1.1345104488700593,0.99979508,168.24507980737758,0.15408439570524377,0.36948299906491544,5.753376216798618,178.47670184130067,5.690886105982138,-0.1374453615596413,0.7394001960000001,0.3799733471715979,0.17798823243945877,0.9999814954547651,-0.0060834815732087304,-0.1720632189567029,0.3799592848908246,,,,,,,,,,
2023-04-19 08:56:28.863620-07:00,5.862829,6.93,6.78,-0.9,1.12,22.24,886.79,23.16,352.0,0.0,-0.00159616,-0.0251359,0.00154849,32.6911372,-103.075235,1159.62063,-104.130597,-0.491026656,-0.554425566,,,,,,,,,,,,,,2023-04-19 15:56:28.863620+00:00,1.0458269955048438,0.01375589838617491,6.814686859600183,6.769432998520102,-0.7840496623011477,1.1215484900000001,173.39332225799686,0.16292375648259028,0.4205414208835822,,,,,,,,0.9979898755128764,-0.06337356210434561,,,,,,,,,,,,
2023-04-19 08:56:29.063796-07:00,6.063005,7.2,6.62,-2.85,0.14,22.22,886.71,23.16,352.0,0.0,-0.00287295,-0.0260205,-0.00393685,32.6911372,-103.075235,1159.6467499999999,-104.104203,-0.504070374,-0.571987364,,,,,,,,,,,,,,2023-04-19 15:56:29.063796+00:00,1.0458034566161711,0.013756747776412845,7.181274530110557,7.088919468231085,1.1480089937578513,0.13606315000000002,189.19885465747618,0.23129506503510125,0.4335471476034817,,,,,,,,0.993959871900558,-0.10974412536179941,,,,,,,,,,,,
2023-04-19 08:56:29.263548-07:00,6.262757,5.62,5.47,-1.21,0.49,22.46,886.76,22.79,347.0,0.0,-0.00374118,-0.0293772,0.0124292,32.6911371,-103.075236,1159.71353,-104.088424,-0.497948199,-0.578123798,,,,,,,,,,,,,,2023-04-19 15:56:29.263548+00:00,1.0450133122835132,0.013742827915612165,5.572973484959384,5.570628903678532,-0.16163873781261318,0.5024292,178.33795791872424,0.17029625922598818,0.37388227467944923,,,,,,,,0.9919883356154243,-0.12632949775464256,,,,,,,,,,,,
2023-04-19 08:56:29.463827-07:00,6.463036,5.41,5.25,-0.91,0.9,22.72,886.83,22.46,338.0,0.0,0.000337169,-0.0273529,0.0348849,32.6911371,-103.075236,1159.7721199999999,-104.084102,-0.48973452,-0.563019473,2.13527,35.5088,5123.17,36.7538,11150.0,0.960429,0.154694,16.0,-1371.0,54.0,,0.0,,2023-04-19 15:56:29.463827+00:00,1.0441774117447005,0.013727845095803595,5.300980639464609,5.286274625189141,-0.3945837389706053,0.9348849,175.7311837040957,0.16329443000861898,0.36327545799635397,6.051203724051633,177.1231654863547,5.993787725328038,-0.25660917759266233,0.77993505,0.39036383581475687,0.17680307961524397,0.9999240357881682,0.012325690775856882,-0.1827121104002177,0.3903045316293984,,,,,,,,,,
2023-04-19 08:56:29.663480-07:00,6.662689,6.17,5.99,-1.0,1.04,22.57,886.81,22.67,328.0,0.0,-0.00200673,-0.0267085,0.051284,32.691137,-103.075236,1159.80361,-104.08952,-0.502496558,-0.580679967,,,,,,,,,,,,,,2023-04-19 15:56:29.663480+00:00,1.0446834962381313,0.01373656851515837,6.0464395505670225,6.026529295175063,-0.4902814427019357,1.0912840000000001,175.34900970149948,0.16520120301430943,0.3911436473596449,,,,,,,,0.9971892975119018,-0.07492332699313237,,,,,,,,,,,,
2023-04-19 08:56:29.863613-07:00,6.862822,6.3,6.18,-0.12,1.19,22.78,886.84,22.37,325.0,0.0,0.000930794,-0.0273028,0.045014,32.691137,-103.075236,1159.7584499999998,-104.065049,-0.485984912,-0.566308582,,,,,,,,,,,,,,2023-04-19 15:56:29.863613+00:00,1.0439774759760305,0.013724367058925567,6.154350415156593,5.996586334366367,-1.3845509622360086,1.235014,166.99882144997804,0.15392844079220205,0.3899706514348547,,,,,,,,0.999419390125909,0.03407172787453238,,,,,,,,,,,,
2023-04-19 08:56:30.063683-07:00,7.062892,6.18,6.05,-0.7,1.02,22.35,886.8,22.98,339.0,0.0,0.00166235,-0.0259802,0.0231044,32.6911369,-103.075236,1159.7044899999999,-104.073699,-0.487981816,-0.569708476,,,,,,,,,,,,,,2023-04-19 15:56:30.063683+00:00,1.0454494749741388,0.013749462641794895,6.06438577345431,6.01264028239792,-0.7905261815783757,1.0431044,172.50986287074196,0.15947797613273626,0.39055345568018746,,,,,,,,0.9979592071820919,0.06385468503164565,,,,,,,,,,,,
2023-04-19 08:56:30.263754-07:00,7.262963,4.92,4.57,-1.71,0.65,22.86,886.82,22.27,348.0,0.0,0.00297613,-0.0235271,0.00381629,32.6911369,-103.075236,1159.6979,-104.07211,-0.498759885,-0.572819622,,,,,,,,,,,,,,2023-04-19 15:56:30.263754+00:00,1.043671792034804,0.013719596226543321,4.856405349922311,4.8251037364828795,0.5504969163701094,0.65381629,186.50874222169534,0.1854474005537739,0.3466132637150169,,,,,,,,0.9920938919350776,0.12549784693416285,,,,,,,,,,,,
2023-04-19 08:56:30.463635-07:00,7.462844,4.97,4.22,-2.35,1.17,23.03,886.83,22.05,352.0,0.0,0.00205751,-0.0265607,-0.00533102,32.6911369,-103.075236,1159.6563999999998,-104.051499,-0.486039031,-0.563375247,,,,,,,,,,,,,,2023-04-19 15:56:30.463635+00:00,1.0430845121645773,0.013709683651132964,4.805101516747098,4.637733714830474,1.257150180594983,1.1646689799999999,195.16669720919853,0.209684223348826,0.34019322080846526,,,,,,,,0.9970130657049704,0.0772330681351997,,,,,,,,,,,,
2023-04-19 08:56:30.663309-07:00,7.662518,4.13,3.31,-2.37,0.7,23.17,886.87,21.79,353.0,0.0,0.00330845,-0.0228724,-0.0265342,32.6911369,-103.075236,1159.6061,-104.020144,-0.481589191,-0.561969761,2.13395,34.7546,5114.01,36.7552,11155.0,0.962301,0.158832,14.0,-1363.0,54.0,,0.0,,2023-04-19 15:56:30.663309+00:00,1.0426387197071854,0.013701660734372007,4.050959546849716,3.762688073246847,1.5008170153815517,0.6734658,201.745489986878,0.21056996850719908,0.3116566414883798,4.666303383311013,185.56270072136226,4.547038743350194,0.39869684836333674,1.131756754,0.33730740012507754,0.18440334195555566,0.9896998133708148,0.14315823208525016,1.0455362241378778,0.3304161415551113,,,,,,,,,,
2023-04-19 08:56:30.863336-07:00,7.862545,5.17,4.92,-0.23,1.57,22.77,886.89,22.39,351.0,0.0,-0.00135913,-0.0241784,-0.0394837,32.6911368,-103.075236,1159.58438,-104.001769,-0.491728477,-0.569333598,,,,,,,,,,,,,,2023-04-19 15:56:30.863336+00:00,1.0440716164132116,0.013725157949506515,4.901936154870014,4.8052887482523285,-0.9685959489598239,1.5305163000000002,168.60366904781375,0.15463926240527578,0.3458184866189784,,,,,,,,0.998423807912213,-0.05612396808919009,,,,,,,,,,,,
2023-04-19 08:56:31.063717-07:00,8.062926,5.03,4.67,-0.81,1.68,22.89,886.87,22.2,345.0,0.0,-0.00308161,-0.0228971,-0.0436836,32.6911368,-103.075236,1159.58718,-103.993535,-0.483026679,-0.568143912,,,,,,,,,,,,,,2023-04-19 15:56:31.063717+00:00,1.0436248663141237,0.013718042974099119,4.71711434816593,4.7043794439384445,-0.34638392157013603,1.6363164,175.78890514122557,0.16167585496270348,0.34225538799454736,,,,,,,,0.9910646209975177,-0.1333825963424262,,,,,,,,,,,,
2023-04-19 08:56:31.263685-07:00,8.262894,5.14,4.72,-0.69,1.91,23.02,886.88,22.05,334.0,0.0,-0.00174612,-0.0222049,-0.0328673,32.6911368,-103.075236,1159.61941,-103.987503,-0.475232658,-0.558880874,,,,,,,,,,,,,,2023-04-19 15:56:31.263685+00:00,1.0431785429865124,0.01371047279228921,4.748245630597512,4.724619952900618,-0.47307807932912355,1.8771327,174.28200963923194,0.15964061497459656,0.34292028161267857,,,,,,,,0.996922400867852,-0.07839468507416701,,,,,,,,,,,,
2023-04-19 08:56:31.463386-07:00,8.462595,4.29,3.8,-1.88,0.66,22.93,886.86,22.17,322.0,0.0,-0.00276417,-0.0217791,-0.0202618,32.6911368,-103.075236,1159.60818,-103.988664,-0.48236823,-0.566019726,2.13326,34.1141,5108.15,36.7569,11129.0,0.961027,0.159722,13.0,-1347.0,54.0,,0.0,,2023-04-19 15:56:31.463386+00:00,1.0434721081158844,0.013715659370385628,4.217756227010097,4.1199787169164885,0.9029080587953664,0.6397382,192.3611525338692,0.19161491993909044,0.3227232254503359,4.232877972017404,184.3261188325594,4.129532118114944,0.2745527643010006,1.2638116,0.3236566599184552,0.17693334085181278,0.9920418672245294,-0.12590843368761778,-0.2475750839057424,0.31853810203492255,,,,,,,,,,
2023-04-19 08:56:31.663595-07:00,8.662804,3.99,3.06,-2.46,0.69,23.09,886.85,21.99,332.0,0.0,-0.000287975,-0.0222557,-0.021256,32.6911367,-103.075236,1159.6014599999999,-103.977513,-0.476539807,-0.55786857,,,,,,,,,,,,,,2023-04-19 15:56:31.663595+00:00,1.0428967665347992,0.013706255743649013,3.9059091124271426,3.541330548138324,1.647757246491031,0.6687439999999999,204.95224159148052,0.2144061882750437,0.3049573765445687,,,,,,,,0.9999162967095757,-0.012938298752454388,,,,,,,,,,,,
2023-04-19 08:56:31.863543-07:00,8.862752,3.91,3.56,-0.52,1.52,23.52,886.87,21.4,345.0,0.0,-0.00370748,-0.0228946,-0.0228733,32.6911367,-103.075236,1159.5705799999998,-103.968694,-0.477884268,-0.563113873,,,,,,,,,,,,,,2023-04-19 15:56:31.863543+00:00,1.0414086541397285,0.013681238820272126,3.5753645418863416,3.5573519286808435,-0.358439482882135,1.4971267,174.2462852569896,0.15732912610762967,0.3054270279901455,,,,,,,,0.987140593035191,-0.1598544637541644,,,,,,,,,,,,
2023-04-19 08:56:32.063239-07:00,9.062448,4.69,4.4,-1.3,0.96,23.09,886.89,21.96,349.0,0.0,-0.000300537,-0.0194453,-0.029048,32.6911367,-103.075236,1159.5574,-103.962973,-0.489730062,-0.57530188,,,,,,,,,,,,,,2023-04-19 15:56:32.063239+00:00,1.0429438047832758,0.01370641888101071,4.568588001633325,4.56422613931586,0.19958977392094823,0.930952,182.5039010881684,0.17311988678210588,0.3372807563402061,,,,,,,,0.999880585021366,-0.015453662909836718,,,,,,,,,,,,
2023-04-19 08:56:32.263093-07:00,9.262302,5.54,5.34,0.34,1.44,22.68,886.87,22.55,352.0,0.0,0.000846704,-0.021169,-0.0393085,32.6911367,-103.075236,1159.49612,-103.931326,-0.497740783,-0.563205391,,,,,,,,,,,,,,2023-04-19 15:56:32.263093+00:00,1.0443657013272256,0.013730355827620043,5.3303793448485655,5.079896895890201,-1.6148038540681422,1.4006915,162.3655164709831,0.15565962788627857,0.35531159372119614,,,,,,,,0.9992010642799733,0.039965399307007016,,,,,,,,,,,,
2023-04-19 08:56:32.463424-07:00,9.462633,5.72,5.26,-2.21,0.33,22.13,886.8,23.25,352.0,0.0,-0.006134,-0.0202846,-0.0447371,32.6911366,-103.075236,1159.52737,-103.908451,-0.497105886,-0.577940868,2.13674,34.5526,5108.91,36.7582,11093.0,0.957246,0.160654,14.0,-1325.0,54.0,,0.0,,2023-04-19 15:56:32.463424+00:00,1.0462283928977851,0.013762422546427474,5.684422055466453,5.6167180520754645,0.8747184850928097,0.2852629,188.85184182609225,0.20430915486394396,0.37497386568739105,5.0529650742423105,186.249291764189,4.881084025292421,0.5013819334664559,0.776299862,0.34867473753935385,0.19456076648375237,0.9571925172629219,-0.2894520424800472,-0.9329207056327139,0.3198775111719625,,,,,,,,,,
2023-04-19 08:56:32.663438-07:00,9.662647,5.19,4.59,-2.36,0.54,22.18,886.79,23.22,347.0,0.0,0.000558573,-0.0231575,-0.0232925,32.6911366,-103.075236,1159.59646,-103.891216,-0.504344409,-0.588572875,,,,,,,,,,,,,,2023-04-19 15:56:32.663438+00:00,1.0460394683986585,0.013759433805811539,5.138769793829946,4.999187102281999,1.18957274277632,0.5167075,193.38479781331785,0.2104033629113454,0.3524265580343743,,,,,,,,0.9997092249881228,0.024113595203679245,,,,,,,,,,,,
2023-04-19 08:56:32.863481-07:00,9.86269,4.62,3.6,-2.8,0.74,22.42,886.8,22.87,339.0,0.0,0.00485643,-0.0219189,0.00788541,32.6911366,-103.075236,1159.69949,-103.902875,-0.492537127,-0.562561295,,,,,,,,,,,,,,2023-04-19 15:56:32.863481+00:00,1.0452018806200154,0.013745344239811904,4.542666175433266,4.145391936898582,1.8578325196103436,0.74788541,204.14040162238342,0.22931179997508783,0.3233809139136017,,,,,,,,0.9763230421956449,0.21631763052936986,,,,,,,,,,,,
2023-04-19 08:56:33.063181-07:00,10.06239,5.37,4.19,-3.24,0.88,22.32,886.82,22.98,324.0,0.0,0.00445803,-0.0215347,0.0407482,32.6911366,-103.075236,1159.75576,-103.887591,-0.493196639,-0.5630913,,,,,,,,,,,,,,2023-04-19 15:56:33.063181+00:00,1.0455792031685869,0.013751310587074907,5.278691283089307,4.823642935670931,2.1440733409365813,0.9207482,203.96479046273487,0.24966709183489053,0.3461639831225903,,,,,,,,0.9792371831951729,0.20271788043481345,,,,,,,,,,,,
2023-04-19 08:56:33.263488-07:00,10.262697,6.52,5.16,-3.88,0.87,21.43,886.76,24.27,325.0,0.0,0.00198552,-0.0239981,0.0464075,32.6911366,-103.075236,1159.74612,-103.876481,-0.484966929,-0.553576128,,,,,,,,,,,,,,2023-04-19 15:56:33.263488+00:00,1.048667204983805,0.013803658751809122,6.434712800453682,5.915946036993676,2.5312272343077584,0.9164075,203.16439510406275,0.2811319603323299,0.3864372545453692,,,,,,,,0.9965948039951651,0.08245481580743791,,,,,,,,,,,,
2023-04-19 08:56:33.462905-07:00,10.462114,6.37,4.8,-4.07,0.98,21.39,886.74,24.36,337.0,0.0,0.00166451,-0.0240386,0.0356223,32.6911366,-103.075236,1159.7347699999998,-103.869184,-0.485191381,-0.559125865,,,,,,,,,,,,,,2023-04-19 15:56:33.462905+00:00,1.0487859643469986,0.013805949308139033,6.272468218557193,5.611623100819756,2.8024174790983785,1.0156223,206.5373211600523,0.29080845991421916,0.3748587744120698,,,,,,,,0.997611274792706,0.06907781414080863,,,,,,,,,,,,
2023-04-19 08:56:33.663640-07:00,10.662849,5.55,4.19,-3.61,0.42,21.54,886.79,24.13,345.0,0.0,-0.000185096,-0.0253875,0.0217894,32.6911366,-103.075236,1159.7351299999998,-103.843961,-0.491794291,-0.562283004,2.13477,34.1013,5127.07,36.7596,11091.0,0.96591,0.172038,16.0,-1329.0,54.0,,0.0,,2023-04-19 15:56:33.663640+00:00,1.0483112294349175,0.013797260259562216,5.507948054564937,4.906692487914292,2.5023709958419715,0.4417894,207.0211907820226,0.2676427154677228,0.34914144449509016,6.2517811358609245,202.3269862408089,5.776852016968624,2.3420554566855785,0.7083602083999999,0.3816526030733585,0.27034134967973567,0.9999734229431748,-0.007290638333532949,2.2998762729825595,0.38163231720762414,,,,,,,,,,
2023-04-19 08:56:33.863566-07:00,10.862775,5.88,4.91,-3.16,0.65,21.56,886.76,24.11,351.0,0.0,0.0022841,-0.0234735,0.00891172,32.6911365,-103.075236,1159.71365,-103.825607,-0.489307925,-0.560345059,,,,,,,,,,,,,,2023-04-19 15:56:33.863566+00:00,1.048204625713852,0.01379595089347373,5.817527887978108,5.499409069752679,1.8974010147897031,0.65891172,199.0354108737248,0.24593896203857987,0.37056591737765165,,,,,,,,0.9952991781191421,0.09684805643563621,,,,,,,,,,,,
2023-04-19 08:56:34.063141-07:00,11.06235,7.27,6.3,-3.58,0.51,21.69,886.72,23.88,351.0,0.0,0.00264363,-0.0214166,-0.000929878,32.6911365,-103.075236,1159.73464,-103.797395,-0.491078788,-0.549241532,,,,,,,,,,,,,,2023-04-19 15:56:34.063141+00:00,1.0476951927601432,0.01378808653557858,7.226248717750701,6.950589389362717,1.976860559390079,0.509070122,195.87661328418204,0.26618465064582647,0.4272596245366117,,,,,,,,0.992467457232907,0.1225085561650614,,,,,,,,,,,,
2023-04-19 08:56:34.263169-07:00,11.262378,7.16,6.58,-2.75,0.57,21.23,886.67,24.59,349.0,0.0,-0.00278483,-0.0230304,-0.00258764,32.6911365,-103.075236,1159.7156,-103.799248,-0.503416283,-0.564906831,,,,,,,,,,,,,,2023-04-19 15:56:34.263169+00:00,1.0492731584006718,0.013815160721406625,7.108358454642462,7.022985718143996,1.098376767066948,0.56741236,188.8889035723198,0.227231357779984,0.4302868447167623,,,,,,,,0.992768415124663,-0.12004529949508569,,,,,,,,,,,,
2023-04-19 08:56:34.463479-07:00,11.462688,6.85,6.21,-2.85,0.42,21.79,886.71,23.74,343.0,0.0,0.00261639,-0.0235393,-0.0124188,32.6911365,-103.075236,1159.7120599999998,-103.775679,-0.503698402,-0.570065158,,,,,,,,,,,,,,2023-04-19 15:56:34.463479+00:00,1.047328158204104,0.013782128966411423,6.8101401801786405,6.686478257799403,1.2919047107505324,0.4075812,190.9354580275035,0.2317262041032736,0.416608424820162,,,,,,,,0.9938795065828473,0.11046957225696112,,,,,,,,,,,,
2023-04-19 08:56:34.663674-07:00,11.662883,6.66,5.85,-3.15,0.58,21.9,886.74,23.61,327.0,0.0,0.00294842,-0.0225275,-0.0161276,32.6911364,-103.075236,1159.69302,-103.774902,-0.506247841,-0.556552096,,,,,,,,,,,,,,2023-04-19 15:56:34.663674+00:00,1.0469731162134046,0.013775750735140459,6.623107951995046,6.409259060942088,1.6694182320532363,0.5638723999999999,194.59942483883788,0.24551750414798912,0.40548794631592533,,,,,,,,0.9915435808629033,0.12977413937133706,,,,,,,,,,,,
2023-04-19 08:56:34.863756-07:00,11.862965,5.98,5.06,-3.1,0.77,22.06,886.76,23.38,317.0,0.0,-0.00207831,-0.0276613,-0.0181906,32.6911363,-103.075236,1159.7164599999999,-103.784602,-0.502225688,-0.56827556,,,,,,,,,,,,,,2023-04-19 15:56:34.863756+00:00,1.0464292715156305,0.013766386677738385,5.90712560815896,5.625246977702737,1.8029779228857987,0.7518094,197.77145150214983,0.24316960383882488,0.37536810684986355,,,,,,,,0.9971893194871849,-0.07492303451332613,,,,,,,,,,,,
2023-04-19 08:56:35.063339-07:00,12.062548,7.25,6.22,-3.6,0.94,21.93,886.71,23.53,335.0,0.0,0.0078394,-0.0255707,-0.0141472,32.6911363,-103.075236,1159.69509,-103.771352,-0.496597076,-0.551767858,,,,,,,,,,,,,,2023-04-19 15:56:35.063339+00:00,1.0468312558652517,0.013773854872977043,7.164351994366338,6.872597899436315,2.023694050948532,0.9258527999999999,196.4075069462201,0.26718100057007305,0.4242148146054692,,,,,,,,0.9560781145507905,0.29311199033305607,,,,,,,,,,,,
2023-04-19 08:56:35.263752-07:00,12.262961,6.73,6.09,-2.81,0.54,21.73,886.67,23.81,346.0,0.0,-0.00163794,-0.0270447,-0.0160466,32.6911363,-103.075236,1159.7175499999998,-103.758038,-0.510293647,-0.560411389,,,,,,,,,,,,,,2023-04-19 15:56:35.263752+00:00,1.0474940055954618,0.013785512922735138,6.680167458648076,6.5565056440052905,1.2794026011023552,0.5239534,191.04165090442714,0.22995716279562006,0.4115066666550079,,,,,,,,0.9981710202419875,-0.06045340643065438,,,,,,,,,,,,
2023-04-19 08:56:35.463195-07:00,12.462404,4.18,2.98,-2.89,0.45,21.82,886.75,23.72,347.0,0.0,0.00445675,-0.0279414,-0.0115609,32.6911362,-103.075236,1159.73245,-103.723993,-0.49772223,-0.576787148,,,,,,,,,,,,,,2023-04-19 15:56:35.463195+00:00,1.047268880196112,0.013780520142169397,4.129398473819447,3.5526171324279487,2.1049568323274,0.4384391,210.64711365238998,0.23359608647856586,0.3049405282084116,,,,,,,,0.9875170124116768,0.15751238109277696,,,,,,,,,,,,
2023-04-19 08:56:35.663010-07:00,12.662219,4.35,3.48,-2.55,0.56,21.73,886.79,23.89,349.0,0.0,0.00436272,-0.0221962,0.00548102,32.6911362,-103.075236,1159.7861599999999,-103.684144,-0.50591929,-0.561805295,2.13569,36.0586,5044.23,36.7626,11152.0,0.950848,0.170967,14.0,-1344.0,54.0,,0.0,,2023-04-19 15:56:35.663010+00:00,1.047635771168529,0.013786008475988255,4.2954588207527395,3.9622743370787052,1.6587189510311937,0.56548102,202.71555029457204,0.2187259710306581,0.3171408941539042,4.8297284542858305,193.37474898221404,4.619641005172925,1.0716665767833486,0.6243844679999999,0.341927684046433,0.20622497078073057,0.9812258031238832,0.19286244653610105,1.9425021638614073,0.329298721745862,,,,,,,,,,
2023-04-19 08:56:35.863782-07:00,12.862991,3.49,3.31,-0.7,0.87,22.63,886.85,22.58,353.0,0.0,0.00118861,-0.0275321,0.00715343,32.6911362,-103.075236,1159.7789599999999,-103.678028,-0.502275455,-0.558490574,,,,,,,,,,,,,,2023-04-19 15:56:35.863782+00:00,1.0445186899664238,0.013733208858223007,3.355653077020091,3.3541217655279585,-0.10136446776862365,0.87715343,178.2689987145034,0.16095701748714217,0.29911487111826834,,,,,,,,0.9990693989770796,0.04313161285619816,,,,,,,,,,,,
2023-04-19 08:56:36.063484-07:00,13.062693,5.76,5.44,-1.75,0.71,21.9,886.76,23.61,343.0,0.0,0.00178453,-0.0267886,0.00689539,32.6911361,-103.075236,1159.7940899999999,-103.669611,-0.501988336,-0.563150587,,,,,,,,,,,,,,2023-04-19 15:56:36.063484+00:00,1.0469967301953205,0.013775833198653397,5.687964441188801,5.67268614682472,0.4166189672244184,0.7168953899999999,184.2004313451776,0.18788861611166663,0.3769354600965729,,,,,,,,0.9977885598497969,0.06646796095013252,,,,,,,,,,,,
2023-04-19 08:56:36.263422-07:00,13.262631,5.21,4.03,-3.25,0.62,22.13,886.79,23.28,336.0,0.0,0.00416149,-0.0251297,0.00954571,32.6911361,-103.075236,1159.8139899999999,-103.657749,-0.517123528,-0.571506773,,,,,,,,,,,,,,2023-04-19 15:56:36.263422+00:00,1.0462165951035487,0.013762381400907128,5.156260931801145,4.658311363702069,2.2106926596935605,0.62954571,205.38759130161327,0.2503362047552719,0.3401354826008636,,,,,,,,0.9865639674297811,0.16337545155013275,,,,,,,,,,,,
2023-04-19 08:56:36.463202-07:00,13.462411,5.62,4.55,-3.09,1.14,22.54,886.78,22.67,319.0,0.0,-0.00112168,-0.0278848,0.00567267,32.6911361,-103.075236,1159.7978799999999,-103.656667,-0.51437136,-0.576448769,,,,,,,,,,,,,,2023-04-19 15:56:36.463202+00:00,1.0447541430196952,0.013738207977805124,5.473553504519841,5.123036608026762,1.9272477473482952,1.14567267,200.61592130518227,0.24283535965988068,0.356628983819381,,,,,,,,0.9991919351168207,-0.04019299438338949,,,,,,,,,,,,
2023-04-19 08:56:36.662883-07:00,13.662092,4.89,4.61,-1.45,0.74,22.63,886.82,22.58,330.0,0.0,0.00596113,-0.0271044,-0.0088227,32.691136,-103.075236,1159.74722,-103.655459,-0.515695853,-0.588585789,2.13799,34.1803,5013.8,36.7636,11152.0,0.949923,0.179464,14.0,-1344.0,54.0,,0.0,,2023-04-19 15:56:36.662883+00:00,1.0444833564143023,0.013733085987484253,4.806016852813156,4.794904526526961,0.3266321646980359,0.7311773,183.89700707016564,0.17836805110277898,0.34493793685963375,5.6205338797377715,196.62326722259564,5.328267560780991,1.611891316396607,0.934545716,0.36461239427508474,0.23336716289384468,0.9766583623978301,0.21479861069939157,2.7187716029255857,0.34795637657492917,,,,,,,,,,
2023-04-19 08:56:36.863118-07:00,13.862327,6.53,5.83,-2.57,1.44,22.79,886.83,22.36,342.0,0.0,0.00937687,-0.0239586,-0.0380794,32.691136,-103.075237,1159.64346,-103.646933,-0.519848188,-0.571711262,,,,,,,,,,,,,,2023-04-19 15:56:36.863118+00:00,1.043930427833022,0.01372373984766431,6.349407579184349,6.247810375872613,1.1313010712193998,1.4019206,190.2634343224241,0.21964024784310726,0.39897354790769,,,,,,,,0.9312194895846222,0.36445886217480805,,,,,,,,,,,,
2023-04-19 08:56:37.063156-07:00,14.062365,6.4,5.1,-3.77,0.84,21.32,886.79,24.45,349.0,0.0,0.00134459,-0.0274049,-0.0755877,32.691136,-103.075237,1159.5476299999998,-103.627744,-0.515138709,-0.581317982,,,,,,,,,,,,,,2023-04-19 15:56:37.063156+00:00,1.0490944279626986,0.01381031199416921,6.317430530370367,5.8172749297765485,2.4635829390237434,0.7644122999999999,202.95238211359293,0.2756559511081845,0.38238602018785517,,,,,,,,0.9987985378783943,0.049004905182865655,,,,,,,,,,,,
2023-04-19 08:56:37.263344-07:00,14.262553,7.13,5.42,-4.55,0.9,21.5,886.77,24.22,350.0,0.0,0.00974938,-0.0257867,-0.0962577,32.691136,-103.075237,1159.4997799999999,-103.61697,-0.512915749,-0.573121339,,,,,,,,,,,,,,2023-04-19 15:56:37.263344+00:00,1.0484298961371508,0.013799548664196117,7.057909615514704,6.3130706277303394,3.1558243598247606,0.8037423,206.55988899806607,0.3156520243033768,0.4015691332545096,,,,,,,,0.935379270324094,0.3536461800273906,,,,,,,,,,,,
2023-04-19 08:56:37.463634-07:00,14.462843,8.15,6.8,-4.41,0.8,21.62,886.63,23.98,349.0,0.0,0.00898565,-0.0264571,-0.0917956,32.6911359,-103.075237,1159.5396999999998,-103.598501,-0.516694444,-0.554597022,2.13896,35.2797,5028.45,36.7651,11095.0,0.947874,0.181116,13.0,-1322.0,54.0,,0.0,,2023-04-19 15:56:37.463634+00:00,1.0478376285214273,0.013791858989884257,8.082857497206065,7.6197841115164415,2.6965673390482774,0.7082044000000001,199.48837515971883,0.30831825639301114,0.45491160368978634,7.778706554920791,198.1045263995063,7.373542850179623,2.3172791458648025,1.14917216,0.4457852518313682,0.2869388364044913,0.9468791932262037,0.32158947967135604,4.565437216640083,0.40078236282008967,,,,,,,,,,
2023-04-19 08:56:37.663272-07:00,14.662481,8.59,7.82,-3.25,1.47,21.68,886.62,23.9,343.0,0.0,0.00401956,-0.0273458,-0.070479,32.6911359,-103.075237,1159.55605,-103.613701,-0.516104632,-0.575038798,,,,,,,,,,,,,,2023-04-19 15:56:37.663272+00:00,1.0476125703170605,0.013788265317278116,8.442082114296442,8.337916516131314,1.322081160348539,1.399521,189.00995395998936,0.25037330812111297,0.48553574920115394,,,,,,,,0.9893689301915383,0.1454273700912281,,,,,,,,,,,,
2023-04-19 08:56:37.863311-07:00,14.86252,9.25,8.1,-3.95,2.11,21.66,886.62,23.93,340.0,0.0,0.018575,-0.0230876,-0.0400192,32.6911359,-103.075237,1159.63284,-103.631439,-0.529202853,-0.563991061,,,,,,,,,,,,,,2023-04-19 15:56:37.863311+00:00,1.0476836406722259,0.013789449223160074,8.993253017216377,8.779668065743474,1.9483399310786924,2.0699807999999997,192.5120317661644,0.28469464209677103,0.5045237528235358,,,,,,,,0.7791386337743633,0.6268516486061264,,,,,,,,,,,,
2023-04-19 08:56:38.063281-07:00,15.06249,8.64,7.49,-4.22,0.85,21.01,886.56,24.89,320.0,0.0,0.00715494,-0.023986,-0.0109934,32.6911359,-103.075237,1159.67715,-103.588071,-0.518559471,-0.504574581,,,,,,,,,,,,,,2023-04-19 15:56:38.063281+00:00,1.049927631868663,0.013827789609380994,8.575886431486207,8.247814147595468,2.3493381775456004,0.8390065999999999,195.8992708030121,0.29847255347968643,0.4814829130506236,,,,,,,,0.9582744027682317,0.28584990641801655,,,,,,,,,,,,
2023-04-19 08:56:38.263777-07:00,15.262986,8.16,7.12,-3.88,0.94,21.57,886.6,24.09,312.0,0.0,-0.00513317,-0.0282529,0.0237075,32.6911359,-103.075237,1159.75686,-103.559515,-0.52853623,-0.568785501,,,,,,,,,,,,,,2023-04-19 15:56:38.263777+00:00,1.0479799362147617,0.013794696652265109,8.079946123624717,7.802977137001724,2.0973977114764106,0.9637074999999999,195.04518119041404,0.28117324362470225,0.46265973662026816,,,,,,,,0.9838927079634171,-0.17876000452118482,,,,,,,,,,,,
2023-04-19 08:56:38.463591-07:00,15.4628,7.13,6.06,-3.61,1.08,21.7,886.68,23.87,334.0,0.0,0.00558109,-0.0273343,0.0356769,32.6911358,-103.075237,1159.7539299999999,-103.528325,-0.523554014,-0.584976432,2.14084,35.1214,5025.62,36.7665,11086.0,0.941108,0.178101,17.0,-1338.0,54.0,,0.0,,2023-04-19 15:56:38.463591+00:00,1.0476123996020756,0.0137873294472379,7.029336125232216,6.709000336701219,2.0978276486970002,1.1156769,197.36386657366347,0.26777830215388126,0.41730128266271777,7.87074977437193,194.72945948605226,7.607932006946688,2.0004504804476553,1.0570074799999998,0.4545955053796983,0.27384026238780185,0.979785364031428,0.20005159441954473,3.4819910304374226,0.4365398890504778,,,,,,,,,,
2023-04-19 08:56:38.663189-07:00,15.662398,7.34,6.54,-3.06,1.32,21.72,886.74,23.9,343.0,0.0,0.00894192,-0.0244076,0.0367899,32.6911358,-103.075237,1159.75991,-103.514463,-0.511941963,-0.537267352,2.14084,35.1214,5025.62,36.7665,11086.0,0.941108,0.178101,17.0,-1338.0,54.0,,0.0,,2023-04-19 15:56:38.663189+00:00,1.0476122289102483,0.013786393704232283,7.198363239292923,7.049599963248979,1.455875572624147,1.3567899,191.66861753827973,0.24159756099788582,0.4310238604914925,7.83538173467266,194.36506215687785,7.587731273266824,1.9391636393947054,1.0465116399999999,0.4537202652812099,0.27048205337726455,0.9389699514501723,0.34399917190839446,4.430989663003601,0.4013075552823046,,,,,,,,,,
2023-04-19 08:56:38.863214-07:00,15.862423,8.55,7.56,-3.86,0.98,21.25,886.61,24.6,348.0,0.0,0.0123612,-0.021718,0.0298565,32.6911358,-103.075237,1159.7491699999998,-103.493396,-0.535296228,-0.551022266,,,,,,,,,,,,,,2023-04-19 15:56:38.863214+00:00,1.0491308779004647,0.013813723455965234,8.470216952223586,8.230268450186047,2.0018132918951173,1.0098565,193.67036132489204,0.2801796516828533,0.48050973407338954,,,,,,,,0.869088022368233,0.4946574667141635,,,,,,,,,,,,
2023-04-19 08:56:39.063078-07:00,16.062287,8.46,7.47,-3.89,0.77,21.31,886.61,24.47,350.0,0.0,0.00576892,-0.0252811,0.0165274,32.6911358,-103.075237,1159.7370799999999,-103.510847,-0.532360672,-0.543885406,,,,,,,,,,,,,,2023-04-19 15:56:39.063078+00:00,1.0489171040341532,0.01381015963766148,8.399046232989859,8.146810479196153,2.042903972280851,0.7865274,194.07728415714,0.281681508427,0.4771067125581818,,,,,,,,0.9749390053048472,0.2224723262232744,,,,,,,,,,,,
2023-04-19 08:56:39.263607-07:00,16.262816,7.01,6.19,-3.09,1.15,21.48,886.65,24.22,349.0,0.0,0.00731274,-0.0254743,0.0143333,32.6911358,-103.075237,1159.7732199999998,-103.51225,-0.53037762,-0.571951077,,,,,,,,,,,,,,2023-04-19 15:56:39.263607+00:00,1.048359179528987,0.013800237852373188,6.89523491543635,6.715174973615877,1.565467857471221,1.1643333,193.12264234910316,0.24298426282536267,0.4174514820685207,,,,,,,,0.9611806561609493,0.2759198184654503,,,,,,,,,,,,
2023-04-19 08:56:39.463678-07:00,16.462887,7.65,6.67,-3.69,0.68,21.64,886.64,23.99,344.0,0.0,0.0119925,-0.0223694,0.0239115,32.6911358,-103.075237,1159.78469,-103.467111,-0.530791226,-0.548154308,2.13629,35.0045,4993.92,36.7678,11114.0,0.94114,0.184883,16.0,-1383.0,54.0,,0.0,,2023-04-19 15:56:39.463678+00:00,1.04777835547998,0.01379071599012009,7.604328299292755,7.32358433438635,2.047173998602825,0.7039115,195.61736262745544,0.2717364131096363,0.44218353899729607,7.369333294483056,195.9727115689318,7.082649257126638,2.009852540496401,0.9542059399999999,0.4327360638811655,0.2676836005176967,0.88133408496136,0.47249363031190406,5.117858209411336,0.34139873660094966,,,,,,,,,,
2023-04-19 08:56:39.662899-07:00,16.662108,7.54,6.49,-3.71,0.95,21.96,886.65,23.49,332.0,0.0,0.00278057,-0.0208252,0.021259,32.6911358,-103.075237,1159.81252,-103.445187,-0.540341679,-0.567959275,2.13629,35.0045,4993.92,36.7678,11114.0,0.94114,0.184883,16.0,-1383.0,54.0,,0.0,,2023-04-19 15:56:39.662899+00:00,1.0466540105880027,0.013771835928450845,7.456372064334723,7.153932838147433,2.102077379419479,0.971259,196.3746453150566,0.27273080246580184,0.43506812950409257,6.9727105214989304,193.42870070637474,6.736113636140139,1.6316651907684938,1.2180543400000001,0.41838414271894975,0.24831441269288615,0.9912037118040122,0.13234501012863564,2.5088036209137403,0.41107906870796257,,,,,,,,,,
2023-04-19 08:56:39.863721-07:00,16.86293,6.61,5.4,-3.64,1.11,22.05,886.69,23.4,324.0,0.0,0.00681847,-0.0245506,0.0349985,32.6911358,-103.075237,1159.8819799999999,-103.443643,-0.52721996,-0.574090848,,,,,,,,,,,,,,2023-04-19 15:56:39.863721+00:00,1.0463821127213893,0.013766688483866077,6.491684960361597,6.073743660287378,2.291639494707628,1.1449985,200.67162339590385,0.2692850157606826,0.39187045627773603,,,,,,,,0.9635294578265523,0.2676022867997771,,,,,,,,,,,,
2023-04-19 08:56:40.063678-07:00,17.062887,6.76,6.23,-1.64,2.06,22.36,886.75,22.17,327.0,0.0,0.00652329,-0.026469,0.0457694,32.6911357,-103.075237,1159.90835,-103.454436,-0.518375107,-0.564367647,,,,,,,,,,,,,,2023-04-19 15:56:40.063678+00:00,1.0453551541113573,0.013748668858433755,6.415932368069229,6.4141323742636605,0.15196722364131668,2.1057694000000002,181.3572298443546,0.18483556930294742,0.40534710674710317,,,,,,,,0.9709480611111578,0.23929033123902718,,,,,,,,,,,,
2023-04-19 08:56:40.263824-07:00,17.263033,7.66,6.88,-3.27,0.8,22.23,886.72,22.38,344.0,0.0,0.00753041,-0.0230054,0.0393827,32.6911357,-103.075237,1159.88662,-103.434053,-0.526154645,-0.569936018,,,,,,,,,,,,,,2023-04-19 15:56:40.263824+00:00,1.0457798450585707,0.013756199751964066,7.596635216146311,7.428449916793335,1.589653560020988,0.8393827,192.0788485457789,0.251467784701162,0.4465288282538665,,,,,,,,0.9503803971938974,0.3110901808633146,,,,,,,,,,,,
2023-04-19 08:56:40.462962-07:00,17.462171,6.85,6.0,-3.23,0.75,22.03,886.69,22.68,350.0,0.0,0.00716407,-0.0268837,0.03003,32.6911356,-103.075237,1159.87869,-103.397657,-0.529419904,-0.575094402,2.13514,33.3226,4964.98,36.769,11149.0,0.940397,0.199767,14.0,-1404.0,54.0,,0.0,,2023-04-19 15:56:40.462962+00:00,1.046453010621838,0.013767868627899534,6.790044881689531,6.558245664617369,1.7590120232351105,0.78003,195.0141446358278,0.24961583511599092,0.4110255507794869,7.157563468720616,189.49842762860885,6.99907284944649,1.1941425622416184,1.1652338199999999,0.42903855675237884,0.23252576661078644,0.9662789220467042,0.2574976598112289,2.9561196673937014,0.400887716969404,,,,,,,,,,
2023-04-19 08:56:40.663689-07:00,17.662898,7.61,6.45,-3.99,0.68,21.62,886.69,23.26,352.0,0.0,0.0100501,-0.0256897,0.020956,32.6911356,-103.075237,1159.88015,-103.386985,-0.51527773,-0.553423829,,,,,,,,,,,,,,2023-04-19 15:56:40.663689+00:00,1.0479085377594537,0.013792107005038915,7.563167890125943,7.172846536086536,2.3982871187544417,0.700956,198.48768809059447,0.28672333044444076,0.4359658119904021,,,,,,,,0.9312721933047269,0.3643241715524834,,,,,,,,,,,,
2023-04-19 08:56:40.863191-07:00,17.8624,7.58,7.23,-1.79,1.39,21.96,886.63,22.79,351.0,0.0,0.00501692,-0.0262993,0.010031,32.6911356,-103.075237,1159.84963,-103.391965,-0.543706554,-0.579973006,,,,,,,,,,,,,,2023-04-19 15:56:40.863191+00:00,1.0466304014071401,0.013771753518290077,7.42203698757207,7.421689755471553,0.07179288555623499,1.4000309999999998,180.5542270264885,0.18998631348939127,0.44632548599103583,,,,,,,,0.9822868367695967,0.18738348462225718,,,,,,,,,,,,
2023-04-19 08:56:41.063528-07:00,18.062737,7.44,6.73,-3.06,0.87,21.65,886.72,23.14,348.0,0.0,0.00766415,-0.0289031,-0.00401988,32.6911356,-103.075237,1159.8480499999998,-103.381088,-0.52722809,-0.562479702,,,,,,,,,,,,,,2023-04-19 15:56:41.063528+00:00,1.047837349502716,0.013790454500634517,7.366121151419385,7.226559020976799,1.4270898828479228,0.86598012,191.17094946855667,0.24174008457583326,0.4383102262456389,,,,,,,,0.9665948667333516,0.25630911728757183,,,,,,,,,,,,
2023-04-19 08:56:41.262982-07:00,18.262191,8.38,7.85,-2.67,1.22,21.73,886.63,23.07,341.0,0.0,0.0036747,-0.0307662,-0.00613878,32.6911355,-103.075237,1159.84573,-103.353845,-0.510259525,-0.546935064,,,,,,,,,,,,,,2023-04-19 15:56:41.262982+00:00,1.0474467504044394,0.013785347749261991,8.261368691829517,8.223661871828092,0.7884149162603608,1.21386122,185.47629588944488,0.2243985437888668,0.4804336717468086,,,,,,,,0.9929425224301646,0.11859657309560914,,,,,,,,,,,,
2023-04-19 08:56:41.463634-07:00,18.462843,7.78,7.2,-2.78,0.99,21.94,886.68,22.78,325.0,0.0,0.00652439,-0.0256972,-0.00165844,32.6911355,-103.075237,1159.88809,-103.396571,-0.536210308,-0.582162835,2.13723,34.961,4966.9,36.7705,11141.0,0.940476,0.207028,13.0,-1333.0,54.0,,0.0,,2023-04-19 15:56:41.463634+00:00,1.0467603647113488,0.013773140609068797,7.693474515728107,7.622486295317199,1.0427141515579956,0.98834156,187.7894002489213,0.22912772137215534,0.4547170603051314,7.233805411340152,192.8436076468882,7.0309803693520205,1.5231566430747043,0.9733762159999999,0.43099531207593555,0.2443480777316557,0.9692477117472822,0.24608712536956787,3.2065498385565303,0.4051650280183898,,,,,,,,,,
2023-04-19 08:56:41.662896-07:00,18.662105,6.24,5.1,-3.51,0.75,21.98,886.7,22.75,322.0,0.0,0.00611456,-0.0306049,0.00247225,32.6911355,-103.075237,1159.88076,-103.35636,-0.529712629,-0.561451389,2.13723,34.961,4966.9,36.7705,11141.0,0.940476,0.207028,13.0,-1333.0,54.0,,0.0,,2023-04-19 15:56:41.662896+00:00,1.0466421012029827,0.013770861087701971,6.164825402976569,5.742285113474073,2.243041222260367,0.75247225,201.3365225348673,0.262992020836925,0.3792048794766676,7.096186605333642,193.14280130953983,6.888767115235656,1.5306140976036418,1.02425214,0.4251527392262243,0.24309325477361515,0.9806202144014512,0.1959183378534329,2.8505869276343248,0.40894014506030085,,,,,,,,,,
2023-04-19 08:56:41.863025-07:00,18.862234,6.79,5.71,-3.52,1.05,21.82,886.71,22.94,337.0,0.0,0.00750995,-0.0283709,-0.00377407,32.6911355,-103.075237,1159.85244,-103.344924,-0.519449013,-0.566447914,,,,,,,,,,,,,,2023-04-19 15:56:41.863025+00:00,1.0472216394233937,0.013780355095531651,6.683237294747184,6.339909545163942,2.1145230424468764,1.04622593,198.44487009265066,0.26348201808449806,0.4023107226054314,,,,,,,,0.9667051782795285,0.25589274762592434,,,,,,,,,,,,
2023-04-19 08:56:42.063004-07:00,19.062213,6.79,6.03,-2.92,1.13,22.01,886.72,22.68,346.0,0.0,0.0110392,-0.0247755,-0.00964026,32.6911355,-103.075237,1159.84097,-103.310026,-0.534042308,-0.564705117,,,,,,,,,,,,,,2023-04-19 15:56:42.063004+00:00,1.0465593259025634,0.013769172542349816,6.678027121386834,6.515492750394976,1.4643771554926093,1.1203597399999998,192.66691778181513,0.23546596978563056,0.40909736199708263,,,,,,,,0.9134298443494385,0.40699621552510845,,,,,,,,,,,,
2023-04-19 08:56:42.263147-07:00,19.262356,6.44,5.39,-3.38,1.03,22.22,886.71,22.39,349.0,0.0,0.00307179,-0.0272163,-0.0201072,32.6911355,-103.075237,1159.80459,-103.30835,-0.539687025,-0.587394925,,,,,,,,,,,,,,2023-04-19 15:56:42.263147+00:00,1.0458034566161711,0.013756747776412845,6.337347343603162,5.996084537872804,2.051570512596813,1.0098928,198.88846916026216,0.2567802616824017,0.38874306421632654,,,,,,,,0.9936908674023379,0.1121537339600837,,,,,,,,,,,,
2023-04-19 08:56:42.463487-07:00,19.462696,6.19,4.63,-4.02,0.91,22.0,886.77,22.72,351.0,0.0,0.0141828,-0.0233639,-0.0243688,32.6911354,-103.075237,1159.8054399999999,-103.306143,-0.540627205,-0.595925006,2.13954,34.3859,4966.15,36.772,11082.0,0.91891,0.207752,17.0,-1358.0,54.0,,0.0,,2023-04-19 15:56:42.463487+00:00,1.0466537994132186,0.013769968772861265,6.1175986836925365,5.40755944121583,2.8606493221704397,0.8856312000000001,207.8792573957208,0.2882371042659819,0.3662722393630903,6.023994784328658,200.18654580434747,5.618243799221486,2.0648519452211347,1.026304428,0.37468973877682155,0.25407249939193505,0.8548268724653959,0.5189133050048242,4.680472388614353,0.28221468958868146,,,,,,,,,,
2023-04-19 08:56:42.663597-07:00,19.662806,5.94,4.47,-3.83,0.77,22.24,886.74,22.33,348.0,0.0,0.00861306,-0.0256994,-0.0219648,32.6911354,-103.075237,1159.82449,-103.283703,-0.542918634,-0.567190947,,,,,,,,,,,,,,2023-04-19 15:56:42.663597+00:00,1.0457680285005078,0.013755692873142114,5.867556119969104,5.204732762983494,2.7090536515383175,0.7480352,207.49689283598323,0.2787183392410729,0.358864272046036,,,,,,,,0.9481663252810862,0.3177744791561483,,,,,,,,,,,,
2023-04-19 08:56:42.863585-07:00,19.862794,5.33,4.58,-2.35,1.38,22.7,886.8,21.75,343.0,0.0,0.00407896,-0.0301334,-0.0123968,32.6911354,-103.075237,1159.83486,-103.286385,-0.541674542,-0.603500581,,,,,,,,,,,,,,2023-04-19 15:56:42.863585+00:00,1.0442126748516412,0.013728895693525443,5.119444652991652,4.967349503640324,1.2386090843074953,1.3676031999999998,194.00119184795608,0.211160821984588,0.3504717562615723,,,,,,,,0.9909623836077645,0.134140054698132,,,,,,,,,,,,
2023-04-19 08:56:43.063219-07:00,20.062428,6.0,5.16,-2.93,0.86,22.26,886.81,22.3,336.0,0.0,0.0142698,-0.0294387,-0.0103772,32.6911353,-103.075237,1159.81802,-103.251245,-0.541510518,-0.591968246,,,,,,,,,,,,,,2023-04-19 15:56:43.063219+00:00,1.0457797755916869,0.0137548025158929,5.909648651435908,5.664791691108143,1.683473278603015,0.8496228,196.55099374032497,0.2359873418533506,0.3760453663886659,,,,,,,,0.8998562106302807,0.43618665751041946,,,,,,,,,,,,
2023-04-19 08:56:43.263747-07:00,20.262956,6.51,5.84,-2.69,1.03,21.98,886.72,22.73,320.0,0.0,0.00604057,-0.0307803,-0.0114221,32.6911353,-103.075237,1159.8175299999998,-103.237182,-0.530980971,-0.571503197,,,,,,,,,,,,,,2023-04-19 15:56:43.263747+00:00,1.046665708783928,0.013770943487370471,6.400803249699363,6.2700171377804415,1.287310115435083,1.0185779,191.60228363080859,0.22543944110614622,0.39947717670181954,,,,,,,,0.9812823320653485,0.19257462131960948,,,,,,,,,,,,
2023-04-19 08:56:43.463477-07:00,20.462686,5.31,4.24,-3.16,0.48,21.76,886.78,23.03,337.0,0.0,0.0074178,-0.0293324,-0.0136701,32.6911353,-103.075237,1159.79849,-103.243716,-0.538125601,-0.602923558,2.13618,34.5492,4973.03,36.7733,11113.0,0.903266,0.211643,16.0,-1362.0,54.0,,0.0,,2023-04-19 15:56:43.463477+00:00,1.0475173868281635,0.01378419229765484,5.264099684017134,4.821838095127975,2.112018671234209,0.46632989999999996,203.6539529973676,0.24649121994158124,0.34521688511180093,6.114604060312793,199.54626316110222,5.744995185616872,2.023961994463458,0.81397672,0.37954086993300545,0.2528780519631884,0.9694802250266965,0.24516951948026883,3.370688838912061,0.3570510785282746,,,,,,,,,,
2023-04-19 08:56:43.663038-07:00,20.662247,6.91,5.73,-3.78,0.75,22.05,886.73,22.66,346.0,0.0,0.0118465,-0.0276762,-0.0136383,32.6911353,-103.075237,1159.8006799999998,-103.227514,-0.538615626,-0.577167416,2.13618,34.5492,4973.03,36.7733,11113.0,0.903266,0.211643,16.0,-1362.0,54.0,,0.0,,2023-04-19 15:56:43.663038+00:00,1.0464293166872725,0.013766853176354916,6.842637982275184,6.4152353628169,2.3804305904895666,0.7363617,200.35782340942973,0.2762512007155869,0.40508959854187715,6.291732876836727,199.0526541131473,5.930248173809742,2.0179621112640844,0.76247486,0.38676366467902656,0.25452245192006084,0.9193220756643582,0.3935059354014575,4.188744971537116,0.3292419280821138,,,,,,,,,,
2023-04-19 08:56:43.863318-07:00,20.862527,6.26,4.83,-3.86,1.01,22.36,886.7,22.17,349.0,0.0,0.00372824,-0.031787,-0.0110087,32.6911353,-103.075237,1159.78335,-103.222888,-0.536086732,-0.583134373,,,,,,,,,,,,,,2023-04-19 15:56:43.863318+00:00,1.0452962110522022,0.013748463580385197,6.155830734136374,5.553093641250901,2.656577316555418,0.9989913,205.56626202758022,0.28022105619927706,0.37187532292086345,,,,,,,,0.9931919009672415,0.11648968990033896,,,,,,,,,,,,
2023-04-19 08:56:44.063590-07:00,21.062799,6.85,6.07,-3.11,0.61,21.91,886.74,22.78,353.0,0.0,0.0136093,-0.0292035,-0.0178865,32.6911352,-103.075237,1159.7683299999999,-103.216237,-0.536419689,-0.598889469,,,,,,,,,,,,,,2023-04-19 15:56:44.063590+00:00,1.0469376328162576,0.01377515994900217,6.795292734055578,6.5910566320724975,1.6534738626061438,0.5921135,194.0829485005503,0.2442093416377127,0.41215934011877187,,,,,,,,0.9064089966592108,0.4224011491168587,,,,,,,,,,,,
2023-04-19 08:56:44.263202-07:00,21.262411,6.07,5.49,-2.51,0.68,22.03,886.75,22.65,353.0,0.0,0.00759147,-0.0299077,-0.0315717,32.6911352,-103.075237,1159.6959499999998,-103.179244,-0.536482417,-0.572029522,,,,,,,,,,,,,,2023-04-19 15:56:44.263202+00:00,1.0465238213681387,0.013768115714458386,6.00876731687773,5.887769669074006,1.1997720584803493,0.6484283000000001,191.51767668323993,0.21790754475157598,0.384456379360127,,,,,,,,0.9692627433370538,0.2460279138202181,,,,,,,,,,,,
2023-04-19 08:56:44.463687-07:00,21.462896,5.69,5.02,-2.62,0.52,22.19,886.77,22.39,345.0,0.0,0.00438089,-0.0300151,-0.043963,32.6911352,-103.075238,1159.6935099999998,-103.173302,-0.532488825,-0.595526005,2.13573,34.6689,4978.65,36.7746,11141.0,0.87897,0.199378,14.0,-1392.0,54.0,,0.0,,2023-04-19 15:56:44.463687+00:00,1.0459804594596447,0.01375876219656462,5.634605838460845,5.454975245339012,1.4113922302307118,0.47603700000000004,194.50629772256445,0.2225422349005298,0.36805544056346556,5.966408129752058,190.52112500432463,5.843903890248384,1.0967018985963786,0.7008075199999999,0.3829392156212876,0.21479548333408077,0.9895156126394552,0.1444259406850571,1.9292149676946369,0.37497831073005067,,,,,,,,,,
2023-04-19 08:56:44.663818-07:00,21.663027,5.68,5.13,-2.3,0.83,22.45,886.79,22.09,335.0,0.0,0.0127042,-0.0266226,-0.0423874,32.6911352,-103.075238,1159.68545,-103.155437,-0.534849905,-0.595461061,,,,,,,,,,,,,,2023-04-19 15:56:44.663818+00:00,1.0450840196284703,0.013743538954596644,5.598317484032021,5.4922120062251425,1.084788426696661,0.7876126,191.17290490855322,0.20942113918854754,0.3692878166192477,,,,,,,,0.9025079307433181,0.4306732345356675,,,,,,,,,,,,
2023-04-19 08:56:44.863200-07:00,21.862409,5.92,5.64,-1.45,1.04,22.41,886.78,22.1,322.0,0.0,0.0051471,-0.0284762,-0.0401538,32.6911352,-103.075238,1159.6808099999998,-103.149364,-0.537287803,-0.589751625,,,,,,,,,,,,,,2023-04-19 15:56:44.863200+00:00,1.045213670826545,0.01374585035166918,5.795057275334118,5.793505898531266,0.13408291496802752,0.9998462,181.32579720671538,0.17989715619203775,0.3807371014448257,,,,,,,,0.9840542237670947,0.1778687288034091,,,,,,,,,,,,
2023-04-19 08:56:45.062931-07:00,22.06214,4.95,4.42,-1.91,1.16,22.74,886.81,21.63,334.0,0.0,0.00989648,-0.0298913,-0.0278271,32.6911352,-103.075238,1159.69888,-103.13992,-0.535338038,-0.598385075,,,,,,,,,,,,,,2023-04-19 15:56:45.062931+00:00,1.0440832860439357,0.013726590083349026,4.787393853698631,4.708583466662452,0.865090543182868,1.1321728999999998,190.4106385835981,0.19480262789488875,0.34109102431970245,,,,,,,,0.9493224388284797,0.31430384524651866,,,,,,,,,,,,
2023-04-19 08:56:45.263487-07:00,22.262696,5.37,4.87,-2.05,0.97,22.31,886.83,22.24,342.0,0.0,0.00954651,-0.0256259,-0.0187038,32.6911351,-103.075238,1159.6972899999998,-103.131313,-0.536140509,-0.581776802,,,,,,,,,,,,,,2023-04-19 15:56:45.263487+00:00,1.0456263819566254,0.013751940374496075,5.260247306625218,5.182759423843595,0.899559048322159,0.9512961999999999,189.8465937219455,0.19988914209263822,0.35779553793670144,,,,,,,,0.9370868272236881,0.3490963738623501,,,,,,,,,,,,
2023-04-19 08:56:45.463191-07:00,22.4624,6.24,5.76,-2.36,0.46,21.83,886.77,22.86,347.0,0.0,0.00698139,-0.0261917,-0.0197246,32.6911351,-103.075238,1159.67971,-103.118817,-0.535653723,-0.594957361,,,,,,,,,,,,,,2023-04-19 15:56:45.463191+00:00,1.047256996734733,0.013780011457474753,6.199988678867721,6.119132768916208,0.9980349565339794,0.44027540000000004,189.26341624958894,0.2118865920878225,0.39318740630696114,,,,,,,,0.9662630696982633,0.257557139557981,,,,,,,,,,,,
2023-04-19 08:56:45.663599-07:00,22.662808,5.6,4.96,-2.56,0.48,22.1,886.79,22.48,351.0,0.0,0.0110443,-0.0279698,-0.0176959,32.6911351,-103.075238,1159.6741,-103.106152,-0.533326608,-0.585028354,2.13444,34.1893,4990.47,36.7762,11146.0,0.862471,0.198344,14.0,-1371.0,54.0,,0.0,,2023-04-19 15:56:45.663599+00:00,1.0463228999226954,0.013764150574508442,5.557304131807264,5.383325326900526,1.3796512741100297,0.4623041,194.37451806440822,0.22012007550914356,0.36520299610156537,5.5873605219053,185.17861706068848,5.5096292134825635,0.5038250483176949,0.66847126,0.37005133153096315,0.19323975445866973,0.9301144497649909,0.3672698059170781,2.4921354095046375,0.32119555517706366,,,,,,,,,,
