Timestamp,Seconds,S,Um,Vm,Wm,T,P,H,MD,Sts,Vx,Vy,Vz,Lat,Lon,Alt,Yaw,Roll,Pitch,CH4,C2H6,H20,T_a,Batt,R,C2C1,Power,Current,SOC,Lat_a,Lon_a,TS,Timestamp_UTC,Rho,Rho_err,Sc,V,U,W,WD,V_err,U_err,Sc_avg,WD_avg,V_avg,U_avg,W_avg,U_err_avg,V_err_avg,Nx,Ny,cross_wind,cross_wind_err,CH4_sub,CH4_res,CH4_adj,CH4_adj_err,BG_Samples_CH4,C2H6_sub,C2H6_res,C2H6_adj,C2H6_adj_err,BG_Samples_C2H6
2022-11-15 11:05:49.732606-07:00,0.0,2.77,-0.35,-2.75,0.04,12.78,971.25,43.53,26.0,0.0,-0.000791927,0.000203031,0.012139,32.8213778,-111.787045,365.93941700000005,0.548701593,-0.460070327,-0.13126305,,,,,,,,,,,,,,2022-11-15 18:05:49.732606+00:00,1.1833307689147197,0.014729208644840373,2.772089725277079,-2.746319089610268,-0.3771112608090377,0.052139000000000005,367.8186825309275,0.24698635550305362,0.2492479578825626,,,,,,,,0.2483441261403506,0.9686718716942211,,,,,,,,,,,,
2022-11-15 11:05:49.942683-07:00,0.210077,3.0,-0.24,-2.99,-0.11,12.33,971.24,44.84,25.0,0.0,-0.000188265,0.000120376,0.0125395,32.8213779,-111.787045,365.93844,0.5616105,-0.461349962,-0.133755156,,,,,,,,,,,,,,2022-11-15 18:05:49.942683+00:00,1.185183841610984,0.014759725403710034,2.9995136606372332,-2.9873835572455993,-0.26948410388741456,-0.0974605,365.1545520113838,0.2539769047478592,0.25611922094807454,,,,,,,,0.5386929987290798,0.8425021383475959,,,,,,,,,,,,
2022-11-15 11:05:50.152309-07:00,0.419703,3.0,-0.25,-2.98,-0.19,12.3,971.25,44.88,26.0,0.0,-0.000455622,7.1365e-05,0.0126339,32.8213779,-111.787045,365.939905,0.57474975,-0.461004558,-0.131533751,,,,,,,,,,,,,,2022-11-15 18:05:50.152309+00:00,1.1853206052050649,0.014761815684917435,2.99043981643179,-2.977270925970035,-0.2803357434829318,-0.1773661,365.3790327976625,0.2536610545771457,0.25585907449370077,,,,,,,,0.15474530540324768,0.9879543969514258,,,,,,,,,,,,
2022-11-15 11:05:50.362604-07:00,0.629998,2.8,-0.29,-2.78,-0.09,12.39,971.25,44.61,28.0,0.0,-0.000138402,0.000155701,0.0117452,32.8213779,-111.787045,365.937341,0.589002979,-0.460081488,-0.128532382,2.07645,-5.06693,5840.47,25.0711,11204.0,-0.4385,-1.0,12.0,-1350.0,71.0,,0.0,,2022-11-15 18:05:50.362604+00:00,1.1849470013160532,0.014755690821088126,2.7949460637633012,-2.7767162466727218,-0.3187010900667329,-0.0782548,366.54754372298976,0.2477818960409692,0.2501997000358315,2.9518931689119663,365.27235260940495,-2.9392635149510675,-0.2703974930237536,-0.19223690000000002,0.2548220644723908,0.25253127822308946,0.7474066702534924,0.664366818301898,-2.15484603948467,0.18079528244007534,,,,,,,,,,
2022-11-15 11:05:50.572416-07:00,0.83981,2.98,-0.2,-2.96,-0.33,12.17,971.24,45.26,27.0,0.0,-0.000149657,0.000628128,0.0111586,32.821378,-111.787045,365.937738,0.601982973,-0.455878879,-0.129749146,,,,,,,,,,,,,,2022-11-15 18:05:50.572416+00:00,1.1858484617380611,0.014770623569029313,2.9661345067278972,-2.9571072204553737,-0.23123753746449177,-0.3188414,364.47127132824767,0.2530291952754145,0.2553643689269793,,,,,,,,0.9727703606933631,0.23177106237946157,,,,,,,,,,,,
2022-11-15 11:05:50.782396-07:00,1.04979,3.02,-0.22,-3.0,-0.3,12.24,971.23,45.05,26.0,0.0,0.000213867,-0.000395279,0.0107383,32.8213781,-111.787045,365.93737200000004,0.619870917,-0.457189682,-0.120879697,,,,,,,,,,,,,,2022-11-15 18:05:50.782396+00:00,1.1855453920965047,0.01476580550016542,3.0084317969996115,-2.9978396244116072,-0.25222899021719697,-0.2892617,364.809363186741,0.2542073404740587,0.25656795795736814,,,,,,,,0.8795177988689148,0.4758659910865443,,,,,,,,,,,,
2022-11-15 11:05:50.986151-07:00,1.253545,3.07,-0.43,-3.04,-0.1,12.27,971.25,44.96,26.0,0.0,-0.000171642,0.000567061,0.0101629,32.8213781,-111.787045,365.93660900000003,0.631990487,-0.459725832,-0.128551618,,,,,,,,,,,,,,2022-11-15 18:05:50.986151+00:00,1.1854451921932094,0.014763858441496662,3.0697259361232208,-3.034505066547561,-0.46367696083024007,-0.0898371,368.6876834025879,0.2554041774003836,0.25770430858302623,,,,,,,,0.9571155494404392,0.28970644628541875,,,,,,,,,,,,
2022-11-15 11:05:51.186757-07:00,1.454151,2.93,-0.33,-2.9,-0.26,12.22,971.23,45.1,27.0,0.0,-0.000209975,0.000187919,0.00930434,32.8213782,-111.787045,365.93847,0.644763356,-0.460479202,-0.11623868,,,,,,,,,,,,,,2022-11-15 18:05:51.186757+00:00,1.1856284803953514,0.014767168014158779,2.918555103666966,-2.8959149695161845,-0.3628227976196811,-0.25069566,367.1412514620026,0.2511931039337223,0.2537098999400262,,,,,,,,0.6668867628338935,0.7451590739948957,,,,,,,,,,,,
2022-11-15 11:05:51.387882-07:00,1.655276,2.97,-0.2,-2.95,-0.31,12.39,971.24,44.56,27.0,0.0,0.000203991,0.00028893,0.00995392,32.8213782,-111.787045,365.938715,0.656601728,-0.45679927,-0.123001916,2.07719,-5.4168,5833.65,25.0719,11212.0,-0.386222,-1.0,14.0,-1366.0,71.0,,0.0,,2022-11-15 18:05:51.387882+00:00,1.1849348010895273,0.014755642755769406,2.956467738910261,-2.9472254404353024,-0.2335887293258999,-0.30004608,364.53162804854634,0.2526621160612757,0.2552181637485287,2.9679037028640973,365.93015877753317,-2.95047049612552,-0.3077294276032093,-0.254121956,0.2553163443020593,0.2527915627830955,0.8169140285374022,-0.5767594559075667,1.4503232716138368,0.19000637267736253,,,,,,,,,,
2022-11-15 11:05:51.586781-07:00,1.854175,2.93,-0.16,-2.9,-0.33,12.68,971.24,43.7,26.0,0.0,-5.86099e-05,4.93804e-05,0.00976356,32.8213782,-111.787045,365.93480800000003,0.666288793,-0.455336285,-0.117159664,,,,,,,,,,,,,,2022-11-15 18:05:51.586781+00:00,1.1837325791663003,0.014735941902975096,2.904365078565779,-2.8978939479055628,-0.19377093766794756,-0.32023644,363.82545221192447,0.2511647303476804,0.25382162953882065,,,,,,,,0.6443242544159635,0.7647524142958377,,,,,,,,,,,,
2022-11-15 11:05:51.786771-07:00,2.054165,3.01,-0.25,-2.98,-0.32,12.29,971.24,44.9,26.0,0.0,0.000496299,1.63028e-05,0.0102055,32.8213782,-111.787045,365.937585,0.678750786,-0.454772571,-0.117598985,,,,,,,,,,,,,,2022-11-15 18:05:51.786771+00:00,1.1853499267905814,0.014762448430155966,2.990404657054261,-2.9768130562229906,-0.28478771257227803,-0.30979450000000003,365.46477876260474,0.25353368617241556,0.25612771969989456,,,,,,,,0.0328310381926453,-0.9994609161599032,,,,,,,,,,,,
2022-11-15 11:05:51.986414-07:00,2.253808,3.11,-0.41,-3.08,-0.14,12.28,971.23,44.88,27.0,0.0,7.74917e-05,0.000922766,0.00987682,32.8213782,-111.787045,365.935541,0.688195936,-0.456146686,-0.115892995,,,,,,,,,,,,,,2022-11-15 18:05:51.986414+00:00,1.1853792504306537,0.014763081229784569,3.106244814122754,-3.0739305509520283,-0.4468868013135551,-0.13012318,368.2716878260309,0.2565635478666118,0.2590320784823896,,,,,,,,0.996492420347594,-0.08368306991138659,,,,,,,,,,,,
2022-11-15 11:05:52.186054-07:00,2.453448,2.95,-0.49,-2.91,-0.06,12.34,971.23,44.75,29.0,0.0,-7.14133e-06,-0.000183663,0.00946254,32.8213782,-111.787045,365.93789100000004,0.702735832,-0.459047992,-0.104466014,,,,,,,,,,,,,,2022-11-15 18:05:52.186054+00:00,1.1851301252247766,0.014758996717203935,2.951147941436867,-2.903955062036068,-0.5256606984758817,-0.05053746,370.2603181753741,0.2514128089784797,0.25408822634686634,,,,,,,,0.9992449203709133,-0.03885343116028752,,,,,,,,,,,,
2022-11-15 11:05:52.387159-07:00,2.654553,2.82,-0.41,-2.78,-0.09,12.37,971.24,44.66,27.0,0.0,-0.000166279,0.000993985,0.00974599,32.8213782,-111.787045,365.93807400000003,0.717345177,-0.457920323,-0.113766694,2.07631,-5.49304,5791.13,25.0725,11140.0,-0.366789,-1.0,19.0,-1336.0,71.0,,0.0,,2022-11-15 18:05:52.387159+00:00,1.18501780296688,0.014757003386276753,2.8091160547956986,-2.7736550532329196,-0.4449389339970609,-0.08025401,369.1135212483067,0.2475949322844232,0.2504958909150097,2.716133903801037,365.5569209718461,-2.692250750269454,-0.2876614905380206,-0.02657831200000001,0.2486050920313072,0.2455571857347622,0.9862948138981278,0.1649925455214794,-0.7279203407449251,0.24192979892856822,,,,,,,,,,
2022-11-15 11:05:52.586830-07:00,2.854224,2.53,-0.08,-2.53,-0.04,12.65,971.23,43.8,26.0,0.0,-0.000352406,-0.000133656,0.00898298,32.8213783,-111.787045,365.93917200000004,0.733524885,-0.455830031,-0.105583412,,,,,,,,,,,,,,2022-11-15 18:05:52.586830+00:00,1.1838446446830704,0.014737929523115806,2.5314137000676014,-2.5289021567396555,-0.11273509891539016,-0.03101702,362.55247982577305,0.24059895755960045,0.2439482678128984,,,,,,,,0.3546188814923635,-0.9350109351708701,,,,,,,,,,,,
2022-11-15 11:05:52.786774-07:00,3.054168,2.19,0.12,-2.18,0.15,12.74,971.24,43.49,27.0,0.0,0.000425,0.000571603,0.00904011,32.8213783,-111.787045,365.93642600000004,0.749089127,-0.459835192,-0.113644697,,,,,,,,,,,,,,2022-11-15 18:05:52.786774+00:00,1.183484148109775,0.014731872461707983,2.1827470085822647,-2.180810928386597,0.09191408001178479,0.15904010999999998,357.58659778374596,0.23161568198469584,0.23546099659937197,,,,,,,,0.8024879716516627,-0.596668295918595,,,,,,,,,,,,
2022-11-15 11:05:52.986082-07:00,3.253476,2.45,-0.13,-2.43,-0.29,12.76,971.24,43.48,28.0,0.0,-9.71653e-05,-0.00020435,0.00879091,32.8213783,-111.787045,365.937402,0.762244802,-0.461273103,-0.107025645,,,,,,,,,,,,,,2022-11-15 18:05:52.986082+00:00,1.1834013609286267,0.014730516483096083,2.4336852591005935,-2.4282598852432553,-0.16241265370018262,-0.28120909,363.82649343961157,0.23788824950880794,0.2414597340177035,,,,,,,,0.9031077831348331,-0.42941394020372375,,,,,,,,,,,,
2022-11-15 11:05:53.186898-07:00,3.454292,2.66,-0.12,-2.64,-0.31,12.8,971.25,43.36,28.0,0.0,-0.000558164,-5.14325e-05,0.00948819,32.8213783,-111.787045,365.93779900000004,0.775578113,-0.461510267,-0.117714645,,,,,,,,,,,,,,2022-11-15 18:05:53.186898+00:00,1.1832480040419155,0.014727853158755235,2.642810156798346,-2.6381852500503014,-0.15628215283111577,-0.30051181,363.39015450663743,0.24354235668836363,0.24694565020125359,,,,,,,,0.09175713175111912,-0.9957814161616031,,,,,,,,,,,,
2022-11-15 11:05:53.387326-07:00,3.65472,3.12,-0.36,-3.09,-0.21,12.54,971.24,44.11,26.0,0.0,-0.000428358,0.000716158,0.00914408,32.8213782,-111.787045,365.937494,0.786350524,-0.462090779,-0.116383809,2.07846,-5.56795,5743.06,25.0728,11145.0,-0.360457,-1.0,14.0,-1327.0,71.0,,0.0,,2022-11-15 18:05:53.387326+00:00,1.1843126574367449,0.014745446056313814,3.1102454971973597,-3.0840522004774016,-0.40280153620231895,-0.20085592,367.4411598954305,0.2567636327988668,0.2595906472762305,2.74262586759582,365.60464026434755,-2.7263343039784216,-0.2739603857548536,-0.242944506,0.2495278015157305,0.2462239130516742,0.8581988537576564,0.5133173749339144,-1.6345872571403048,0.19489432621318475,,,,,,,,,,
2022-11-15 11:05:53.586459-07:00,3.853853,2.83,-0.43,-2.79,-0.18,12.61,971.23,43.92,26.0,0.0,-0.000210842,-0.000320243,0.00889204,32.8213782,-111.787045,365.93670000000003,0.804213089,-0.46216545,-0.1076871,,,,,,,,,,,,,,2022-11-15 18:05:53.586459+00:00,1.184010356419448,0.014740644474694193,2.8232925602227037,-2.7840100597065565,-0.469328102782653,-0.17110796,369.56894579749616,0.2477573955220591,0.25098818361504865,,,,,,,,0.8352304385637045,-0.5499000950142506,,,,,,,,,,,,
2022-11-15 11:05:53.786802-07:00,4.054196,2.72,-0.14,-2.7,-0.27,12.74,971.24,43.49,28.0,0.0,-0.000692618,0.000578359,0.00896225,32.8213782,-111.787045,365.936304,0.81275623,-0.461004911,-0.116762978,,,,,,,,,,,,,,2022-11-15 18:05:53.786802+00:00,1.183484148109775,0.014731872461707983,2.7030958646600953,-2.6971641244145936,-0.1789774832579976,-0.26103775,363.7964476825622,0.2451679307402736,0.24865479246841646,,,,,,,,0.6409540972397045,0.7675792110470654,,,,,,,,,,,,
2022-11-15 11:05:53.986435-07:00,4.253829,2.41,-0.02,-2.41,0.0,12.87,971.25,43.06,27.0,0.0,-0.000323524,-0.00032682,0.00882774,32.8213782,-111.787045,365.936395,0.826011388,-0.460836274,-0.109674335,,,,,,,,,,,,,,2022-11-15 18:05:53.986435+00:00,1.1829584181378427,0.01472311093095518,2.410417090801131,-2.409788056100724,-0.05506429242696043,0.00882774,361.30899587573396,0.23724604975827646,0.24117820857866418,,,,,,,,0.7106813328561029,-0.7035140674712006,,,,,,,,,,,,
2022-11-15 11:05:54.186163-07:00,4.453557,2.05,-0.1,-2.04,0.03,12.89,971.23,43.05,26.0,0.0,-0.000350009,0.000683189,0.00762363,32.8213782,-111.787045,365.93557100000004,0.839875061,-0.460763284,-0.119551396,,,,,,,,,,,,,,2022-11-15 18:05:54.186163+00:00,1.1828513475402793,0.014721660892352448,2.041790000703305,-2.037631837307722,-0.1302417082272819,0.03762363,363.65726644487415,0.2281150002029707,0.2325066433379701,,,,,,,,0.8899995276891258,0.4559614465205726,,,,,,,,,,,,
2022-11-15 11:05:54.387901-07:00,4.655295,1.9,-0.05,-1.9,0.12,12.72,971.24,43.59,26.0,0.0,-0.000361734,4.3961e-06,0.00738056,32.8213782,-111.787045,365.935968,0.852723355,-0.458886148,-0.11351395,2.07692,-5.91427,5717.18,25.0731,11145.0,-0.300941,-1.0,14.0,-1327.0,71.0,,0.0,,2022-11-15 18:05:54.387901+00:00,1.1835669468748158,0.014733228691179963,1.9006683194338603,-1.8990410700453921,-0.07863253003933143,0.12738056,362.37105981770253,0.2249514276738685,0.22957871158173668,2.2154675034477873,362.8309744070642,-2.212456861659553,-0.10916355358353198,-0.016471368000000004,0.23666831110103295,0.2324139319898662,0.01215195530951883,0.9999261622650721,-2.213620049480838,0.2323796140484515,,,,,,,,,,
2022-11-15 11:05:54.586143-07:00,4.853537,2.32,-0.08,-2.31,-0.11,12.5,971.23,44.18,27.0,0.0,-0.000177197,-0.000229011,0.0067389,32.8213782,-111.787045,365.93432,0.865774433,-0.457891996,-0.122289254,,,,,,,,,,,,,,2022-11-15 18:05:54.586143+00:00,1.184466302994649,0.014748115776200076,2.3116224082530024,-2.3087564909432228,-0.11507225497463303,-0.1032611,362.8533555384838,0.23459471910203356,0.23881355272641716,,,,,,,,0.7908939218351393,-0.6119532697880063,,,,,,,,,,,,
2022-11-15 11:05:54.786919-07:00,5.054313,2.41,-0.13,-2.41,-0.16,12.58,971.24,43.93,28.0,0.0,-0.000203183,0.000679639,0.00707233,32.8213782,-111.787045,365.936792,0.870615696,-0.453519543,-0.121107028,,,,,,,,,,,,,,2022-11-15 18:05:54.786919+00:00,1.1841468627834095,0.01474272932725796,2.412839698047637,-2.407066853900706,-0.16680698224945317,-0.15292767000000002,363.9641943585265,0.23716246321218162,0.24126443928037664,,,,,,,,0.9581008197053676,0.28643117721348466,,,,,,,,,,,,
2022-11-15 11:05:54.986744-07:00,5.254138,2.21,-0.13,-2.2,-0.05,12.71,971.24,43.56,27.0,0.0,-0.000230839,-0.000759133,0.00814927,32.8213782,-111.787045,365.940332,0.884931547,-0.452782325,-0.114030884,,,,,,,,,,,,,,2022-11-15 18:05:54.986744+00:00,1.1836083506020558,0.014733906900009652,2.204611772113626,-2.198488970274166,-0.1641929149653504,-0.04185073,364.27117371460326,0.23181524491024422,0.23624233773119188,,,,,,,,0.9567445823174665,-0.29092920823832136,,,,,,,,,,,,
2022-11-15 11:05:55.186609-07:00,5.454003,2.25,-0.17,-2.24,-0.11,12.65,971.24,43.8,25.0,0.0,0.000175803,0.000369646,0.0086195,32.8213782,-111.787045,365.941278,0.899130054,-0.451773688,-0.121540653,,,,,,,,,,,,,,2022-11-15 18:05:55.186609+00:00,1.1838568338107196,0.014737977470833035,2.246057480298373,-2.2366868816408116,-0.20495364915067724,-0.1013805,365.2355459056911,0.2327711742029321,0.23720512443411493,,,,,,,,0.9030680060884685,-0.42949758599949994,,,,,,,,,,,,
2022-11-15 11:05:55.387120-07:00,5.654514,2.27,-0.14,-2.26,-0.2,12.62,971.23,43.82,26.0,0.0,0.00050658,-0.000714107,0.00829491,32.8213782,-111.787045,365.940942,0.912981916,-0.450050274,-0.11112512,2.07878,-5.84276,5709.77,25.0741,11203.0,-0.31425,-1.0,14.0,-1348.0,71.0,,0.0,,2022-11-15 18:05:55.387120+00:00,1.1839689241362685,0.014739965642583867,2.265004773866025,-2.2581964539879196,-0.17548618416351014,-0.19170509000000002,364.4435686255646,0.233240905397232,0.2377290765365643,2.2297657709589815,364.86380218511766,-2.2214964919667612,-0.189346008135497,-0.081819766,0.2368782340885637,0.23235196040922199,0.8156179682153145,0.5785908138955562,-1.439771469798326,0.17573136320102503,,,,,,,,,,
2022-11-15 11:05:55.586229-07:00,5.853623,2.26,-0.21,-2.25,-0.02,12.67,971.24,43.75,28.0,0.0,0.00035215,0.000468429,0.00793953,32.8213782,-111.787045,365.935083,0.926681638,-0.454175567,-0.11970741,,,,,,,,,,,,,,2022-11-15 18:05:55.586229+00:00,1.1837739944829038,0.014736620362817277,2.259274741590695,-2.2458409747271886,-0.24600950027617646,-0.01206047,366.2512582408325,0.23296331898184117,0.23750459125609757,,,,,,,,0.799321097484272,-0.6009041380424491,,,,,,,,,,,,
2022-11-15 11:05:55.786346-07:00,6.05374,2.17,-0.12,-2.17,-0.07,12.63,971.24,43.74,27.0,0.0,-0.000525454,-0.000528337,0.00789796,32.8213782,-111.787045,365.936456,0.939441202,-0.456644771,-0.113793214,,,,,,,,,,,,,,2022-11-15 18:05:55.786346+00:00,1.183939684733374,0.014739334830013816,2.17388008692619,-2.168269179203719,-0.15608779212177076,-0.062102040000000004,364.117464438897,0.23096915855386055,0.23571004048484975,,,,,,,,0.7090386563056496,-0.7051696135429255,,,,,,,,,,,,
2022-11-15 11:05:55.986140-07:00,6.253534,2.24,-0.22,-2.22,-0.02,12.54,971.23,44.0,26.0,0.0,-0.00028867,-8.3223e-05,0.00776059,32.8213782,-111.787045,365.93548000000004,0.95480842,-0.456618747,-0.117744487,,,,,,,,,,,,,,2022-11-15 18:05:55.986140+00:00,1.1843004636158825,0.014745398059031122,2.230990204800735,-2.2161089436298274,-0.2572517130763462,-0.01223941,366.6214082865658,0.23216083775762847,0.23687516170501013,,,,,,,,0.27701563097098897,-0.9608654121143839,,,,,,,,,,,,
2022-11-15 11:05:56.185997-07:00,6.453391,1.84,0.0,-1.84,0.14,12.61,971.24,43.86,26.0,0.0,0.000110231,-0.000262047,0.0080962,32.8213782,-111.787045,365.936792,0.965704464,-0.459658189,-0.115106814,,,,,,,,,,,,,,2022-11-15 18:05:56.185997+00:00,1.1840225472533021,0.014740692440427453,1.8402601555248297,-1.8400006980502792,-0.03090099006108783,0.1480962,360.9621354458065,0.22338563127905328,0.22871317891300305,,,,,,,,0.9217668873100988,0.38774451054612186,,,,,,,,,,,,
2022-11-15 11:05:56.386988-07:00,6.654382,2.09,-0.04,-2.09,-0.11,12.74,971.24,43.44,28.0,0.0,-0.000179771,-0.000415763,0.00826199,32.8213782,-111.787045,365.93822600000004,0.975295568,-0.460961475,-0.112434044,2.07693,-5.40615,5705.35,25.0743,11197.0,0.0721832,-1.0,16.0,-1364.0,71.0,,0.0,,2022-11-15 18:05:56.386988+00:00,1.183484148109775,0.014731872461707983,2.0908047366324527,-2.0894321270446405,-0.07574848644302687,-0.10173801,362.07624294139174,0.22897694928619305,0.23403307436113102,2.042777634755142,362.6969338665348,-2.0388076066729903,-0.1008790618986191,-0.006171898,0.23301197708119176,0.22790243476953292,0.9178718383285366,-0.3968769184563305,0.7165616302679589,0.19956505190950832,,,,,,,,,,
2022-11-15 11:05:56.586716-07:00,6.85411,2.15,-0.08,-2.15,-0.11,12.96,971.24,42.82,28.0,0.0,-0.000237022,-0.000129691,0.00758774,32.8213782,-111.787045,365.936578,0.985206007,-0.4605648,-0.122729388,,,,,,,,,,,,,,2022-11-15 18:05:56.586716+00:00,1.1825741256967728,0.014716970479398897,2.1516302533797527,-2.148436313124121,-0.11719281423642304,-0.10241226,363.1222734862824,0.23038718974399958,0.23540048706791747,,,,,,,,0.4800106092402785,-0.8772626830184769,,,,,,,,,,,,
2022-11-15 11:05:56.786030-07:00,7.053424,1.9,0.01,-1.9,0.03,12.94,971.25,42.92,26.0,0.0,-0.000197756,-0.000174106,0.00743399,32.8213782,-111.787045,365.939996,0.998264569,-0.460932439,-0.114954615,,,,,,,,,,,,,,2022-11-15 18:05:56.786030+00:00,1.1826689739445133,0.014718371770832938,1.9002028234379382,-1.900059951516082,-0.02330130567621163,0.03743399,360.7026091726273,0.22460156578079019,0.2300379833588971,,,,,,,,0.6608005352474138,-0.7505615581794284,,,,,,,,,,,,
2022-11-15 11:05:56.985931-07:00,7.253325,2.2,-0.17,-2.19,-0.13,12.91,971.22,42.96,26.0,0.0,-0.000320886,-6.97694e-05,0.00674181,32.8213782,-111.787045,365.93840900000004,1.00949559,-0.460845873,-0.126037142,,,,,,,,,,,,,,2022-11-15 18:05:56.985931+00:00,1.1827564699634316,0.014720258971520675,2.1966882069758737,-2.1867347786746434,-0.2088781616197289,-0.12325819,365.4563709718534,0.2313081180128236,0.23635352698088982,,,,,,,,0.21246329885321533,-0.9771690471153951,,,,,,,,,,,,
2022-11-15 11:05:57.186120-07:00,7.453514,1.86,0.01,-1.85,0.18,12.73,971.23,43.52,28.0,0.0,-0.000290527,-0.000461396,0.00673086,32.8213782,-111.787045,365.93892800000003,1.02653995,-0.460016255,-0.114769586,,,,,,,,,,,,,,2022-11-15 18:05:57.186120+00:00,1.183513360327485,0.01473250263337042,1.8504920433566059,-1.8503436334111705,-0.02343588745609352,0.18673086,360.7256520466457,0.2234496969852204,0.22910297724246698,,,,,,,,0.8462176179528801,-0.5328374452552612,,,,,,,,,,,,
2022-11-15 11:05:57.386879-07:00,7.654273,1.46,0.2,-1.42,0.25,13.53,971.23,41.26,28.0,0.0,-0.000243428,-0.0010089,0.00636269,32.8213782,-111.787045,365.935938,1.04337364,-0.45890386,-0.120903443,2.07514,-5.42999,5689.87,25.0752,11138.0,0.142804,-1.0,18.0,-1358.0,71.0,,0.0,,2022-11-15 18:05:57.386879+00:00,1.1802106859579373,0.014678453807970835,1.4349872683369649,-1.4244153194784561,0.17386620696464306,0.25636269,353.04081912059024,0.21510010072831723,0.2214084844049789,1.6969709151554544,360.3360833425434,-1.6921808915225263,-0.026770266538791644,0.11218154200000001,0.22650000114904884,0.22059225550519046,0.9721040905197579,-0.23454986078604775,0.3708773069247551,0.21438316715448885,,,,,,,,,,
2022-11-15 11:05:57.586773-07:00,7.854167,1.64,-0.07,-1.64,-0.0,13.69,971.23,40.87,26.0,0.0,0.000125371,0.000254555,0.00549337,32.8213782,-111.787045,365.93120700000003,1.05506771,-0.460310816,-0.117515795,,,,,,,,,,,,,,2022-11-15 18:05:57.586773+00:00,1.1795523617710968,0.014667691834862842,1.6412314940408588,-1.6381784632615695,-0.10006067927788596,0.00549337,363.4953095744831,0.2190861965420552,0.22513102034022092,,,,,,,,0.897098582484844,-0.44183043501289443,,,,,,,,,,,,
2022-11-15 11:05:57.786741-07:00,8.054135,1.38,0.05,-1.36,0.23,13.59,971.22,41.03,26.0,0.0,5.60139e-05,-0.00053583,0.00557898,32.8213782,-111.787045,365.929071,1.06972847,-0.461180191,-0.116828906,,,,,,,,,,,,,,2022-11-15 18:05:57.786741+00:00,1.179951579123036,0.014674368681829385,1.3614555630669685,-1.361232262786792,0.024657188695107128,0.23557898000000002,358.96226499914445,0.2140171652575359,0.22050399677668733,,,,,,,,0.9945804175178417,0.1039701548043275,,,,,,,,,,,,
2022-11-15 11:05:57.986158-07:00,8.253552,1.2,0.14,-1.13,0.36,13.79,971.23,40.51,26.0,0.0,0.000428196,1.7137e-05,0.00554578,32.8213782,-111.787045,365.92901,1.0785557,-0.460676843,-0.123855919,,,,,,,,,,,,,,2022-11-15 18:05:57.986158+00:00,1.1791412819767946,0.014660973653045185,1.138667215882896,-1.1324179108210526,0.11913313467792537,0.36554578,353.9944344503559,0.210491837243566,0.2172823392693272,,,,,,,,0.03998937915582404,-0.9992001048612493,,,,,,,,,,,,
2022-11-15 11:05:58.186276-07:00,8.45367,1.07,0.3,-0.94,0.42,13.78,971.22,40.52,28.0,0.0,-1.69944e-06,-0.000724854,0.0064311,32.8213782,-111.787045,365.93111600000003,1.09400373,-0.461889562,-0.111594303,,,,,,,,,,,,,,2022-11-15 18:05:58.186276+00:00,1.1791702359381708,0.01466159775075924,0.9874058677938213,-0.9462813488812656,0.2819963767730393,0.4264311,343.40569123991395,0.20800526559739074,0.21508681698618293,,,,,,,,0.9999972516071728,-0.0023445208680665944,,,,,,,,,,,,
2022-11-15 11:05:58.387616-07:00,8.65501,1.27,0.73,-0.95,0.43,14.47,971.23,38.75,26.0,0.0,-0.000429593,0.000445046,0.00674726,32.8213782,-111.787045,365.93313,1.10528157,-0.466146049,-0.118036224,2.07641,-5.58808,5680.8,25.0756,11213.0,0.161181,-1.0,14.0,-1386.0,71.0,,0.0,,2022-11-15 18:05:58.387616+00:00,1.176353520097425,0.014615453575054465,1.1974686110314299,-0.963459607791475,0.7111094561035165,0.43674725999999997,323.56973829154737,0.20808747388373347,0.2153268720310222,1.368180862061401,337.9759021683112,-1.2443790569722377,0.5199893248540953,0.42030389799999995,0.21945383134262092,0.2125166631813035,0.7194875588382824,0.6945053294805801,-0.4901020369999979,0.1530126464246218,,,,,,,,,,
2022-11-15 11:05:58.586130-07:00,8.853524,1.59,0.77,-1.32,0.45,13.86,971.24,40.28,26.0,0.0,0.000126405,-0.000124647,0.00647247,32.8213782,-111.787045,365.93343500000003,1.11685051,-0.467595148,-0.110708651,,,,,,,,,,,,,,2022-11-15 18:05:58.586130+00:00,1.1788658343023017,0.01465632201228378,1.5283392623449923,-1.3348823201974822,0.7442513634850944,0.45647247,330.85854972772444,0.21322934846258998,0.22025659495328279,,,,,,,,0.7021380277523734,0.7120408625802365,,,,,,,,,,,,
2022-11-15 11:05:58.786263-07:00,9.053657,2.04,0.78,-1.83,0.41,12.86,971.24,43.04,26.0,0.0,-0.000336753,0.000158614,0.00632288,32.8213782,-111.787045,365.93471700000003,1.12894223,-0.467492541,-0.114245875,,,,,,,,,,,,,,2022-11-15 18:05:58.786263+00:00,1.1829875986962122,0.014723740350569068,1.9890233532538655,-1.844854097169914,0.7434562932309013,0.41632287999999995,338.05109713201426,0.22276939071923726,0.22931653347328945,,,,,,,,0.4261093246412294,0.9046716771590649,,,,,,,,,,,,
2022-11-15 11:05:58.986718-07:00,9.254112,1.94,0.68,-1.77,0.41,13.37,971.23,41.73,27.0,0.0,-0.000163515,-3.31988e-05,0.00520738,32.8213782,-111.787045,365.933801,1.13822044,-0.465639751,-0.112183034,,,,,,,,,,,,,,2022-11-15 18:05:58.986718+00:00,1.1808697453944625,0.014689231665982174,1.896103263835966,-1.7831917323567734,0.6445423436701828,0.41520737999999996,340.12739189619015,0.22148254300249515,0.22811833187431094,,,,,,,,0.19897252407728402,-0.9800050686921545,,,,,,,,,,,,
2022-11-15 11:05:59.186288-07:00,9.453682,1.79,0.53,-1.67,0.39,13.73,971.23,40.71,27.0,0.0,-0.000360537,-0.00114043,0.00489613,32.8213782,-111.787045,365.93783,1.14824342,-0.466845782,-0.104496776,,,,,,,,,,,,,,2022-11-15 18:05:59.186288+00:00,1.1793878954629862,0.014665003819598054,1.7530761435826057,-1.6814259048883646,0.49606742643395274,0.39489613,343.5624742012894,0.21942837258804998,0.22618845951681055,,,,,,,,0.9534862927987994,-0.30143637710933674,,,,,,,,,,,,
2022-11-15 11:05:59.387140-07:00,9.654534,1.61,0.42,-1.49,0.45,13.95,971.24,40.05,26.0,0.0,-0.000872614,0.000203649,0.00483783,32.8213782,-111.787045,365.932764,1.15864429,-0.465415465,-0.111861207,2.07497,-6.20371,5697.41,25.0767,11198.0,0.277503,-1.0,17.0,-1384.0,71.0,,0.0,,2022-11-15 18:05:59.387140+00:00,1.1784962838840252,0.01465028478711346,1.5476467070799047,-1.4979844316980346,0.38891255100033567,0.45483783,345.445970455541,0.2160030862253531,0.22299944041017347,1.7850097657467536,344.35423667628066,-1.7058638333194662,0.45718115043851426,0.38887301399999996,0.22696814485917294,0.22021177497816127,0.22727096243199096,0.9738315612236217,-1.5573200399704819,0.2091661718161708,,,,,,,,,,
2022-11-15 11:05:59.586159-07:00,9.853553,1.68,0.73,-1.43,0.49,13.76,971.23,40.53,25.0,0.0,-0.000167251,-0.000823524,0.00454319,32.8213782,-111.787045,365.931635,1.17178057,-0.462698948,-0.0998597441,,,,,,,,,,,,,,2022-11-15 18:05:59.586159+00:00,1.1792645758266407,0.014662988457957314,1.6062209458344754,-1.4454529803367366,0.7004365841909188,0.49454318999999997,334.14613241686084,0.2149084437301801,0.22215544965831469,,,,,,,,0.9799936594279128,-0.19902871019299692,,,,,,,,,,,,
2022-11-15 11:05:59.786770-07:00,10.054164,2.13,0.1,-2.12,0.18,12.99,971.24,42.67,27.0,0.0,-0.000292233,0.000347809,0.00488054,32.8213782,-111.787045,365.934686,1.18220484,-0.462707837,-0.108352585,,,,,,,,,,,,,,2022-11-15 18:05:59.786770+00:00,1.1824501401520362,0.014714940737750393,2.1220017684008172,-2.1212641173174216,0.05594684689718149,0.18488053999999998,358.489214411522,0.22923642934472802,0.23537904283625494,,,,,,,,0.7656252411193765,0.6432868645953348,,,,,,,,,,,,
2022-11-15 11:05:59.986490-07:00,10.253884,1.97,0.09,-1.97,0.07,12.88,971.23,42.98,27.0,0.0,-0.000254023,-0.000853347,0.00614225,32.8213782,-111.787045,365.941553,1.19455294,-0.460413797,-0.0996901564,,,,,,,,,,,,,,2022-11-15 18:05:59.986490+00:00,1.1828927016411617,0.014722338031399506,1.9729015693424505,-1.9723014702065147,0.0486570954242497,0.07614225000000001,358.5867876282286,0.22569729206067127,0.23212915912480692,,,,,,,,0.9584365150806369,-0.2853058824491429,,,,,,,,,,,,
2022-11-15 11:06:00.186852-07:00,10.454246,1.71,0.16,-1.69,0.17,13.37,971.24,41.62,26.0,0.0,-0.000269451,-1.02083e-05,0.00566882,32.8213782,-111.787045,365.939111,1.20500969,-0.458850437,-0.10679736,,,,,,,,,,,,,,2022-11-15 18:06:00.186852+00:00,1.1808819038918876,0.014689279290924296,1.697547520802421,-1.6930012361273206,0.12415474156797596,0.17566882,355.8057728594473,0.21967814030058994,0.2266000030569551,,,,,,,,0.037858392856170604,-0.9992831140824646,,,,,,,,,,,,
2022-11-15 11:06:00.387270-07:00,10.654664,1.47,0.12,-1.46,0.14,13.21,971.24,42.06,26.0,0.0,-0.000691404,-0.000145974,0.00528977,32.8213782,-111.787045,365.941187,1.21449017,-0.459211263,-0.105938656,2.07422,-5.3832,5748.94,25.0774,11138.0,0.223163,-1.0,16.0,-1348.0,71.0,,0.0,,2022-11-15 18:06:00.387270+00:00,1.181541706603938,0.014700073139563737,1.4650270583353178,-1.462361424294657,0.08833655183182418,0.14528977,356.54314675678313,0.21531281454047477,0.22257678526479582,1.5839344514277218,356.44377168004814,-1.580726743202621,0.09416144377268656,0.18987719200000003,0.22484221129703172,0.2177349310506102,0.2065731608840595,-0.9784311571093638,1.5660835234989872,0.20866434378526405,,,,,,,,,,
2022-11-15 11:06:00.586271-07:00,10.853665,1.34,0.15,-1.32,0.2,13.41,971.24,41.46,26.0,0.0,-0.000563886,-0.000812896,0.00612406,32.8213782,-111.787045,365.93978300000003,1.22711277,-0.456904014,-0.1054191,,,,,,,,,,,,,,2022-11-15 18:06:00.586271+00:00,1.1807170683385804,0.014686583317492464,1.3292533648701665,-1.323722497221407,0.12113322570039278,0.20612406,354.7714522149953,0.21290768063706386,0.2204270248578772,,,,,,,,0.8216658829473832,-0.5699694525150424,,,,,,,,,,,,
2022-11-15 11:06:00.786732-07:00,11.054126,1.49,0.12,-1.45,0.34,14.05,971.23,39.83,28.0,0.0,-0.000193108,2.54261e-06,0.00616106,32.8213782,-111.787045,365.939386,1.23505321,-0.456436257,-0.10985643,,,,,,,,,,,,,,2022-11-15 18:06:00.786732+00:00,1.1780738142424145,0.014643535297818701,1.4549427437882536,-1.4522470881632052,0.08852560433899015,0.34616106,356.51169894078623,0.21507872771425127,0.22247808418072357,,,,,,,,0.013165635965920446,0.9999133292588978,,,,,,,,,,,,
2022-11-15 11:06:00.986420-07:00,11.253814,1.47,0.26,-1.44,0.13,14.17,971.23,39.52,27.0,0.0,-0.000325535,-0.00153906,0.00629282,32.8213781,-111.787045,365.939325,1.24506332,-0.459485648,-0.105332435,,,,,,,,,,,,,,2022-11-15 18:06:00.986420+00:00,1.1775817884255235,0.014635500883939617,1.4647533731273208,-1.4468485537499884,0.22832368821353394,0.13629282,351.0322449543945,0.21487517610644077,0.2223964656991224,,,,,,,,0.9783542572974933,-0.2069370610303297,,,,,,,,,,,,
2022-11-15 11:06:01.186054-07:00,11.453448,1.61,1.06,-1.14,0.42,14.16,971.23,39.49,26.0,0.0,-0.000113866,-0.000188355,0.00579211,32.8213781,-111.787045,365.938196,1.25682817,-0.463471737,-0.114704393,,,,,,,,,,,,,,2022-11-15 18:06:01.186054+00:00,1.1776227748787769,0.014636170079878132,1.5567281424860027,-1.163164166443533,1.0346263245779324,0.42579211,318.34713254655577,0.2100885354958287,0.21825577229401708,,,,,,,,0.8557783897356478,-0.5173425824939039,,,,,,,,,,,,
2022-11-15 11:06:01.387568-07:00,11.654962,1.64,0.79,-1.38,0.41,13.9,971.23,40.23,26.0,0.0,-0.000373377,-0.00118638,0.00508003,32.821378,-111.787045,365.93898900000005,1.27048132,-0.462127759,-0.10282211,2.07729,-5.7767,5780.51,25.0778,11179.0,0.230565,-1.0,16.0,-1347.0,71.0,,0.0,,2022-11-15 18:06:01.387568+00:00,1.178689425014532,0.014653590794530463,1.5909901855640296,-1.3983632172352545,0.7588346876919464,0.41508003,331.5131212072233,0.21377260643132814,0.2217061183904638,1.5625508400644121,332.6710334226251,-1.3629255911171798,0.7117360982926652,0.381146914,0.22122160262554727,0.21328896032697275,0.9538752703672356,-0.3002032121444291,1.0880621035562594,0.20220041297054558,,,,,,,,,,
2022-11-15 11:06:01.586305-07:00,11.853699,1.6,0.79,-1.3,0.49,13.77,971.25,40.56,28.0,0.0,-6.48318e-05,-0.000263522,0.00460097,32.821378,-111.787045,365.939111,1.28083277,-0.460399959,-0.111090862,,,,,,,,,,,,,,2022-11-15 18:06:01.586305+00:00,1.179247758106043,0.014662411688516064,1.5214124114856735,-1.3175974887479076,0.7606790278874921,0.49460097,330.001181837164,0.2124289305473472,0.22051350552579096,,,,,,,,0.9710449357331437,-0.23889690828266266,,,,,,,,,,,,
2022-11-15 11:06:01.786122-07:00,12.053516,1.74,0.81,-1.47,0.43,13.85,971.23,40.36,28.0,0.0,-0.000493291,-0.000796508,0.00396864,32.821378,-111.787045,365.93779900000004,1.28964464,-0.460364741,-0.107977938,,,,,,,,,,,,,,2022-11-15 18:06:01.786122+00:00,1.178894771604256,0.01465694571250903,1.678870087659034,-1.4886545294092166,0.7762167630924209,0.43396864,332.461486567788,0.21527955305391894,0.22323615121834206,,,,,,,,0.8501626095357401,-0.5265202155163473,,,,,,,,,,,,
2022-11-15 11:06:01.985934-07:00,12.253328,2.0,0.86,-1.75,0.44,13.42,971.23,41.51,26.0,0.0,-0.000266506,-0.000500339,0.00393352,32.821378,-111.787045,365.939478,1.30352951,-0.460369206,-0.110002232,,,,,,,,,,,,,,2022-11-15 18:06:01.985934+00:00,1.1806637102642337,0.014685861876900224,1.950239364757257,-1.7696115267885342,0.8197003257934828,0.44393352,335.1459941875987,0.22064691276874004,0.22835023221087372,,,,,,,,0.8826029275156912,-0.47011921077608765,,,,,,,,,,,,
2022-11-15 11:06:02.186588-07:00,12.453982,2.37,0.9,-2.15,0.44,13.07,971.23,42.45,26.0,0.0,-0.000244116,-0.000555951,0.00447287,32.8213781,-111.787045,365.939661,1.31351679,-0.458471374,-0.107430748,,,,,,,,,,,,,,2022-11-15 18:06:02.186588+00:00,1.1821074678583658,0.014709483083823085,2.331200986273371,-2.170621860182651,0.850234543228599,0.44447287,338.60967647537626,0.2296792328317763,0.23686776483670782,,,,,,,,0.9156198098371949,-0.4020452261048488,,,,,,,,,,,,
2022-11-15 11:06:02.387579-07:00,12.654973,2.33,0.82,-2.12,0.47,13.11,971.24,42.3,27.0,0.0,-0.000159024,-0.000922435,0.00412841,32.8213781,-111.787045,365.93813500000005,1.32743353,-0.459381766,-0.105593584,2.07636,-5.64182,5805.41,25.0784,11218.0,0.256718,-1.0,13.0,-1363.0,71.0,,0.0,,2022-11-15 18:06:02.387579+00:00,1.181954457846376,0.014706827394231075,2.2738735424233165,-2.1393496254156905,0.7705089663115585,0.47412841,340.1929894206414,0.22891846419383627,0.23618840109390413,2.1142115530531385,337.2762773638625,-1.9517127156213703,0.8088467033232962,0.438638548,0.23232961105093386,0.2247688208550347,0.9854630701512216,-0.1698897800579202,1.1286645995318305,0.22571723624489037,,,,,,,,,,
2022-11-15 11:06:02.586242-07:00,12.853636,2.27,0.88,-2.06,0.37,13.41,971.24,41.47,29.0,0.0,-5.17235e-05,0.00044487,0.00550395,32.8213781,-111.787045,365.93941700000005,1.33938795,-0.458758894,-0.110535021,,,,,,,,,,,,,,2022-11-15 18:06:02.586242+00:00,1.1807170683385804,0.014686583317492464,2.2396570067726436,-2.0795619385488373,0.8315561627002702,0.37550395,338.20497077837865,0.22745410446129757,0.23491600188238138,,,,,,,,0.9933088070057577,0.11548858785524337,,,,,,,,,,,,
2022-11-15 11:06:02.786596-07:00,13.05399,1.83,0.81,-1.58,0.45,13.72,971.23,40.7,26.0,0.0,-0.0003501,-0.000789667,0.00515399,32.8213781,-111.787045,365.940942,1.34882162,-0.455705607,-0.10515479,,,,,,,,,,,,,,2022-11-15 18:06:02.786596+00:00,1.1794290077401661,0.014665675730567916,1.7760868650391042,-1.5994186271711404,0.7722335185825708,0.45515399,334.22775595731713,0.21714539001952338,0.22532565523080236,,,,,,,,0.9141820073280654,-0.4053039075528744,,,,,,,,,,,,
2022-11-15 11:06:02.986198-07:00,13.253592,2.0,0.52,-1.89,0.4,13.38,971.24,41.6,26.0,0.0,-0.000361694,-0.000182719,0.0054494,32.8213781,-111.787045,365.938684,1.35837044,-0.45562405,-0.119590162,,,,,,,,,,,,,,2022-11-15 18:06:02.986198+00:00,1.1808406906889457,0.014688605204310238,1.9603192360724915,-1.901978610982103,0.4746881825813939,0.4054494,345.98662408421717,0.22351196036434756,0.231166609503424,,,,,,,,0.4509054858053546,-0.8925717018092367,,,,,,,,,,,,
2022-11-15 11:06:03.186045-07:00,13.453439,2.01,0.33,-1.97,0.27,13.36,971.22,41.56,26.0,0.0,-0.000196183,-0.000569739,0.0037062,32.8213781,-111.787045,365.93618200000003,1.36490483,-0.456040111,-0.119108313,,,,,,,,,,,,,,2022-11-15 18:06:03.186045+00:00,1.1808988021281606,0.014689858181247921,1.9979845901585105,-1.9778713301191155,0.2827851198413943,0.2737062,351.8633094339722,0.22529821351301704,0.23276457998110042,,,,,,,,0.9455154439986203,-0.3255772491438736,,,,,,,,,,,,
2022-11-15 11:06:03.387795-07:00,13.655189,1.85,0.34,-1.8,0.29,13.12,971.22,42.32,28.0,0.0,-3.1481e-05,-0.000596003,0.0038763,32.8213781,-111.787045,365.94149200000004,1.37732239,-0.456139044,-0.118931728,2.07451,-6.67404,5830.75,25.0795,11181.0,0.306443,-1.0,17.0,-1373.0,71.0,,0.0,,2022-11-15 18:06:03.387795+00:00,1.1818888315147913,0.0147060562150414,1.8324127296719233,-1.8082483585209606,0.2966045949913117,0.2938763,350.68480078211655,0.22151052944599972,0.22932810918955424,1.9594765118151394,350.9107654055263,-1.924683537310458,0.3156274998337803,0.29215852600000003,0.23173239835183565,0.22408401231944036,0.9986079252415824,-0.052746674252527714,0.41670877833991676,0.23108851077181494,,,,,,,,,,
2022-11-15 11:06:03.586650-07:00,13.854044,2.19,0.6,-2.07,0.39,13.15,971.24,42.17,27.0,0.0,-0.000364213,-0.000618091,0.00419295,32.8213781,-111.787045,365.93807400000003,1.3869249,-0.452497937,-0.12409076,,,,,,,,,,,,,,2022-11-15 18:06:03.586650+00:00,1.1817893227492269,0.014704124944000646,2.155707814718643,-2.0845340875252143,0.5493576434204303,0.39419295,345.23597609212925,0.22758493245697103,0.23514361739641046,,,,,,,,0.8615501650273206,-0.5076724467029865,,,,,,,,,,,,
2022-11-15 11:06:03.786136-07:00,14.05353,1.86,0.02,-1.85,0.09,13.31,971.22,41.78,26.0,0.0,0.000130125,-0.000851947,0.00356778,32.8213781,-111.787045,365.936639,1.40689639,-0.454014226,-0.114414029,,,,,,,,,,,,,,2022-11-15 18:06:03.786136+00:00,1.1811049214471105,0.014693229813654472,1.85095818845413,-1.850785299404898,-0.025298041665628775,0.09356778,360.7831166351963,0.22251442581686626,0.23025907568868925,,,,,,,,0.9885356971264696,0.15098733558376612,,,,,,,,,,,,
2022-11-15 11:06:03.986679-07:00,14.254073,1.7,0.42,-1.61,0.34,13.56,971.22,41.12,26.0,0.0,0.000204869,-0.000410272,0.00334132,32.8213781,-111.787045,365.934137,1.4172571,-0.454492166,-0.121630859,,,,,,,,,,,,,,2022-11-15 18:06:03.986679+00:00,1.180075043764568,0.014676387189155388,1.664327229573858,-1.6203057276090116,0.38025580360913014,0.34334132,346.7927428594959,0.21753769901098485,0.22591637909652604,,,,,,,,0.8946599632219291,0.446747747848533,,,,,,,,,,,,
2022-11-15 11:06:04.186707-07:00,14.454101,2.11,0.91,-1.83,0.54,13.4,971.22,41.56,29.0,0.0,6.81102e-05,-0.00218823,0.00368699,32.821378,-111.787045,365.936792,1.43350873,-0.453458448,-0.113879752,,,,,,,,,,,,,,2022-11-15 18:06:04.186707+00:00,1.1807339584635814,0.014687161994828283,2.045783108065048,-1.854380816517268,0.8640024957007011,0.54368699,335.01800856171076,0.22201417235310805,0.23038503433261606,,,,,,,,0.9995159469527827,0.03111063784434724,,,,,,,,,,,,
2022-11-15 11:06:04.386955-07:00,14.654349,1.98,0.88,-1.66,0.63,13.24,971.22,41.97,29.0,0.0,7.02097e-05,-0.000963417,0.0036537,32.821378,-111.787045,365.938165,1.44507702,-0.453114639,-0.120152627,2.07909,-5.91423,5823.29,25.0801,11181.0,0.262764,-1.0,17.0,-1373.0,71.0,,0.0,,2022-11-15 18:06:04.386955+00:00,1.1813936094058426,0.014697952713080059,1.879723084075796,-1.6826279049208603,0.8379273276299432,0.6336537,333.52727843848953,0.2184479339330913,0.2271273678448043,1.9158309786885326,335.5010976779272,-1.7298545060671446,0.8007057150921592,0.539799424,0.22805674824499209,0.21947190150946633,0.9973550956931059,0.07268296289362229,0.6728569742219135,0.2268549299414605,,,,,,,,,,
2022-11-15 11:06:04.586133-07:00,14.853527,2.12,0.97,-1.83,0.46,13.12,971.22,42.17,27.0,0.0,-0.000146352,-0.00121677,0.00414305,32.8213779,-111.787045,365.941095,1.45453389,-0.456187479,-0.108040437,,,,,,,,,,,,,,2022-11-15 18:06:04.586133+00:00,1.1818888315147913,0.0147060562150414,2.072207308536789,-1.8552492803944483,0.9230889649157152,0.46414305,333.54711880672846,0.22196195637837235,0.23048564239287322,,,,,,,,0.9928440206619263,-0.1194183848319027,,,,,,,,,,,,
2022-11-15 11:06:04.786612-07:00,15.054006,2.05,1.04,-1.61,0.71,13.2,971.22,41.97,27.0,0.0,-0.000120227,-0.000570379,0.00417206,32.8213779,-111.787045,365.94149200000004,1.46934667,-0.455636442,-0.113353306,,,,,,,,,,,,,,2022-11-15 18:06:04.786612+00:00,1.1815586373240414,0.014700652883003347,1.9171141631911703,-1.6367088008941357,0.9982539836053058,0.71417206,328.6203397232111,0.21739774587177516,0.226369317558141,,,,,,,,0.978498844543394,-0.2062522999320079,,,,,,,,,,,,
2022-11-15 11:06:04.986298-07:00,15.253692,2.43,1.11,-2.07,0.61,13.22,971.21,41.93,28.0,0.0,-0.000118319,-0.000816567,0.00436773,32.8213779,-111.787045,365.94030200000003,1.48184677,-0.454444589,-0.107097055,,,,,,,,,,,,,,2022-11-15 18:06:04.986298+00:00,1.18146395273617,0.014699254982144463,2.3495057147194807,-2.0988291402246313,1.055979802668324,0.61436773,333.2917492618563,0.22737190054730977,0.23573770969178579,,,,,,,,0.989664734936484,-0.1434005314603082,,,,,,,,,,,,
2022-11-15 11:06:05.186739-07:00,15.454133,2.34,0.88,-2.12,0.44,13.09,971.21,42.27,29.0,0.0,4.55752e-05,-0.000767995,0.00388189,32.8213779,-111.787045,365.94072900000003,1.49178907,-0.455923038,-0.105981598,,,,,,,,,,,,,,2022-11-15 18:06:05.186739+00:00,1.1820005315296853,0.014708035744362044,2.2961197988033217,-2.1429591017275533,0.8245558918470267,0.44388189,338.9545504947954,0.22855817974193066,0.2367582017566812,,,,,,,,0.9982438355832434,0.05923887845034322,,,,,,,,,,,,
2022-11-15 11:06:05.387478-07:00,15.654872,2.45,1.1,-2.09,0.65,12.96,971.22,42.66,27.0,0.0,0.000127836,-2.49703e-05,0.00273988,32.8213779,-111.787045,365.93786,1.50125691,-0.456126705,-0.111190887,2.07631,-5.97109,5789.14,25.0808,11136.0,0.325948,-1.0,19.0,-1328.0,71.0,,0.0,,2022-11-15 18:06:05.387478+00:00,1.182549773855298,0.014716874862948408,2.361879111935241,-2.118126344617255,1.0449946065096933,0.65273988,333.74020315863163,0.22780926093731022,0.23624367589357906,2.375609788130672,333.44693248507366,-2.12092096337721,1.0627794533260055,0.6254545900000001,0.23631441656066227,0.2278730808085073,0.191707752633934,0.9814520556705999,-1.877839178878782,0.2196700751674762,,,,,,,,,,
2022-11-15 11:06:05.586126-07:00,15.85352,2.62,1.29,-2.18,0.67,12.79,971.21,43.19,26.0,0.0,0.000313007,2.90899e-06,0.00319682,32.821378,-111.787045,365.94390300000003,1.51081216,-0.455530178,-0.0953434417,,,,,,,,,,,,,,2022-11-15 18:06:05.586126+00:00,1.1832406523923098,0.014728339332211748,2.533230845628321,-2.2132508642501083,1.2323875726162308,0.67319682,330.88996164628844,0.22999732030359124,0.238442329916626,,,,,,,,0.009293288583059174,-0.999956816461247,,,,,,,,,,,,
2022-11-15 11:06:05.786272-07:00,16.053666,2.45,1.21,-2.0,0.74,12.99,971.23,42.62,27.0,0.0,-0.000520101,-3.37147e-05,0.00308663,32.821378,-111.787045,365.942651,1.5206474,-0.453872204,-0.102419408,,,,,,,,,,,,,,2022-11-15 18:06:05.786272+00:00,1.1824379655078683,0.014714892942811385,2.337313469566997,-2.0314393660665013,1.1559793929887525,0.74308663,330.3581978637965,0.22562874251239462,0.23439016554463946,,,,,,,,0.06468760242523527,-0.9979055637145605,,,,,,,,,,,,
2022-11-15 11:06:05.985939-07:00,16.253333,2.21,1.07,-1.81,0.7,13.12,971.22,42.27,28.0,0.0,-0.000353636,0.000889094,0.00292335,32.821378,-111.787045,365.94173600000005,1.53412683,-0.455157368,-0.100904491,,,,,,,,,,,,,,2022-11-15 18:06:05.985939+00:00,1.1818888315147913,0.0147060562150414,2.1016684737092324,-1.837108552972682,1.0208048481359762,0.70292335,330.9408921310332,0.2213314619257784,0.2304053164963682,,,,,,,,0.9291962780376563,0.3695866297378283,,,,,,,,,,,,
2022-11-15 11:06:06.186394-07:00,16.453788,2.63,1.06,-2.36,0.47,13.06,971.21,42.48,27.0,0.0,-0.000229917,0.000340236,0.00285964,32.821378,-111.787045,365.94173600000005,1.54526808,-0.452917415,-0.0936037888,,,,,,,,,,,,,,2022-11-15 18:06:06.186394+00:00,1.1821244266275013,0.014710063571464455,2.586719429191483,-2.387386256695757,0.9957430726331628,0.47285963999999997,337.3597134732127,0.23455946302970862,0.2427131015442496,,,,,,,,0.8285575498129123,0.5599039084057401,,,,,,,,,,,,
2022-11-15 11:06:06.386952-07:00,16.654346,2.62,1.13,-2.32,0.46,12.98,971.22,42.55,26.0,0.0,-0.000274953,-0.000528519,0.00253745,32.8213779,-111.787045,365.93761600000005,1.55114603,-0.451990508,-0.104155646,2.07532,-5.57767,5755.06,25.0816,11211.0,0.290279,-1.0,17.0,-1366.0,71.0,,0.0,,2022-11-15 18:06:06.386952+00:00,1.1824671156388329,0.014715521657274952,2.580929577866772,-2.3502666841002293,1.0665101966301431,0.46253745,335.59227825211826,0.23349405062470763,0.2418014142786723,2.4820360885299175,336.2015969054378,-2.2716267973685382,0.992700992734709,0.48433369400000004,0.24012940566214747,0.2317393141826809,0.8871321962868809,-0.46151540203032776,1.9290477665913162,0.19532238214252637,,,,,,,,,,
2022-11-15 11:06:06.586024-07:00,16.853418,2.64,1.07,-2.38,0.38,12.89,971.22,42.95,26.0,0.0,0.00017482,-8.11612e-05,0.00151289,32.8213779,-111.787045,365.93444200000005,1.56034485,-0.449770721,-0.0929859093,,,,,,,,,,,,,,2022-11-15 18:06:06.586024+00:00,1.182839168639838,0.014721613052882186,2.6096057686192617,-2.408334532740404,1.004971166761011,0.38151289,337.34976633893626,0.2350624188292687,0.24326279232714984,,,,,,,,0.421088989541945,0.9070193288384453,,,,,,,,,,,,
2022-11-15 11:06:06.786232-07:00,17.053626,2.56,0.94,-2.35,0.4,13.24,971.21,41.99,28.0,0.0,0.000159343,-0.00018611,0.00183514,32.8213779,-111.787045,365.93206200000003,1.56867116,-0.448389953,-0.106180521,,,,,,,,,,,,,,2022-11-15 18:06:06.786232+00:00,1.181381445389354,0.014697905030743075,2.5312571932628405,-2.37503796033362,0.8754756795132527,0.40183514000000004,339.7653343318884,0.2342491765039412,0.24246440366429722,,,,,,,,0.7596192151080452,0.6503680865776221,,,,,,,,,,,,
2022-11-15 11:06:06.986810-07:00,17.254204,2.36,0.54,-2.27,0.38,13.29,971.22,41.86,28.0,0.0,-0.000227956,0.000287839,0.00186961,32.8213778,-111.787045,365.93725,1.57763321,-0.447282203,-0.0924310691,,,,,,,,,,,,,,2022-11-15 18:06:06.986810+00:00,1.1811873893232065,0.014694578902195372,2.333016861530273,-2.2837186559096816,0.47707103961008057,0.38186961,348.20054436378325,0.23214141372424416,0.24029854859916722,,,,,,,,0.7839351940919599,0.6208426624065079,,,,,,,,,,,,
2022-11-15 11:06:07.186341-07:00,17.453735,2.76,1.15,-2.48,0.38,12.83,971.22,43.07,27.0,0.0,-3.95321e-05,-3.05998e-05,0.00264157,32.8213779,-111.787045,365.938715,1.58710286,-0.448404445,-0.104647428,,,,,,,,,,,,,,2022-11-15 18:06:07.186341+00:00,1.1830873340714012,0.014725676799327743,2.7336730254992445,-2.510930331781432,1.080831660936235,0.38264157,336.71050629643173,0.23772362044901693,0.24591954763309978,,,,,,,,0.6121019406989153,-0.7907788655449901,,,,,,,,,,,,
2022-11-15 11:06:07.387744-07:00,17.655138,2.43,1.09,-2.1,0.57,13.02,971.23,42.54,26.0,0.0,-0.000198505,0.000316707,0.00222405,32.8213779,-111.787045,365.936884,1.59743934,-0.452842663,-0.104225683,2.07701,-6.44122,5720.15,25.0816,11161.0,0.289371,-1.0,19.0,-1351.0,71.0,,0.0,,2022-11-15 18:06:07.387744+00:00,1.1823140072349354,0.014712863777147507,2.365658874246953,-2.1292530439683266,1.0308362547247631,0.57222405,334.1669620819938,0.2278380077147062,0.2367846251773768,2.365442970708199,339.652256731886,-2.205891363810998,0.8285668054242953,0.4623627900000001,0.23872924230719206,0.2300588011781969,0.8473204931918845,0.5310818974669176,-0.46944733688409346,0.18326767462014684,,,,,,,,,,
2022-11-15 11:06:07.585920-07:00,17.853314,2.51,1.03,-2.23,0.53,13.07,971.22,42.33,27.0,0.0,-0.000592396,-0.000198268,0.0025969,32.8213779,-111.787045,365.94173600000005,1.61187781,-0.454731625,-0.11224612,,,,,,,,,,,,,,2022-11-15 18:06:07.585920+00:00,1.1820952966170752,0.014709435325075676,2.4563286161167195,-2.2582885987383245,0.966272671228144,0.5325969,336.83496915958756,0.23104537366320782,0.23978500485629833,,,,,,,,0.31738393632927964,-0.9482971248296241,,,,,,,,,,,,
2022-11-15 11:06:07.786105-07:00,18.053499,1.99,0.64,-1.83,0.44,13.37,971.22,41.52,28.0,0.0,-0.000120921,0.00011646,0.00248182,32.8213779,-111.787045,365.94259,1.62203885,-0.458515097,-0.109305391,,,,,,,,,,,,,,2022-11-15 18:06:07.786105+00:00,1.180857586897038,0.014689184041375999,1.9385374761478062,-1.8472661886572268,0.5878224006222537,0.44248182,342.3483017576335,0.22154559033980936,0.23085848527001818,,,,,,,,0.6936959423945974,0.7202679636810674,,,,,,,,,,,,
2022-11-15 11:06:07.986209-07:00,18.253603,2.59,-0.08,-2.59,-0.07,13.18,971.23,42.1,27.0,0.0,-0.000252202,-0.00117241,0.00317523,32.8213778,-111.787045,365.944543,1.62923768,-0.459257615,-0.11094542,,,,,,,,,,,,,,2022-11-15 18:06:07.986209+00:00,1.18165333513925,0.01470205105139292,2.592420531634973,-2.5878508295405798,-0.153858041352051,-0.06682477,363.4024571452825,0.24072777165551595,0.247993713618178,,,,,,,,0.9776361716163096,-0.21030339024230138,,,,,,,,,,,,
2022-11-15 11:06:08.186080-07:00,18.453474,2.5,0.11,-2.49,0.09,12.7,971.22,43.43,26.0,0.0,-0.000631368,-0.000444763,0.00275788,32.8213778,-111.787045,365.945337,1.63403225,-0.455629343,-0.111933371,,,,,,,,,,,,,,2022-11-15 18:06:08.186080+00:00,1.183625383235051,0.014734489321497958,2.4928634578717417,-2.4925689058221945,0.03832061221594125,0.09275788,359.1192073429295,0.237915066708052,0.24557485491094583,,,,,,,,0.5758977576896275,-0.817521726126015,,,,,,,,,,,,
2022-11-15 11:06:08.387297-07:00,18.654691,2.6,0.04,-2.59,-0.19,12.74,971.22,43.39,26.0,0.0,0.000155348,-0.000190163,0.00234871,32.8213777,-111.787045,365.943231,1.64134602,-0.457652729,-0.0976116413,2.07451,-6.08203,5700.42,25.0828,11146.0,0.321513,-1.0,16.0,-1328.0,71.0,,0.0,,2022-11-15 18:06:08.387297+00:00,1.183459777528907,0.014731776647618195,2.590496961952996,-2.590273220102792,-0.03404636700168357,-0.18765129,360.753048287155,0.24070741104764082,0.24811655200913985,2.541335666079947,361.06324786085554,-2.5399578591817367,-0.04908079812870646,-0.061575943999999994,0.24685902632503134,0.23934265349035838,0.7744359174589204,0.6326523608978001,-1.6449202691206686,0.17634333231558322,,,,,,,,,,
2022-11-15 11:06:08.586010-07:00,18.853404,2.35,0.07,-2.35,0.03,12.73,971.23,43.3,29.0,0.0,2.80916e-05,0.000555644,0.00253888,32.8213777,-111.787045,365.940576,1.64861165,-0.454126974,-0.0955961724,,,,,,,,,,,,,,2022-11-15 18:06:08.586010+00:00,1.183513360327485,0.01473250263337042,2.350486706714517,-2.3504854913732087,0.002390248041746546,0.03253888,359.9417349828041,0.234093356552006,0.24211384065831634,,,,,,,,0.9987244481081008,-0.050492343490567505,,,,,,,,,,,,
2022-11-15 11:06:08.786700-07:00,19.054094,2.69,-0.02,-2.68,-0.18,12.84,971.23,43.04,28.0,0.0,-0.000629225,-0.000313273,0.00129958,32.8213776,-111.787045,365.93746300000004,1.65902162,-0.453345963,-0.0922117424,,,,,,,,,,,,,,2022-11-15 18:06:08.786700+00:00,1.1830581469646542,0.014725047213633333,2.680410672225507,-2.6786108490699094,-0.09821044254748551,-0.17870042,362.09979154610676,0.24326966148857723,0.2504961704285767,,,,,,,,0.44568839797528004,-0.8951881656446472,,,,,,,,,,,,
2022-11-15 11:06:08.986376-07:00,19.25377,2.26,0.51,-2.19,0.2,13.61,971.23,40.87,26.0,0.0,4.74748e-05,0.000888279,0.000659625,32.8213776,-111.787045,365.933618,1.66817394,-0.457195659,-0.0889441531,,,,,,,,,,,,,,2022-11-15 18:06:08.986376+00:00,1.179881432035226,0.01467307083794046,2.247738363946886,-2.2030301826796395,0.4460782072250754,0.200659625,348.55328826506405,0.2299133677617416,0.23868606077346627,,,,,,,,0.9985748246218513,-0.053369650846139455,,,,,,,,,,,,
2022-11-15 11:06:09.186617-07:00,19.454011,2.19,1.03,-1.9,0.38,13.69,971.23,40.68,26.0,0.0,-0.000109281,-0.000524553,0.0011004,32.8213776,-111.787045,365.93633400000004,1.68142123,-0.458394821,-0.0848143719,,,,,,,,,,,,,,2022-11-15 18:06:09.186617+00:00,1.1795523617710968,0.014667691834862842,2.161645576785243,-1.9299288528976524,0.9736971923490171,0.3811004,333.22791757470395,0.22295299517154407,0.23270767419860647,,,,,,,,0.978980745797914,-0.20395268901625194,,,,,,,,,,,,
2022-11-15 11:06:09.387836-07:00,19.65523,1.96,1.03,-1.6,0.48,13.86,971.22,40.21,27.0,0.0,7.08639e-05,0.000359825,0.00183807,32.8213776,-111.787045,365.936456,1.69256684,-0.458786544,-0.0798180167,2.07414,-5.89179,5692.68,25.0832,11214.0,0.38034,-1.0,14.0,-1349.0,71.0,,0.0,,2022-11-15 18:06:09.387836+00:00,1.1788415588228258,0.01465622719880822,1.902594681296169,-1.6293647604985615,0.9823629668009355,0.48183807,328.9137361513681,0.21660103562752236,0.22694030061602097,2.1115185367866856,334.7757045294078,-1.8988675235360257,0.8841779848580515,0.409044254,0.232263955831496,0.22247303144373376,0.9811538158146775,-0.19322833568681852,1.2344296149654264,0.22374611429703586,,,,,,,,,,
2022-11-15 11:06:09.586858-07:00,19.854252,2.18,1.13,-1.8,0.48,13.87,971.22,40.19,29.0,0.0,-0.000448172,0.000171591,0.00132563,32.8213775,-111.787045,365.931329,1.70342412,-0.458418207,-0.0855625386,,,,,,,,,,,,,,2022-11-15 18:06:09.586858+00:00,1.1788004870661948,0.014655556157889512,2.1249251251342054,-1.8326233200305269,1.0755457007058826,0.48132563,329.591814049167,0.22069055390152675,0.23081349711170104,,,,,,,,0.35755760161551614,0.9338910865443357,,,,,,,,,,,,
2022-11-15 11:06:09.786082-07:00,20.053476,2.17,1.0,-1.87,0.5,14.14,971.22,39.49,27.0,0.0,-0.000500061,-0.000359396,0.000297545,32.8213775,-111.787045,365.92962,1.7114072,-0.458824257,-0.0864595822,,,,,,,,,,,,,,2022-11-15 18:06:09.786082+00:00,1.177692630435237,0.014637461373778637,2.1206889367709247,-1.8993905015737484,0.9432058572093468,0.500297545,333.59176660673575,0.22220720475633413,0.2321722464576854,,,,,,,,0.5836115884445577,-0.8120329511991617,,,,,,,,,,,,
2022-11-15 11:06:09.986273-07:00,20.253667,1.94,0.81,-1.66,0.58,14.23,971.22,39.31,26.0,0.0,-0.000395165,0.000430359,0.000928005,32.8213775,-111.787045,365.927637,1.72068083,-0.459478987,-0.102016286,,,,,,,,,,,,,,2022-11-15 18:06:09.986273+00:00,1.177323807494395,0.014631439757120019,1.846523970792058,-1.6831430212500385,0.7593947226093699,0.580928005,335.7162183083096,0.21771873257630728,0.22800685888506386,,,,,,,,0.7365833094002435,0.6763468254623402,,,,,,,,,,,,
2022-11-15 11:06:10.186224-07:00,20.453618,1.92,0.79,-1.64,0.59,13.94,971.21,40.01,26.0,0.0,-0.000253421,-0.000816245,0.00128711,32.8213775,-111.787045,365.927454,1.72890874,-0.463557404,-0.0960119074,,,,,,,,,,,,,,2022-11-15 18:06:10.186224+00:00,1.1785009305272114,0.01465081322970179,1.8209998794024884,-1.6639044101361498,0.7399072068261998,0.59128711,336.0261788031405,0.21729473587082168,0.22765588617164476,,,,,,,,0.9550298214243375,-0.29650976407227825,,,,,,,,,,,,
2022-11-15 11:06:10.387687-07:00,20.655081,2.49,0.77,-2.33,0.38,13.45,971.21,41.32,28.0,0.0,-0.000589325,-0.000183884,0.00263253,32.8213774,-111.787045,365.933191,1.73560429,-0.46324892,-0.109230819,2.07499,-5.78265,5704.33,25.084,11193.0,0.347057,-1.0,17.0,-1376.0,71.0,,0.0,,2022-11-15 18:06:10.387687+00:00,1.1805158134858935,0.014683745571723878,2.453944069648823,-2.3524362351586334,0.6984878355972294,0.38263253,343.4627374399601,0.23339265192145336,0.2423934949017307,2.0817982925839864,346.20807456508885,-1.990968138257402,0.4633607530476408,0.38632294100000003,0.23453324518723856,0.2249740659291913,0.29786167099723593,-0.9546090429860459,2.038613597254916,0.20606728216820488,,,,,,,,,,
2022-11-15 11:06:10.586010-07:00,20.853404,2.03,0.37,-1.96,0.39,13.54,971.23,41.17,27.0,0.0,-0.000261725,0.000318505,0.00288107,32.8213774,-111.787045,365.934839,1.74659195,-0.463492258,-0.103104549,,,,,,,,,,,,,,2022-11-15 18:06:10.586010+00:00,1.1801695191685146,0.014677780719628362,1.9942624477548856,-1.9700481417858076,0.3098274190119309,0.39288107,351.06235908848896,0.2241695293119623,0.23375853719422296,,,,,,,,0.77261215070288,0.6348783069110726,,,,,,,,,,,,
2022-11-15 11:06:10.786338-07:00,21.053732,2.29,-0.12,-2.29,-0.02,13.66,971.21,40.74,26.0,0.0,-0.000601924,-6.93797e-05,0.00388599,32.8213774,-111.787045,365.939325,1.75838077,-0.463590529,-0.098319274,,,,,,,,,,,,,,2022-11-15 18:06:10.786338+00:00,1.1796514492000176,0.014669613505933807,2.293261095321676,-2.2853088829563806,-0.1908134188065259,-0.01611401,364.77287918554464,0.232294679965412,0.24085144878353054,,,,,,,,0.11450509727027874,-0.99342266065312,,,,,,,,,,,,
2022-11-15 11:06:10.986898-07:00,21.254292,2.03,0.4,-1.96,0.34,13.15,971.21,42.12,27.0,0.0,-0.000649832,0.000233052,0.00351644,32.8213774,-111.787045,365.938776,1.7702327,-0.457391514,-0.0997096665,,,,,,,,,,,,,,2022-11-15 18:06:10.986898+00:00,1.181752819228282,0.014703981775216722,2.0000601648306766,-1.9711881168217915,0.3386119771110772,0.34351644000000003,350.252825853574,0.22411368049958527,0.2338512176972363,,,,,,,,0.3375811247675048,0.9412964380048967,,,,,,,,,,,,
2022-11-15 11:06:11.186415-07:00,21.453809,2.07,0.51,-1.97,0.42,13.31,971.22,41.64,28.0,0.0,-8.04955e-05,-4.99894e-05,0.00267716,32.8213775,-111.787045,365.94243800000004,1.7814562,-0.454404625,-0.0875232587,,,,,,,,,,,,,,2022-11-15 18:06:11.186415+00:00,1.1811049214471105,0.014693229813654472,2.0349757371538457,-1.9849523434720748,0.4484310927551252,0.42267716,347.26971077888294,0.22431988763937108,0.23416953838519586,,,,,,,,0.52756607652994,-0.8495139992341535,,,,,,,,,,,,
2022-11-15 11:06:11.386976-07:00,21.65437,1.94,0.0,-1.94,0.04,13.19,971.23,41.96,29.0,0.0,0.000491807,-0.000137587,0.00266605,32.8213775,-111.787045,365.93874500000004,1.78547892,-0.450564843,-0.0860348427,2.07396,-6.16009,5740.5,25.0846,11136.0,0.416625,-1.0,20.0,-1333.0,71.0,,0.0,,2022-11-15 18:06:11.386976+00:00,1.1816120676483253,0.014701375786309962,1.940122260116839,-1.9391956957159233,-0.059953631397172163,0.042666050000000004,361.7708353048504,0.22361496119867616,0.23321931971398002,2.1110436888128477,353.900949425015,-2.0917482714453035,0.22279238333642076,0.26654306,0.23665678889445582,0.22718984955289573,0.26941391379036855,0.9630244768728133,-1.9543814169008757,0.21139857816914182,,,,,,,,,,
2022-11-15 11:06:11.586210-07:00,21.853604,2.14,0.27,-2.1,0.31,12.96,971.22,42.66,27.0,0.0,0.000168279,0.000484788,0.00197542,32.8213775,-111.787045,365.93865400000004,1.79634452,-0.450093321,-0.0811615375,,,,,,,,,,,,,,2022-11-15 18:06:11.586210+00:00,1.182549773855298,0.014716874862948408,2.116819694495482,-2.106946880310517,0.20420691113114844,0.31197542,354.46413975181605,0.22739686593089706,0.23687485601240788,,,,,,,,0.9447039523665816,-0.3279244461502674,,,,,,,,,,,,
2022-11-15 11:06:11.786700-07:00,22.054094,2.47,0.26,-2.45,0.21,12.83,971.23,43.07,26.0,0.0,-0.000111527,0.000509838,0.00188023,32.8213775,-111.787045,365.93902,1.803224,-0.44904117,-0.0889604082,,,,,,,,,,,,,,2022-11-15 18:06:11.786700+00:00,1.183099515527035,0.014725724665745416,2.463240587467394,-2.456458320906209,0.18266556708192516,0.21188023,355.7472354359519,0.236503852495949,0.24516901266345922,,,,,,,,0.9769000423966138,0.2136967645180765,,,,,,,,,,,,
2022-11-15 11:06:11.986365-07:00,22.253759,2.5,0.21,-2.47,0.36,12.84,971.22,43.0,28.0,0.0,0.000113065,0.000195741,0.00196829,32.8213775,-111.787045,365.938287,1.81349308,-0.454603337,-0.0826624198,,,,,,,,,,,,,,2022-11-15 18:06:11.986365+00:00,1.1830459659349604,0.014724999351708278,2.478721598133143,-2.4752128131215936,0.13184191598429665,0.36196828999999997,356.95102840387483,0.23703732400041186,0.24566143774306165,,,,,,,,0.8659221726645858,-0.500178758933087,,,,,,,,,,,,
2022-11-15 11:06:12.186427-07:00,22.453821,2.61,0.03,-2.61,0.09,12.82,971.22,43.04,29.0,0.0,0.000146105,0.000100734,0.00187972,32.8213775,-111.787045,365.93926400000004,1.82432797,-0.456435473,-0.0926290448,,,,,,,,,,,,,,2022-11-15 18:06:12.186427+00:00,1.1831287051010222,0.014726354309585002,2.610068726361626,-2.609531398040771,-0.052958842230349266,0.09187972,361.1626231741309,0.2409740658650649,0.24914046391237515,,,,,,,,0.5676257653421537,-0.8232867000746059,,,,,,,,,,,,
2022-11-15 11:06:12.387734-07:00,22.655128,2.48,0.21,-2.46,0.22,12.81,971.22,43.13,28.0,0.0,0.000167098,0.00110395,0.00160662,32.8213775,-111.787045,365.93728000000004,1.83177207,-0.461068707,-0.0903057904,2.07753,-5.97167,5753.74,25.0855,11173.0,0.384323,-1.0,14.0,-1339.0,71.0,,0.0,,2022-11-15 18:06:12.387734+00:00,1.1831700790241269,0.014727031882488511,2.467853649113734,-2.464351613528159,0.13142586634728107,0.22160662,356.9472616822689,0.2367272884367686,0.24546297420728325,2.4420676423382757,357.9725709148576,-2.4395621495825948,0.08406950313585075,0.217652892,0.2448766622502979,0.23611395505889982,0.9887376672254679,-0.14965903049779503,0.4482251905609932,0.2394503641988054,,,,,,,,,,
