Timestamp,Seconds,S,Um,Vm,Wm,T,P,H,MD,Sts,Vx,Vy,Vz,Lat,Lon,Alt,Yaw,Roll,Pitch,CH4,C2H6,H20,T_a,Batt,R,C2C1,Power,Current,SOC,Lat_a,Lon_a,TS,Timestamp_UTC,Rho,Rho_err,Sc,V,U,W,WD,V_err,U_err,Sc_avg,WD_avg,V_avg,U_avg,W_avg,U_err_avg,V_err_avg,Nx,Ny,cross_wind,cross_wind_err,CH4_sub,CH4_res,CH4_adj,CH4_adj_err,BG_Samples_CH4,C2H6_sub,C2H6_res,C2H6_adj,C2H6_adj_err,BG_Samples_C2H6,x_dist,y_dist,s_dist,z_dist,velocity_s,velocity_z,x_src_dist,y_src_dist,s_src_dist,collecting,group,transect_num
2022-11-15 11:05:50.362604-07:00,0.629998,2.8,-0.29,-2.78,-0.09,12.39,971.25,44.61,28.0,0.0,-0.000138402,0.000155701,0.0117452,32.8213779,-111.787045,365.937341,0.589002979,-0.460081488,-0.128532382,2.07645,-5.06693,5840.47,25.0711,11204.0,-0.4385,-1.0,12.0,-1350.0,71.0,,0.0,,2022-11-15 18:05:50.362604+00:00,1.1849470013160532,0.014755690821088126,2.7949460637633012,-2.7767162466727218,-0.3187010900667329,-0.0782548,366.54754372298976,0.2477818960409692,0.2501997000358315,2.9518931689119663,365.27235260940495,-2.9392635149510675,-0.2703974930237536,-0.19223690000000002,0.2548220644723908,0.25253127822308946,0.7474066702534924,0.664366818301898,-2.15484603948467,0.18079528244007534,,,,,,,,,,,0.04453009319249564,-0.09355376607214085,0.10361098564347894,0.009307999999975891,0.10361098564347894,0.009307999999975891,-21.94220023240098,-103.18955962026229,105.49666044791391,False,,
2022-11-15 11:05:51.387882-07:00,1.655276,2.97,-0.2,-2.95,-0.31,12.39,971.24,44.56,27.0,0.0,0.000203991,0.00028893,0.00995392,32.8213782,-111.787045,365.938715,0.656601728,-0.45679927,-0.123001916,2.07719,-5.4168,5833.65,25.0719,11212.0,-0.386222,-1.0,14.0,-1366.0,71.0,,0.0,,2022-11-15 18:05:51.387882+00:00,1.1849348010895273,0.014755642755769406,2.956467738910261,-2.9472254404353024,-0.2335887293258999,-0.30004608,364.53162804854634,0.2526621160612757,0.2552181637485287,2.9679037028640973,365.93015877753317,-2.95047049612552,-0.3077294276032093,-0.254121956,0.2553163443020593,0.2527915627830955,0.8169140285374022,-0.5767594559075667,1.4503232716138368,0.19000637267736253,,,,,,,,,,,0.07792766274957795,-0.09355376577635027,0.12175807042060155,0.010681999999974323,0.01814708477712261,0.001373999999998432,-21.9088026628439,-103.18955961996649,105.48971916107301,False,,
2022-11-15 11:05:52.387159-07:00,2.654553,2.82,-0.41,-2.78,-0.09,12.37,971.24,44.66,27.0,0.0,-0.000166279,0.000993985,0.00974599,32.8213782,-111.787045,365.93807400000003,0.717345177,-0.457920323,-0.113766694,2.07631,-5.49304,5791.13,25.0725,11140.0,-0.366789,-1.0,19.0,-1336.0,71.0,,0.0,,2022-11-15 18:05:52.387159+00:00,1.18501780296688,0.014757003386276753,2.8091160547956986,-2.7736550532329196,-0.4449389339970609,-0.08025401,369.1135212483067,0.2475949322844232,0.2504958909150097,2.716133903801037,365.5569209718461,-2.692250750269454,-0.2876614905380206,-0.02657831200000001,0.2486050920313072,0.2455571857347622,0.9862948138981278,0.1649925455214794,-0.7279203407449251,0.24192979892856822,,,,,,,,,,,0.07792766274174666,-0.09355376576694865,0.12175807040836556,0.010041000000001077,-1.2235989998998775e-11,-0.0006409999999732463,-21.90880266285173,-103.1895596199571,105.48971916106545,False,,
2022-11-15 11:05:53.387326-07:00,3.65472,3.12,-0.36,-3.09,-0.21,12.54,971.24,44.11,26.0,0.0,-0.000428358,0.000716158,0.00914408,32.8213782,-111.787045,365.937494,0.786350524,-0.462090779,-0.116383809,2.07846,-5.56795,5743.06,25.0728,11145.0,-0.360457,-1.0,14.0,-1327.0,71.0,,0.0,,2022-11-15 18:05:53.387326+00:00,1.1843126574367449,0.014745446056313814,3.1102454971973597,-3.0840522004774016,-0.40280153620231895,-0.20085592,367.4411598954305,0.2567636327988668,0.2595906472762305,2.74262586759582,365.60464026434755,-2.7263343039784216,-0.2739603857548536,-0.242944506,0.2495278015157305,0.2462239130516742,0.8581988537576564,0.5133173749339144,-1.6345872571403048,0.19489432621318475,,,,,,,,,,,0.07792766273466063,-0.09355376575844172,0.12175807039729399,0.009460999999987507,-1.1071574212984103e-11,-0.0005800000000135697,-21.908802662858818,-103.18955961994858,105.4897191610586,False,,
2022-11-15 11:05:54.387901-07:00,4.655295,1.9,-0.05,-1.9,0.12,12.72,971.24,43.59,26.0,0.0,-0.000361734,4.3961e-06,0.00738056,32.8213782,-111.787045,365.935968,0.852723355,-0.458886148,-0.11351395,2.07692,-5.91427,5717.18,25.0731,11145.0,-0.300941,-1.0,14.0,-1327.0,71.0,,0.0,,2022-11-15 18:05:54.387901+00:00,1.1835669468748158,0.014733228691179963,1.9006683194338603,-1.8990410700453921,-0.07863253003933143,0.12738056,362.37105981770253,0.2249514276738685,0.22957871158173668,2.2154675034477873,362.8309744070642,-2.212456861659553,-0.10916355358353198,-0.016471368000000004,0.23666831110103295,0.2324139319898662,0.01215195530951883,0.9999261622650721,-2.213620049480838,0.2323796140484515,,,,,,,,,,,0.07792766271601702,-0.0935537657360597,0.12175807036816429,0.007934999999974934,-2.912969865320747e-11,-0.0015260000000125729,-21.90880266287746,-103.1895596199262,105.48971916104057,False,,
2022-11-15 11:05:55.387120-07:00,5.654514,2.27,-0.14,-2.26,-0.2,12.62,971.23,43.82,26.0,0.0,0.00050658,-0.000714107,0.00829491,32.8213782,-111.787045,365.940942,0.912981916,-0.450050274,-0.11112512,2.07878,-5.84276,5709.77,25.0741,11203.0,-0.31425,-1.0,14.0,-1348.0,71.0,,0.0,,2022-11-15 18:05:55.387120+00:00,1.1839689241362685,0.014739965642583867,2.265004773866025,-2.2581964539879196,-0.17548618416351014,-0.19170509000000002,364.4435686255646,0.233240905397232,0.2377290765365643,2.2297657709589815,364.86380218511766,-2.2214964919667612,-0.189346008135497,-0.081819766,0.2368782340885637,0.23235196040922199,0.8156179682153145,0.5785908138955562,-1.439771469798326,0.17573136320102503,,,,,,,,,,,0.0779276627767859,-0.09355376580901398,0.1217580704631126,0.012908999999979187,9.494831310075114e-11,0.004974000000004253,-21.90880266281669,-103.18955961999916,105.48971916109932,False,,
2022-11-15 11:05:56.386988-07:00,6.654382,2.09,-0.04,-2.09,-0.11,12.74,971.24,43.44,28.0,0.0,-0.000179771,-0.000415763,0.00826199,32.8213782,-111.787045,365.93822600000004,0.975295568,-0.460961475,-0.112434044,2.07693,-5.40615,5705.35,25.0743,11197.0,0.0721832,-1.0,16.0,-1364.0,71.0,,0.0,,2022-11-15 18:05:56.386988+00:00,1.183484148109775,0.014731872461707983,2.0908047366324527,-2.0894321270446405,-0.07574848644302687,-0.10173801,362.07624294139174,0.22897694928619305,0.23403307436113102,2.042777634755142,362.6969338665348,-2.0388076066729903,-0.1008790618986191,-0.006171898,0.23301197708119176,0.22790243476953292,0.9178718383285366,-0.3968769184563305,0.7165616302679589,0.19956505190950832,,,,,,,,,,,0.0779276627436037,-0.09355376576917807,0.12175807041126709,0.010193000000015218,-5.184551399306514e-11,-0.0027159999999639695,-21.908802662849872,-103.18955961995931,105.48971916106723,False,,
2022-11-15 11:05:57.386879-07:00,7.654273,1.46,0.2,-1.42,0.25,13.53,971.23,41.26,28.0,0.0,-0.000243428,-0.0010089,0.00636269,32.8213782,-111.787045,365.935938,1.04337364,-0.45890386,-0.120903443,2.07514,-5.42999,5689.87,25.0752,11138.0,0.142804,-1.0,18.0,-1358.0,71.0,,0.0,,2022-11-15 18:05:57.386879+00:00,1.1802106859579373,0.014678453807970835,1.4349872683369649,-1.4244153194784561,0.17386620696464306,0.25636269,353.04081912059024,0.21510010072831723,0.2214084844049789,1.6969709151554544,360.3360833425434,-1.6921808915225263,-0.026770266538791644,0.11218154200000001,0.22650000114904884,0.22059225550519046,0.9721040905197579,-0.23454986078604775,0.3708773069247551,0.21438316715448885,,,,,,,,,,,0.07792766271565049,-0.09355376573561966,0.12175807036759159,0.007904999999993834,-4.3675493777151075e-11,-0.002288000000021384,-21.908802662877825,-103.18955961992576,105.48971916104021,False,,
2022-11-15 11:05:58.387616-07:00,8.65501,1.27,0.73,-0.95,0.43,14.47,971.23,38.75,26.0,0.0,-0.000429593,0.000445046,0.00674726,32.8213782,-111.787045,365.93313,1.10528157,-0.466146049,-0.118036224,2.07641,-5.58808,5680.8,25.0756,11213.0,0.161181,-1.0,14.0,-1386.0,71.0,,0.0,,2022-11-15 18:05:58.387616+00:00,1.176353520097425,0.014615453575054465,1.1974686110314299,-0.963459607791475,0.7111094561035165,0.43674725999999997,323.56973829154737,0.20808747388373347,0.2153268720310222,1.368180862061401,337.9759021683112,-1.2443790569722377,0.5199893248540953,0.42030389799999995,0.21945383134262092,0.2125166631813035,0.7194875588382824,0.6945053294805801,-0.4901020369999979,0.1530126464246218,,,,,,,,,,,0.07792766268134431,-0.09355376569443437,0.1217580703139899,0.005096999999977925,-5.360169252899283e-11,-0.002808000000015909,-21.908802662912134,-103.18955961988458,105.48971916100706,False,,
2022-11-15 11:05:59.387140-07:00,9.654534,1.61,0.42,-1.49,0.45,13.95,971.24,40.05,26.0,0.0,-0.000872614,0.000203649,0.00483783,32.8213782,-111.787045,365.932764,1.15864429,-0.465415465,-0.111861207,2.07497,-6.20371,5697.41,25.0767,11198.0,0.277503,-1.0,17.0,-1384.0,71.0,,0.0,,2022-11-15 18:05:59.387140+00:00,1.1784962838840252,0.01465028478711346,1.5476467070799047,-1.4979844316980346,0.38891255100033567,0.45483783,345.445970455541,0.2160030862253531,0.22299944041017347,1.7850097657467536,344.35423667628066,-1.7058638333194662,0.45718115043851426,0.38887301399999996,0.22696814485917294,0.22021177497816127,0.22727096243199096,0.9738315612236217,-1.5573200399704819,0.2091661718161708,,,,,,,,,,,0.07792766267687277,-0.09355376568906622,0.12175807030700336,0.004730999999992491,-6.9865363494514554e-12,-0.00036599999998543353,-21.908802662916603,-103.1895596198792,105.48971916100272,False,,
2022-11-15 11:06:00.387270-07:00,10.654664,1.47,0.12,-1.46,0.14,13.21,971.24,42.06,26.0,0.0,-0.000691404,-0.000145974,0.00528977,32.8213782,-111.787045,365.941187,1.21449017,-0.459211263,-0.105938656,2.07422,-5.3832,5748.94,25.0774,11138.0,0.223163,-1.0,16.0,-1348.0,71.0,,0.0,,2022-11-15 18:06:00.387270+00:00,1.181541706603938,0.014700073139563737,1.4650270583353178,-1.462361424294657,0.08833655183182418,0.14528977,356.54314675678313,0.21531281454047477,0.22257678526479582,1.5839344514277218,356.44377168004814,-1.580726743202621,0.09416144377268656,0.18987719200000003,0.22484221129703172,0.2177349310506102,0.2065731608840595,-0.9784311571093638,1.5660835234989872,0.20866434378526405,,,,,,,,,,,0.07792766277977912,-0.09355376581260742,0.12175807046778939,0.0131539999999859,1.6078602338431836e-10,0.008422999999993408,-21.9088026628137,-103.18955962000274,105.4897191611022,False,,
2022-11-15 11:06:01.387568-07:00,11.654962,1.64,0.79,-1.38,0.41,13.9,971.23,40.23,26.0,0.0,-0.000373377,-0.00118638,0.00508003,32.821378,-111.787045,365.93898900000005,1.27048132,-0.462127759,-0.10282211,2.07729,-5.7767,5780.51,25.0778,11179.0,0.230565,-1.0,16.0,-1347.0,71.0,,0.0,,2022-11-15 18:06:01.387568+00:00,1.178689425014532,0.014653590794530463,1.5909901855640296,-1.3983632172352545,0.7588346876919464,0.41508003,331.5131212072233,0.21377260643132814,0.2217061183904638,1.5625508400644121,332.6710334226251,-1.3629255911171798,0.7117360982926652,0.381146914,0.22122160262554727,0.21328896032697275,0.9538752703672356,-0.3002032121444291,1.0880621035562594,0.20220041297054558,,,,,,,,,,,0.05566261685907705,-0.09355376599099786,0.10886061751937105,0.010956000000021504,-0.012897452948418334,-0.002197999999964395,-21.9310677087344,-103.18955962018114,105.49434556151344,False,,
2022-11-15 11:06:02.387579-07:00,12.654973,2.33,0.82,-2.12,0.47,13.11,971.24,42.3,27.0,0.0,-0.000159024,-0.000922435,0.00412841,32.8213781,-111.787045,365.93813500000005,1.32743353,-0.459381766,-0.105593584,2.07636,-5.64182,5805.41,25.0784,11218.0,0.256718,-1.0,13.0,-1363.0,71.0,,0.0,,2022-11-15 18:06:02.387579+00:00,1.181954457846376,0.014706827394231075,2.2738735424233165,-2.1393496254156905,0.7705089663115585,0.47412841,340.1929894206414,0.22891846419383627,0.23618840109390413,2.1142115530531385,337.2762773638625,-1.9517127156213703,0.8088467033232962,0.438638548,0.23232961105093386,0.2247688208550347,0.9854630701512216,-0.1698897800579202,1.1286645995318305,0.22571723624489037,,,,,,,,,,,0.06679513908890623,-0.09355376587315777,0.11495171906046446,0.010102000000017597,0.006091101541093408,-0.0008540000000039072,-21.91993518650457,-103.18955962006329,105.49203179938833,False,,
2022-11-15 11:06:03.387795-07:00,13.655189,1.85,0.34,-1.8,0.29,13.12,971.22,42.32,28.0,0.0,-3.1481e-05,-0.000596003,0.0038763,32.8213781,-111.787045,365.94149200000004,1.37732239,-0.456139044,-0.118931728,2.07451,-6.67404,5830.75,25.0795,11181.0,0.306443,-1.0,17.0,-1373.0,71.0,,0.0,,2022-11-15 18:06:03.387795+00:00,1.1818888315147913,0.0147060562150414,1.8324127296719233,-1.8082483585209606,0.2966045949913117,0.2938763,350.68480078211655,0.22151052944599972,0.22932810918955424,1.9594765118151394,350.9107654055263,-1.924683537310458,0.3156274998337803,0.29215852600000003,0.23173239835183565,0.22408401231944036,0.9986079252415824,-0.052746674252527714,0.41670877833991676,0.23108851077181494,,,,,,,,,,,0.06679513912406065,-0.0935537659223953,0.11495171912096377,0.013459000000011656,6.049931389195962e-11,0.003356999999994059,-21.919935186469417,-103.18955962011253,105.49203179942918,False,,
2022-11-15 11:06:04.386955-07:00,14.654349,1.98,0.88,-1.66,0.63,13.24,971.22,41.97,29.0,0.0,7.02097e-05,-0.000963417,0.0036537,32.821378,-111.787045,365.938165,1.44507702,-0.453114639,-0.120152627,2.07909,-5.91423,5823.29,25.0801,11181.0,0.262764,-1.0,17.0,-1373.0,71.0,,0.0,,2022-11-15 18:06:04.386955+00:00,1.1813936094058426,0.014697952713080059,1.879723084075796,-1.6826279049208603,0.8379273276299432,0.6336537,333.52727843848953,0.2184479339330913,0.2271273678448043,1.9158309786885326,335.5010976779272,-1.7298545060671446,0.8007057150921592,0.539799424,0.22805674824499209,0.21947190150946633,0.9973550956931059,0.07268296289362229,0.6728569742219135,0.2268549299414605,,,,,,,,,,,0.05566261685188629,-0.09355376597891214,0.10886061750530793,0.010131999999998698,-0.006091101615655847,-0.0033270000000129585,-21.93106770874159,-103.18955962016905,105.49434556150311,False,,
2022-11-15 11:06:05.387478-07:00,15.654872,2.45,1.1,-2.09,0.65,12.96,971.22,42.66,27.0,0.0,0.000127836,-2.49703e-05,0.00273988,32.8213779,-111.787045,365.93786,1.50125691,-0.456126705,-0.111190887,2.07631,-5.97109,5789.14,25.0808,11136.0,0.325948,-1.0,19.0,-1328.0,71.0,,0.0,,2022-11-15 18:06:05.387478+00:00,1.182549773855298,0.014716874862948408,2.361879111935241,-2.118126344617255,1.0449946065096933,0.65273988,333.74020315863163,0.22780926093731022,0.23624367589357906,2.375609788130672,333.44693248507366,-2.12092096337721,1.0627794533260055,0.6254545900000001,0.23631441656066227,0.2278730808085073,0.191707752633934,0.9814520556705999,-1.877839178878782,0.2196700751674762,,,,,,,,,,,0.04453009319611894,-0.09355376607975309,0.1036109856519095,0.00982699999997294,-0.005249631853398426,-0.0003050000000257569,-21.942200232397358,-103.18955962026989,105.49666044792059,False,,
2022-11-15 11:06:06.386952-07:00,16.654346,2.62,1.13,-2.32,0.46,12.98,971.22,42.55,26.0,0.0,-0.000274953,-0.000528519,0.00253745,32.8213779,-111.787045,365.93761600000005,1.55114603,-0.451990508,-0.104155646,2.07532,-5.57767,5755.06,25.0816,11211.0,0.290279,-1.0,17.0,-1366.0,71.0,,0.0,,2022-11-15 18:06:06.386952+00:00,1.1824671156388329,0.014715521657274952,2.580929577866772,-2.3502666841002293,1.0665101966301431,0.46253745,335.59227825211826,0.23349405062470763,0.2418014142786723,2.4820360885299175,336.2015969054378,-2.2716267973685382,0.992700992734709,0.48433369400000004,0.24012940566214747,0.2317393141826809,0.8871321962868809,-0.46151540203032776,1.9290477665913162,0.19532238214252637,,,,,,,,,,,0.0445300931944155,-0.0935537660761743,0.10361098564794599,0.009583000000020547,-3.963510075699617e-12,-0.0002439999999523934,-21.942200232399063,-103.18955962026631,105.49666044791744,False,,
2022-11-15 11:06:07.387744-07:00,17.655138,2.43,1.09,-2.1,0.57,13.02,971.23,42.54,26.0,0.0,-0.000198505,0.000316707,0.00222405,32.8213779,-111.787045,365.936884,1.59743934,-0.452842663,-0.104225683,2.07701,-6.44122,5720.15,25.0816,11161.0,0.289371,-1.0,19.0,-1351.0,71.0,,0.0,,2022-11-15 18:06:07.387744+00:00,1.1823140072349354,0.014712863777147507,2.365658874246953,-2.1292530439683266,1.0308362547247631,0.57222405,334.1669620819938,0.2278380077147062,0.2367846251773768,2.365442970708199,339.652256731886,-2.205891363810998,0.8285668054242953,0.4623627900000001,0.23872924230719206,0.2300588011781969,0.8473204931918845,0.5310818974669176,-0.46944733688409346,0.18326767462014684,,,,,,,,,,,0.044530093189305175,-0.09355376606543796,0.10361098563605547,0.008850999999992837,-1.1890516349311042e-11,-0.0007320000000277105,-21.942200232404172,-103.18955962025558,105.49666044790801,False,,
2022-11-15 11:06:08.387297-07:00,18.654691,2.6,0.04,-2.59,-0.19,12.74,971.22,43.39,26.0,0.0,0.000155348,-0.000190163,0.00234871,32.8213777,-111.787045,365.943231,1.64134602,-0.457652729,-0.0976116413,2.07451,-6.08203,5700.42,25.0828,11146.0,0.321513,-1.0,16.0,-1328.0,71.0,,0.0,,2022-11-15 18:06:08.387297+00:00,1.183459777528907,0.014731776647618195,2.590496961952996,-2.590273220102792,-0.03404636700168357,-0.18765129,360.753048287155,0.24070741104764082,0.24811655200913985,2.541335666079947,361.06324786085554,-2.5399578591817367,-0.04908079812870646,-0.061575943999999994,0.24685902632503134,0.23934265349035838,0.7744359174589204,0.6326523608978001,-1.6449202691206686,0.17634333231558322,,,,,,,,,,,0.022265046616807796,-0.093553766369159,0.09616672762813451,0.015197999999998046,-0.007444258007920965,0.00634700000000521,-21.964465278976668,-103.1895596205593,105.50129359243105,False,,
2022-11-15 11:06:09.387836-07:00,19.65523,1.96,1.03,-1.6,0.48,13.86,971.22,40.21,27.0,0.0,7.08639e-05,0.000359825,0.00183807,32.8213776,-111.787045,365.936456,1.69256684,-0.458786544,-0.0798180167,2.07414,-5.89179,5692.68,25.0832,11214.0,0.38034,-1.0,14.0,-1349.0,71.0,,0.0,,2022-11-15 18:06:09.387836+00:00,1.1788415588228258,0.01465622719880822,1.902594681296169,-1.6293647604985615,0.9823629668009355,0.48183807,328.9137361513681,0.21660103562752236,0.22694030061602097,2.1115185367866856,334.7757045294078,-1.8988675235360257,0.8841779848580515,0.409044254,0.232263955831496,0.22247303144373376,0.9811538158146775,-0.19322833568681852,1.2344296149654264,0.22374611429703586,,,,,,,,,,,0.011132523650655281,-0.09355376637510363,0.09421380093064853,0.008422999999993408,-0.0019529266974859794,-0.006775000000004638,-21.975597801942822,-103.18955962056525,105.50361185020608,False,,
2022-11-15 11:06:10.387687-07:00,20.655081,2.49,0.77,-2.33,0.38,13.45,971.21,41.32,28.0,0.0,-0.000589325,-0.000183884,0.00263253,32.8213774,-111.787045,365.933191,1.73560429,-0.46324892,-0.109230819,2.07499,-5.78265,5704.33,25.084,11193.0,0.347057,-1.0,17.0,-1376.0,71.0,,0.0,,2022-11-15 18:06:10.387687+00:00,1.1805158134858935,0.014683745571723878,2.453944069648823,-2.3524362351586334,0.6984878355972294,0.38263253,343.4627374399601,0.23339265192145336,0.2423934949017307,2.0817982925839864,346.20807456508885,-1.990968138257402,0.4633607530476408,0.38632294100000003,0.23453324518723856,0.2249740659291913,0.29786167099723593,-0.9546090429860459,2.038613597254916,0.20606728216820488,,,,,,,,,,,-0.01113252222865283,-0.09355376653784422,0.09421380092422188,0.005157999999994445,-6.426650878132989e-12,-0.003264999999998963,-21.99786284782213,-103.18955962072798,105.5082517369678,False,,
2022-11-15 11:06:11.386976-07:00,21.65437,1.94,0.0,-1.94,0.04,13.19,971.23,41.96,29.0,0.0,0.000491807,-0.000137587,0.00266605,32.8213775,-111.787045,365.93874500000004,1.78547892,-0.450564843,-0.0860348427,2.07396,-6.16009,5740.5,25.0846,11136.0,0.416625,-1.0,20.0,-1333.0,71.0,,0.0,,2022-11-15 18:06:11.386976+00:00,1.1816120676483253,0.014701375786309962,1.940122260116839,-1.9391956957159233,-0.059953631397172163,0.042666050000000004,361.7708353048504,0.22361496119867616,0.23321931971398002,2.1110436888128477,353.900949425015,-2.0917482714453035,0.22279238333642076,0.26654306,0.23665678889445582,0.22718984955289573,0.26941391379036855,0.9630244768728133,-1.9543814169008757,0.21139857816914182,,,,,,,,,,,0.0,-0.09355376651399107,0.09355376651399107,0.010712000000012267,-0.0006600344102308114,0.0055540000000178225,-21.986730325593477,-103.18955962070413,105.5059312319702,False,,
2022-11-15 11:06:12.387734-07:00,22.655128,2.48,0.21,-2.46,0.22,12.81,971.22,43.13,28.0,0.0,0.000167098,0.00110395,0.00160662,32.8213775,-111.787045,365.93728000000004,1.83177207,-0.461068707,-0.0903057904,2.07753,-5.97167,5753.74,25.0855,11173.0,0.384323,-1.0,14.0,-1339.0,71.0,,0.0,,2022-11-15 18:06:12.387734+00:00,1.1831700790241269,0.014727031882488511,2.467853649113734,-2.464351613528159,0.13142586634728107,0.22160662,356.9472616822689,0.2367272884367686,0.24546297420728325,2.4420676423382757,357.9725709148576,-2.4395621495825948,0.08406950313585075,0.217652892,0.2448766622502979,0.23611395505889982,0.9887376672254679,-0.14965903049779503,0.4482251905609932,0.2394503641988054,,,,,,,,,,,0.0,-0.09355376649250373,0.09355376649250373,0.009247000000016214,-2.1487339685322127e-11,-0.0014649999999960528,-21.986730325593477,-103.18955962068264,105.50593123194918,False,,
2022-11-15 11:06:13.387143-07:00,23.654537,1.73,0.15,-1.71,0.16,13.01,971.22,42.58,27.0,0.0,-0.000570394,4.5031e-05,0.00240713,32.8213774,-111.787045,365.940515,1.88329576,-0.463956775,-0.0915278955,2.07899,-6.45619,5726.85,25.0862,11215.0,0.237087,-1.0,17.0,-1377.0,71.0,,0.0,,2022-11-15 18:06:13.387143+00:00,1.1823431499781216,0.014713492317577705,1.7164903273165868,-1.7139608638091988,0.09315149543527476,0.16240713,356.8891110677533,0.2183180987126381,0.22906816418656176,1.829967070332367,353.6612264468355,-1.80922244982712,0.1942297646242451,0.25808980000000004,0.23108521189120235,0.22048528448132293,0.0787023025873312,0.9968981630876105,-1.788324207142599,0.21912426203223698,,,,,,,,,,,-0.011132522241435622,-0.09355376664526627,0.0942138010324018,0.012481999999977234,0.0006600345398980745,0.003234999999961019,-21.997862847834913,-103.18955962083541,105.50825173707554,False,,
2022-11-15 11:06:14.387860-07:00,24.655254,2.45,-0.09,-2.43,-0.28,12.89,971.22,42.84,26.0,0.0,-0.000229877,-0.000666156,0.00144705,32.8213774,-111.787045,365.942285,1.92781948,-0.454624796,-0.0934749956,2.07818,-6.46076,5694.52,25.0869,11167.0,0.153398,-1.0,16.0,-1353.0,71.0,,0.0,,2022-11-15 18:06:14.387860+00:00,1.182839168639838,0.014721613052882186,2.432346826872049,-2.4262631353825515,-0.17192522816083547,-0.27855295,364.0532093201397,0.2357227027527517,0.2447417300941037,2.145906454510249,361.4738591445124,-2.1367155640675,-0.07624592266319126,-0.09500990260000002,0.23824407702079725,0.2284167993794067,0.9452994723426725,-0.3262037823028189,0.6249294682423248,0.21427575515096361,,,,,,,,,,,-0.011132522244524856,-0.09355376667122708,0.09421380105854578,0.014251999999999043,2.6143975873083036e-11,0.0017700000000218097,-21.997862847838,-103.18955962086136,105.50825173710156,False,,
2022-11-15 11:06:15.387689-07:00,25.655083,2.01,0.21,-1.99,0.24,13.24,971.21,41.87,26.0,0.0,-0.000136665,-0.000231532,0.00211542,32.8213774,-111.787045,365.938684,1.97364564,-0.45597809,-0.100994344,2.07541,-5.86346,5674.23,25.0881,11142.0,0.161689,-1.0,18.0,-1323.0,71.0,,0.0,,2022-11-15 18:06:15.387689+00:00,1.181381445389354,0.014697905030743075,2.0012710309981028,-1.996283370924195,0.14120354982698827,0.24211542,355.9540236670757,0.22433952170295565,0.23497682256399607,1.931106774121289,353.3798659685899,-1.9149062436145001,0.2120038127387433,0.2657462242,0.23354349278021286,0.22268741016590635,0.8611697484335822,-0.5083174838453235,1.1559515936370066,0.18250663516966897,,,,,,,,,,,-0.011132522238239923,-0.09355376661841075,0.09421380100535681,0.010650999999995747,-5.3188967119588426e-11,-0.003601000000003296,-21.997862847831716,-103.18955962080855,105.5082517370486,False,,
2022-11-15 11:06:16.386884-07:00,26.654278,2.04,-0.11,-2.03,0.1,13.29,971.2,41.7,26.0,0.0,-3.9455e-05,-0.000792952,0.00166808,32.8213774,-111.787045,365.938867,2.01262089,-0.449587502,-0.105045854,2.07416,-6.18692,5670.72,25.0887,11192.0,0.173229,-1.0,13.0,-1357.0,71.0,,0.0,,2022-11-15 18:06:16.386884+00:00,1.1811630655368486,0.014694483582546275,2.0337714235685804,-2.025677515801963,-0.181264462315586,0.10166808000000001,365.11340065425367,0.22520565788993713,0.23570793703334308,2.0952436556893494,360.0067462658908,-2.0870433940388473,-0.02530937338464436,0.064062388,0.23762642475465023,0.2272072690219768,0.9987644088022075,-0.04969563069301893,0.07843883640479068,0.23704023344736208,,,,,,,,,,,-0.011132522238559319,-0.09355376662109485,0.09421380100805984,0.010833999999988464,2.703032242479253e-12,0.00018299999999271677,-21.997862847832035,-103.18955962081124,105.50825173705128,False,,
2022-11-15 11:06:17.387559-07:00,27.654953,2.27,-0.16,-2.26,-0.0,13.47,971.22,41.19,27.0,0.0,0.000302912,0.000405507,0.00208835,32.8213774,-111.787045,365.94173600000005,2.05624078,-0.444255297,-0.0946169594,2.07813,-6.5124,5677.33,25.0894,11214.0,0.0761351,-1.0,17.0,-1372.0,71.0,,0.0,,2022-11-15 18:06:17.387559+00:00,1.1804455927630286,0.014682446061373425,2.265221226523816,-2.2523983784404,-0.2406839211354157,0.00208835,366.0992951502299,0.23090287179370972,0.24094896252794448,2.4085417543190992,364.71683878302076,-2.3981831018795248,-0.2061273965739432,-0.036546914199999996,0.2447436308379085,0.23509084467773725,0.8011538181335885,-0.598458486187616,1.2700732779643906,0.17823027570875008,,,,,,,,,,,-0.011132522243566667,-0.09355376666317483,0.09421380105043671,0.013703000000020893,4.237686590524703e-11,0.002869000000032429,-21.997862847837045,-103.18955962085332,105.50825173709347,False,,
2022-11-15 11:06:18.386909-07:00,28.654303,2.32,-0.26,-2.31,-0.04,13.39,971.22,41.43,28.0,0.0,-0.000165461,0.00117807,-5.32841e-05,32.8213774,-111.787045,365.93618200000003,2.10126476,-0.450217216,-0.0735806276,2.07427,-6.37671,5684.72,25.0904,11175.0,-0.00757722,-1.0,16.0,-1361.0,71.0,,0.0,,2022-11-15 18:06:18.386909+00:00,1.1807751650650495,0.014687835948174553,2.3234454723878786,-2.297735550844314,-0.34468855731791964,-0.0400532841,368.53145392567023,0.23213479737029524,0.24216481715588117,2.193232700192854,366.4481692340042,-2.1776696882618385,-0.250123070708807,-0.002100749639999999,0.2394411458424967,0.22897383358815607,0.9902803381463525,0.13908577166894445,-0.550574828071689,0.23485096756788026,,,,,,,,,,,-0.01113252223387311,-0.09355376658171359,0.09421380096840073,0.00814900000000307,-8.203597523515072e-11,-0.0055540000000178225,-21.99786284782735,-103.18955962077185,105.50825173701179,False,,
2022-11-15 11:06:19.386991-07:00,29.654385,2.14,0.04,-2.14,0.16,13.59,971.2,40.93,28.0,0.0,0.00012145,-0.00031795,8.34591e-05,32.8213773,-111.787044,365.93120700000003,2.14661457,-0.454943889,-0.0906687647,2.0768,-5.95871,5695.97,25.0915,11138.0,-0.00826075,-1.0,18.0,-1324.0,71.0,,0.0,,2022-11-15 18:06:19.386991+00:00,1.1799272807852932,0.014674273629735467,2.140689416655923,-2.140314475278072,-0.040064017494841876,0.1600834591,361.07238029163767,0.22762171879718973,0.23862815891331662,1.9977550922451122,362.64843245553186,-1.991195791181464,-0.10665851757881513,0.10870666362,0.23572235813993575,0.2244095456380509,0.9341685327961844,0.3568321066460025,-0.8101596197887533,0.20768307611306128,,,,,,,,,,,-0.022265045866684145,0.0,0.022265045866684145,0.0031740000000013424,-0.07194875510171658,-0.004975000000001728,-22.008995371460163,-103.09600585419014,105.41907939433052,False,,
2022-11-15 11:06:20.391129-07:00,30.658523,2.43,-0.21,-2.42,-0.15,13.53,971.2,41.15,27.0,0.0,-0.000949034,0.000339796,0.000953866,32.8213773,-111.787044,365.93358800000004,2.18373904,-0.462507217,-0.0951032241,2.0776,-6.50141,5716.88,25.0921,11188.0,-0.0570273,-1.0,13.0,-1345.0,71.0,,0.0,,2022-11-15 18:06:20.391129+00:00,1.1801742308231302,0.01467831114917846,2.4288755352382823,-2.4099008456117974,-0.3030087127437047,-0.149046134,367.1664731252273,0.2349677301109479,0.24509033608209624,2.1680421840013677,359.1180225228165,-2.1408218738533953,0.025867621580019606,0.10065256602000001,0.23882870998967182,0.22758101006397635,0.33708878017981164,0.9414728643337983,-2.0068060166006436,0.2035385014210435,,,,,,,,,,,-0.022265045874995403,0.0,0.022265045874995403,0.005555000000015298,8.311257931881144e-12,0.0023810000000139553,-22.008995371468473,-103.09600585419014,105.41907939433226,False,,
2022-11-15 11:06:21.387572-07:00,31.654966,2.37,-0.17,-2.36,-0.03,13.5,971.22,41.12,25.0,0.0,0.000184052,2.43485e-05,0.000417632,32.8213772,-111.787044,365.93340500000005,2.2308842,-0.452486421,-0.099605686,2.07605,-6.26529,5737.74,25.0923,11166.0,-0.0817663,-1.0,17.0,-1358.0,71.0,,0.0,,2022-11-15 18:06:21.387572+00:00,1.1803220505764496,0.014680425878701997,2.3660704072928196,-2.3515694636793514,-0.2615534931091854,-0.029582367999999998,366.34664176084027,0.2332283153879406,0.24379651015279308,2.283996264831233,364.310617187214,-2.273140510689694,-0.17267420230322267,-0.027485730999999996,0.24212537377387927,0.2312407303288128,0.13114877667598718,-0.9913626976926215,2.2308606985161488,0.22730154353046797,,,,,,,,,,,-0.03339756881153492,0.0,0.03339756881153492,0.005372000000022581,0.011132522936539515,-0.00018299999999271677,-22.02012789440501,-103.09600585419014,105.4214041624051,False,,
2022-11-15 11:06:22.387231-07:00,32.654625,2.69,-0.34,-2.67,0.08,13.86,971.22,40.16,25.0,0.0,-0.000189572,-0.000103367,-8.06123e-05,32.8213773,-111.787044,365.927545,2.26817616,-0.451883707,-0.106758073,2.07992,-6.44804,5746.02,25.0932,11166.0,-0.161751,-1.0,17.0,-1358.0,71.0,,0.0,,2022-11-15 18:06:22.387231+00:00,1.1788415588228258,0.01465622719880822,2.6916942033303224,-2.6545553928553605,-0.4455932567988233,0.0799193877,369.5288257155085,0.2420086288788387,0.2515530810039267,2.418730401932696,369.15790670008903,-2.384431931619164,-0.39287966683073955,0.11592866474,0.24488327414850222,0.23440629122798273,0.47872395351395164,-0.8779654755922762,1.9053680075009731,0.18920095453666447,,,,,,,,,,,-0.022265045853901353,0.0,0.022265045853901353,-0.00048800000001847366,-0.011132522957633565,-0.005860000000041055,-22.00899537144738,-103.09600585419014,105.41907939432785,False,,
2022-11-15 11:06:23.387177-07:00,33.654571,2.61,-0.4,-2.58,0.01,14.37,971.22,38.96,27.0,0.0,3.0822e-05,-8.41349e-05,0.00153521,32.8213773,-111.787044,365.925592,2.30713541,-0.46044585,-0.099573416,2.07723,-6.45412,5754.7,25.0946,11140.0,-0.236937,-1.0,18.0,-1327.0,71.0,,0.0,,2022-11-15 18:06:23.387177+00:00,1.176750541867485,0.014622082692163281,2.610900236050851,-2.5618902684859277,-0.5035060027919125,0.01153521,371.11901727088355,0.23929445048749104,0.2492489004164911,2.781463078960712,372.5015308695758,-2.7141537464398424,-0.6018703764336536,0.0607968728,0.2533966125521618,0.24408490544579423,0.9389753418317945,0.3439844581254575,-1.4987681481885105,0.22527244633866972,,,,,,,,,,,-0.022265045847084098,0.0,0.022265045847084098,-0.002441000000033,-6.817255093771735e-12,-0.0019530000000145264,-22.008995371440562,-103.09600585419014,105.41907939432643,False,,
2022-11-15 11:06:24.387227-07:00,34.654621,2.89,-0.62,-2.83,0.04,13.71,971.23,40.6,28.0,0.0,-0.0004093,-0.000997246,0.000170784,32.8213773,-111.787044,365.92608,2.3466598,-0.46223776,-0.0884978558,2.07616,-6.39696,5804.03,25.0953,11193.0,-0.234479,-1.0,14.0,-1357.0,71.0,,0.0,,2022-11-15 18:06:24.387227+00:00,1.1794701228837114,0.014666347703429792,2.898187739010591,-2.803237752490535,-0.7357650940097223,0.040170784,374.70668207392407,0.24675417816736925,0.2557425890363452,3.040589166108915,372.404030492744,-2.968199816699843,-0.6463594098332399,0.0005848844000000033,0.2605467427111748,0.25204127395835596,0.9251121107572993,-0.37969406438628256,0.5290529343747116,0.22592551386937137,,,,,,,,,,,-0.022265045848787537,0.0,0.022265045848787537,-0.0019530000000145264,1.7034394728110414e-12,0.00048800000001847366,-22.008995371442264,-103.09600585419014,105.41907939432679,False,,
2022-11-15 11:06:25.387104-07:00,35.654498,3.73,-0.58,-3.68,-0.14,13.48,971.22,41.17,28.0,0.0,5.99436e-05,0.000169208,0.000939442,32.8213774,-111.787044,365.92785000000003,2.38229246,-0.455833152,-0.0870694775,2.07571,-6.05649,5845.34,25.0959,11206.0,-0.274763,-1.0,13.0,-1386.0,71.0,,0.0,,2022-11-15 18:06:25.387104+00:00,1.1804044091607273,0.014681772605060817,3.725248459275328,-3.6525414738571422,-0.7324048505346618,-0.139060558,371.33853578800955,0.2754009218864307,0.2813862358586995,3.7481554182898633,371.2788577294951,-3.6722925190975118,-0.7394337158990657,-0.139226629,0.28226643496098436,0.27637727020655395,0.9425995821953694,-0.33392518270581956,0.5292810387212221,0.25267839819132987,,,,,,,,,,,-0.011132522219331028,0.0,0.011132522219331028,-0.00018299999999271677,-0.01113252362945651,0.0017700000000218097,-21.997862847812808,-103.09600585419014,105.41675575048964,False,,
2022-11-15 11:06:26.387202-07:00,36.654596,4.12,-1.04,-3.97,-0.34,13.31,971.22,41.75,27.0,0.0,-0.000445842,0.000349961,0.00112359,32.8213774,-111.787044,365.923669,2.4193452,-0.454442181,-0.085400755,2.07644,-6.6778,5849.17,25.0971,11145.0,-0.31296,-1.0,16.0,-1345.0,71.0,,0.0,,2022-11-15 18:06:26.387202+00:00,1.1811049214471105,0.014693229813654472,4.103758130482708,-3.922209805105266,-1.2071044023774593,-0.33887641,377.106340174043,0.2860975871108872,0.2904138719623723,4.0017164175143565,376.3130161782654,-3.827107633320721,-1.1368812397965624,-0.2346869876,0.28729309917634405,0.28251580852344926,0.6174468426599664,0.7866126089055773,-3.712414852000597,0.20628774332628821,,,,,,,,,,,-0.011132522212033808,0.0,0.011132522212033808,-0.0043640000000095824,-7.297220119828474e-12,-0.004181000000016866,-21.99786284780551,-103.09600585419014,105.41675575048812,False,,
2022-11-15 11:06:27.387234-07:00,37.654628,3.69,-1.46,-3.38,-0.28,13.68,971.22,40.75,26.0,0.0,-9.81074e-06,0.00111634,0.000435037,32.8213774,-111.787044,365.932001,2.45448395,-0.451629668,-0.0899963437,2.07509,-6.39604,5839.56,25.0979,11155.0,-0.265539,-1.0,14.0,-1325.0,71.0,,0.0,,2022-11-15 18:06:27.387234+00:00,1.1795813401587674,0.01466831650693805,3.6808467466359565,-3.313257147071366,-1.6034212951065037,-0.279564963,385.82424765997933,0.26473030039357165,0.2708977552640888,3.8267612999356286,384.14187524764577,-3.4909718771808818,-1.5310158866025545,-0.29920654960000004,0.2770158054742001,0.27141540686880916,0.999961385056088,0.008787968861465883,-1.5616353186628837,0.2769944127807692,,,,,,,,,,,-0.01113252222657589,0.0,0.01113252222657589,0.003967999999986205,1.4542082815705015e-11,0.008331999999995787,-21.997862847820052,-103.09600585419014,105.41675575049115,False,,
2022-11-15 11:06:28.387313-07:00,38.654707,3.29,-1.17,-3.06,-0.26,13.25,971.22,41.8,25.0,0.0,-2.86368e-05,0.00143353,0.000711739,32.8213774,-111.787044,365.93432,2.4948101,-0.451015578,-0.0865394902,2.11547,-4.86575,5832.84,25.0988,11210.0,0.510695,-1.0,14.0,-1356.0,71.0,,0.0,,2022-11-15 18:06:28.387313+00:00,1.181352359628978,0.014697277826351584,3.2747454495020465,-3.004737301515235,-1.3021180852431562,-0.259288261,383.42974039195633,0.25390154255516867,0.2618619262721071,3.1740503217468303,381.62885186708144,-2.9489728641114614,-1.171410660537902,-0.22939971618000002,0.2602851985229965,0.25192120952040986,0.9998005309829493,0.01997243716256587,-1.23007517562746,0.2601813906203036,,,,,,,,,,,-0.011132522230623308,0.0,0.011132522230623308,0.006286999999986165,4.047416915509139e-12,0.00231899999999996,-21.997862847824102,-103.09600585419014,105.41675575049199,False,,
2022-11-15 11:06:29.387167-07:00,39.654561,4.01,-1.1,-3.84,-0.32,13.36,971.22,41.51,26.0,0.0,-0.000518397,0.00292298,-0.000531112,32.8213774,-111.787044,365.931421,2.53764761,-0.455585051,-0.084548121,2.27977,0.244145,5826.61,25.0997,11139.0,0.958267,0.0313056,18.0,-1332.0,71.0,,0.0,,2022-11-15 18:06:29.387167+00:00,1.1808988021281606,0.014689858181247921,3.9918395118556504,-3.7846078937275895,-1.269458852876602,-0.320531112,378.5428322177886,0.281223353115296,0.28618537337479344,3.856543904498774,381.13816790482485,-3.597452843677452,-1.3836785399348628,-0.338496882,0.28105452368499867,0.27483729124322764,0.9846346335974556,0.1746271408470182,-1.9906307166087944,0.2726127296233232,,,,,,,,,,,-0.011132522225563598,0.0,0.011132522225563598,0.003387999999972635,-5.059709595744977e-12,-0.0028990000000135296,-21.99786284781904,-103.09600585419014,105.41675575049094,False,,
2022-11-15 11:06:30.387203-07:00,40.654597,3.92,-2.11,-3.25,-0.56,12.73,971.21,43.35,28.0,1.0,-0.00049462,0.00191894,-0.00352191,32.8213775,-111.787044,365.928033,4.58364773,-0.458388566,-0.0879023279,2.23284,-1.06801,5811.6,25.1004,11178.0,0.977981,0.0319268,14.0,-1344.0,71.0,,0.0,,2022-11-15 18:06:30.387203+00:00,1.1834889888941411,0.014732406810959291,3.873648848134124,-3.0690672046174385,-2.36346819149159,-0.5635219100000001,397.59962811953545,0.2583418761694672,0.26916555843529844,4.031296876970488,392.0220129849991,-3.3987953533364896,-2.1304390104261848,-0.40120585200000003,0.2787720232911956,0.27003580193227555,0.9683493589660589,0.24959871592222352,-2.911344205937689,0.2619454392735976,2.3767758451517484,,-0.1439358451517485,0.005099019513592785,False,7.998161391900559,,-9.066171391900559,0.7071067811865476,False,0.0,0.0,0.0,0.0,-0.011132522225563598,-0.003387999999972635,-21.986730325593477,-103.09600585419014,105.41443323140138,False,,
2022-11-15 11:06:31.387869-07:00,41.655263,4.15,-1.89,-3.68,-0.32,12.71,971.19,43.35,28.0,1.0,0.00297699,0.00148609,-0.00757613,32.8213775,-111.787044,365.915704,4.86873505,-0.47749164,-0.187515121,10.9159,307.581,5713.34,25.1016,11217.0,0.999982,0.035499,15.0,-1367.0,71.0,,0.0,,2022-11-15 18:06:31.387869+00:00,1.1835474177558694,0.014733667299835938,4.134128401107468,-3.504825177160284,-2.192536912890356,-0.32757613,392.02913727909174,0.2744391387634042,0.282844313317162,4.056951009109889,397.90696854208153,-3.1947006519131165,-2.4857151898561036,-0.354329536,0.2736073969568462,0.2634992197561704,0.44663525561459544,-0.8947161272951801,1.7481421559406272,0.21788254699186538,2.3763771121557764,,8.539522887844225,0.005099019513592785,False,7.527275342469678,,300.0537246575303,0.7071067811865476,False,0.0,0.0,0.0,-0.012329000000022461,0.0,-0.012329000000022461,-21.986730325593477,-103.09600585419014,105.41443323140138,False,,
2022-11-15 11:06:32.387837-07:00,42.655231,4.59,-3.29,-3.19,-0.25,12.89,971.16,42.8,36.0,1.0,-0.0466919,-0.00151945,0.0123706,32.8213774,-111.787044,365.885461,5.90737227,-0.797507469,-1.42130024,48.3189,1552.74,5424.38,25.1025,11217.0,0.999951,0.0337652,15.0,-1367.0,71.0,,0.0,,2022-11-15 18:06:32.387837+00:00,1.1827660952371917,0.01472132602314006,4.6203091524440865,-2.835970691900999,-3.647537100405856,-0.2376294,412.1348305234361,0.25487089098323235,0.26603609249307447,4.500069505365347,407.9983678584593,-3.0044851577154126,-3.342651533312972,-0.253235338,0.2700260350983843,0.2584930382451927,0.032524829813974525,-0.9994709277640705,2.894176395786778,0.25821974562065186,2.3759643762745033,,45.942935623725496,0.005099019513592785,False,7.067721975216697,,1545.6722780247833,0.7071067811865476,False,-0.011132522145348274,0.0,0.011132522145348274,-0.04257200000000694,0.011132522145348274,-0.030242999999984477,-21.997862847738826,-103.09600585419014,105.41675575047421,False,,
2022-11-15 11:06:33.387374-07:00,43.654768,4.71,-2.05,-4.1,-1.07,12.82,971.12,43.04,23.0,2.0,-0.457206,-0.217876,0.744529,32.8213761,-111.787048,366.35897200000005,7.25273671,2.18766209,-0.262521054,99.0516,3277.06,5068.27,25.1034,11161.0,0.99999,0.0338366,17.0,-1353.0,71.0,,0.0,,2022-11-15 18:06:33.387374+00:00,1.1830068862849865,0.014725875619027516,5.026069650552132,-4.026266553880836,-3.00841382946259,-0.32547100000000007,396.7669710276632,0.2916028237016842,0.2979572051461275,4.916448476442651,399.7165909795911,-3.7714861048851125,-3.126455116234413,-0.1356982,0.29007837703608547,0.28124647390411617,0.4301892440170759,-0.9027387298283024,2.059699212982877,0.2354010551170279,2.3755375948335664,,96.67606240516643,0.005099019513592785,False,6.619206923102247,,3270.4407930768975,0.7071067811865476,False,-0.15585533435166762,-0.37421509065660297,0.40537367862380963,0.4309390000000235,0.39424115647846136,0.47351100000003044,-22.142585659945144,-103.47022094484674,105.81295158005663,False,,
2022-11-15 11:06:34.387083-07:00,44.654477,4.55,-2.97,-3.4,-0.57,12.51,971.02,43.81,12.0,2.0,-0.304802,-0.217946,0.792069,32.8213732,-111.787052,367.16170700000004,7.28537275,3.0296014,1.86921667,135.217,4557.85,4814.95,25.105,11140.0,0.999974,0.034109,17.0,-1352.0,71.0,,0.0,,2022-11-15 18:06:34.387083+00:00,1.184168741665252,0.014746428103585112,4.887325059603573,-3.213867487932819,-3.6819834339982385,0.22206900000000007,408.88349210878147,0.26193036288031085,0.2738646981972253,4.638773048276628,403.475265991579,-3.343251359996212,-3.1835594351285654,0.067237,0.2771580834040343,0.26394922802146437,0.5816450705231024,-0.8134426912427053,0.8678417316163107,0.1982307233874212,2.375096559231112,,132.8419034407689,0.005099019513592785,False,6.181303348689883,,4551.668696651311,0.7071067811865476,False,-0.4786985883958254,-0.7484302999366739,0.888425715744122,1.2336740000000077,0.48305203712031236,0.8027349999999842,-22.465428913989303,-103.84443615412681,106.24670543813595,False,,
2022-11-15 11:06:35.390888-07:00,45.658282,4.66,-2.8,-3.7,-0.46,12.21,970.91,44.7,19.0,2.0,-0.254521,-0.161203,1.56129,32.8213716,-111.787056,368.461694,7.14995013,2.6569228,1.97117331,141.876,4778.66,4757.3,25.1056,11207.0,0.999982,0.0341582,14.0,-1370.0,71.0,,0.0,,2022-11-15 18:06:35.390888+00:00,1.18527937540157,0.014766308860506167,4.93362888862564,-3.483924772288541,-3.4932738500890115,1.10129,405.0767732737322,0.27440588631279694,0.2828092872853111,5.004862786001313,406.5593760947885,-3.4295228879665496,-3.636684172074992,1.0245900000000001,0.2811417439379462,0.27282652854892386,0.5350671636470483,-0.844809523139212,0.9514233105457539,0.21069743191658485,2.374639491066161,,139.50136050893386,0.005099019513592785,False,5.752208725726948,,4772.907791274273,0.7071067811865476,False,-0.6568191270975156,-1.1226456989302713,1.3006708772967048,2.533660999999995,0.41224516155258284,1.2999869999999873,-22.643549452690994,-104.21865155312041,106.65016485391475,True,0.0,
2022-11-15 11:06:36.387693-07:00,46.655087,5.2,-0.41,-4.83,-1.9,12.31,970.79,44.46,17.0,2.0,-0.195243,-0.13593,1.55123,32.82137,-111.787059,370.04143700000003,6.93495625,4.35279656,2.33938718,93.5629,3097.59,5093.22,25.1066,11125.0,0.999981,0.0341267,17.0,-1331.0,71.0,,0.0,,2022-11-15 18:06:36.387693+00:00,1.1847177143291738,0.01475892257477905,5.022974183115786,-4.881088626246891,-1.1854296550073884,-0.3487699999999998,373.6506676192814,0.3243677356136786,0.3292112640989136,4.801315335560362,382.3618508274797,-4.2992610968746945,-1.7781295006265225,0.023636000000000122,0.30951480827430494,0.30171615048375056,0.5713725890249742,-0.8206907849555141,2.5123895079281366,0.22695163765279272,2.3741715476303744,,91.18872845236963,0.005099019513592785,False,5.336470428097457,,3092.2535295719026,0.7071067811865476,False,-0.8349397750241511,-1.4033074961951246,1.6329103946006374,4.113404000000003,0.33223951730393253,1.5797430000000077,-22.821670100617627,-104.49931335038526,106.96230699121739,True,0.0,
2022-11-15 11:06:37.387856-07:00,47.65525,4.18,-1.42,-3.74,-1.24,12.33,970.61,44.3,24.0,2.0,-0.0789131,-0.524045,1.42359,32.8213679,-111.78706,371.52614700000004,7.29189224,2.44952683,-5.00604179,49.401,1591.07,5364.62,25.1075,11173.0,0.999979,0.0341169,16.0,-1329.0,71.0,,0.0,,2022-11-15 18:06:37.387856+00:00,1.184415065798399,0.014756696262906514,4.503479243111058,-4.053564994335891,-1.962125411340166,0.18358999999999992,385.8292719476953,0.27604749043749405,0.2893364777972267,4.52596217550858,382.17836933084516,-4.159709789427642,-1.6947867561577332,0.06838600000000002,0.29204718029135035,0.27827988559396083,0.9888513888450498,-0.14890577819284323,-1.0564874143716603,0.2856382905167915,2.373687986827726,,47.02731201317228,0.005099019513592785,False,4.929562453090067,,1586.1404375469099,0.7071067811865476,False,-1.0687231617028965,-1.4968617122105285,1.839229235805605,5.59811400000001,0.20631884120496768,1.4847100000000069,-23.055453487296372,-104.59286756640067,107.10379022829918,True,0.0,
2022-11-15 11:06:38.386949-07:00,48.654343,3.0,-2.16,-2.07,-0.14,12.03,970.44,45.23,19.0,2.0,-0.203349,-1.4984,1.29332,32.821357,-111.787062,372.98501000000005,7.10840455,1.5637074,-3.30318948,25.1938,775.96,5511.84,25.1086,11204.0,0.999978,0.0341169,12.0,-1367.0,71.0,,0.0,,2022-11-15 18:06:38.386949+00:00,1.1854533659040958,0.014776315569236823,4.191374163905986,-3.2851959573186695,-2.6029031683632935,1.15332,398.3902397598765,0.2145213723241455,0.24557131531035015,4.403782980520828,396.84055344116484,-3.5191673542465063,-2.614393169095611,1.022978,0.25221998397690837,0.2245236388387389,0.9909165741292324,-0.13447803953056983,-2.1173947959680373,0.24769203380916893,2.3731909445921673,,22.820609055407832,0.005099019513592785,False,4.533173389836774,,771.4268266101633,0.7071067811865476,False,-2.282169773995397,-1.6839700187596502,2.8362041360627726,7.056977000000018,0.9969749002571675,1.458863000000008,-24.268900099588876,-104.77997587294979,107.55381376771241,True,0.0,
2022-11-15 11:06:39.387255-07:00,49.654649,2.55,-2.39,-0.89,0.12,12.27,970.33,44.59,32.0,2.0,-0.262533,-1.8331,0.95279,32.8213398,-111.787064,374.16366000000005,7.00583888,2.05026477,-0.33925972,11.305,308.066,5592.56,25.1091,11147.0,0.999978,0.0341175,16.0,-1359.0,71.0,,0.0,,2022-11-15 18:06:39.387255+00:00,1.184322299450025,0.01475943285912219,3.661384909027987,-2.424945543960505,-2.743242344541213,1.07279,408.52426382986494,0.18781619038430633,0.2303486247835305,3.622186579431342,407.55322438316614,-2.4514399485193827,-2.659572422615617,0.7881392,0.23135890441956378,0.18925627399326514,0.9898994156653458,-0.14177145998192628,-2.2851649665072564,0.22674069782841044,2.3726793255124865,,8.932320674487514,0.005099019513592785,False,4.1462521873419815,,303.919747812658,0.7071067811865476,False,-4.196966652669833,-1.8710785061227875,4.595156565308445,8.235627000000022,1.7589524292456722,1.1786500000000046,-26.18369697826331,-104.96708436031292,108.18352363717206,True,0.0,
2022-11-15 11:06:40.392150-07:00,50.659544,2.64,-2.31,-1.17,-0.49,12.29,970.23,44.4,34.0,2.0,-0.301714,-1.99142,0.120632,32.8213199,-111.787066,374.68667000000005,25.6310653,0.929520919,-0.473792891,8.31933,216.29,5607.56,25.1104,11153.0,0.999977,0.0341151,17.0,-1335.0,71.0,,0.0,,2022-11-15 18:06:40.392150+00:00,1.1841172722190456,0.014757591012083855,3.5419594463777058,-2.0470423561874824,-2.8905180005941262,-0.369368,414.6941708672149,0.1318748789971851,0.2714929355143472,3.6683169562980438,413.2852862270157,-2.18353928112003,-2.941853195356804,-0.49795940000000005,0.2634175778264859,0.14790183124662426,0.988716703074155,-0.14979746680826442,-2.581570739253228,0.257528062706417,2.3721513248741224,,5.947178675125878,0.005099019513592785,False,3.7674318855272677,,212.52256811447273,0.7071067811865476,False,-6.412342148937952,-2.0581869860886797,6.734557558203138,8.758637000000022,2.139400992894693,0.5230099999999993,-28.39907247453143,-105.15419284027882,108.92158458865825,True,0.0,
2022-11-15 11:06:42.479954-07:00,52.747348,2.64,-2.3,-1.31,0.02,12.66,970.2,43.4,33.0,2.0,-0.65055,-1.86935,-0.0264983,32.8212747,-111.787077,374.888635,26.6517401,0.356929185,3.67319418,157.722,5410.62,4560.49,25.1116,11195.0,0.999926,0.0343211,14.0,-1362.0,71.0,,0.0,,2022-11-15 18:06:42.479954+00:00,1.1825477877756478,0.014732314600245747,3.857849102010389,-2.0084592614951307,-3.2937958480751046,-0.0064982999999999985,418.6263968666391,0.1347506807607704,0.2731681829750771,3.7653193948540626,417.43050075489293,-2.0246224987305808,-3.1724583895108203,-0.057531677999999996,0.27327371324136,0.1330609587270173,0.9444432796922455,-0.32867444598592527,-2.330765327975865,0.2441762595613345,2.371009551649187,,155.3509904483508,0.005099019513592785,False,3.011388513971289,,5407.608611486028,0.7071067811865476,False,-11.444249892608008,-3.0872821483505826,11.853360986149987,8.960601999999994,5.118803427946849,0.20196499999997286,-33.43098021820148,-106.18328800254072,111.3217008915166,True,0.0,0.0
2022-11-15 11:06:47.387355-07:00,57.654749,3.88,-2.09,-3.21,-0.64,12.23,970.22,44.31,27.0,2.0,-0.506383,-1.37262,-0.0259201,32.8212087,-111.787115,374.82995,11.3378666,2.45701868,-0.189242928,190.575,6548.85,4358.79,25.115,11156.0,0.999925,0.0341619,18.0,-1347.0,71.0,,0.0,,2022-11-15 18:06:47.387355+00:00,1.1843540210579657,0.014761626600566907,5.1999506615555635,-4.109094821045529,-3.186663872181839,-0.6659201,397.79410763965217,0.25054063301403795,0.2768417369492393,5.174427673390346,399.0069667579631,-4.001631547058328,-3.2500545103750795,-0.7334485199999999,0.27497002779041496,0.2474988004042952,0.9381920578518234,-0.34611510019610664,-1.6641502253614018,0.24383910564267655,2.3680897111559935,,188.206910288844,0.005099019513592785,False,1.3925943855493035,,6547.457405614451,0.7071067811865476,False,-18.791725331855194,-6.642339192509982,19.9311216667864,8.901916999999969,8.077760680636413,-0.05868500000002541,-40.778455657448674,-109.73834504670012,117.07000819763839,True,0.0,0.0
2022-11-15 11:06:48.387172-07:00,58.654566,3.91,-2.34,-3.06,-0.66,11.86,970.23,45.28,19.0,2.0,-0.472364,-1.28769,-0.046994,32.8211994,-111.78712,374.82164900000004,11.3473374,2.68801772,0.281929976,182.16,6315.61,4405.08,25.1165,11143.0,0.999893,0.0342182,14.0,-1323.0,71.0,,0.0,,2022-11-15 18:06:48.387172+00:00,1.185903772436772,0.014786907728538837,5.098784685691842,-3.8274648133848856,-3.368696836069737,-0.706994,401.3522296775873,0.24394231989966855,0.2721377448491416,5.081765195589753,401.65843588252693,-3.787479512808402,-3.379498957765567,-0.5745112800000001,0.2714054946185357,0.24273537661940922,0.9388265845380256,-0.3443902498106843,-1.8683924483999301,0.24094172233213407,2.3674545548048966,,179.7925454451951,0.005099019513592785,False,1.088910716524802,,6314.521089283475,0.7071067811865476,False,-19.82705140521062,-7.11011029393999,21.06337190045449,8.893616000000009,1.132250233668092,-0.008300999999960368,-41.813781730804095,-110.20611614813014,117.8718812061913,True,0.0,0.0
2022-11-15 11:06:49.387085-07:00,59.654479,4.0,-2.64,-2.98,-0.4,11.93,970.21,45.18,19.0,2.0,-0.351489,-1.09768,-0.0258054,32.8211907,-111.787123,374.81820100000004,11.2899586,2.6640936,1.249945,221.877,7572.97,4186.1,25.117,11207.0,0.999895,0.0342391,13.0,-1355.0,71.0,,0.0,,2022-11-15 18:06:49.387085+00:00,1.1855881397391612,0.01478203079049374,4.968846322669899,-3.5031698652278265,-3.5238096818173688,-0.4258054,405.16829008421075,0.24055495763993848,0.2689327460143848,4.638873551695976,405.6987446290184,-3.22123256769151,-3.303057602792903,-0.39505792000000006,0.26334982000236723,0.22738777578191463,0.9523658521158792,-0.3049578392558475,-2.1633791448879283,0.23979274936694744,2.36680580094379,,219.51019419905623,0.005099019513592785,False,0.7937224770765223,,7572.176277522924,0.7071067811865476,False,-20.795582259663476,-7.390773260913185,22.069883799255933,8.890168000000017,1.0065118988014419,-0.00344799999999168,-42.78231258525695,-110.48677911510332,118.4806086639171,True,0.0,0.0
2022-11-15 11:06:50.387881-07:00,60.655275,4.05,-3.06,-2.63,-0.32,12.12,970.23,44.38,21.0,2.0,-0.302433,-1.1539,-0.024826,32.8211829,-111.787125,374.800043,11.3905265,2.30571342,-1.83932385,146.683,5005.09,4623.38,25.118,11193.0,0.99989,0.0342478,14.0,-1368.0,71.0,,0.0,,2022-11-15 18:06:50.387881+00:00,1.1848229192771915,0.01476916737202925,4.938354271794552,-3.127763622913996,-3.821575281598861,-0.344826,410.70143204506985,0.22583083458581144,0.2602475219274268,4.752622758174559,410.8711452174795,-2.999123167801165,-3.6841445426849324,-0.34822842,0.2579776204007551,0.21985977031248063,0.9673267807269531,-0.2535328367064693,-2.803395475843467,0.24180843422388232,2.3661429625088126,,144.3168570374912,0.005099019513592785,False,0.5066726143059836,,5004.583327385694,0.7071067811865476,False,-21.663920215749222,-7.577882090478685,22.951029085675994,8.872009999999989,0.8811452864200611,-0.018158000000028096,-43.6506505413427,-110.67388794466882,118.97095765552,True,0.0,0.0
2022-11-15 11:06:51.387371-07:00,61.654765,3.75,-3.06,-2.11,-0.46,12.35,970.23,43.78,31.0,2.0,-0.300128,-1.21876,-0.0272959,32.8211726,-111.787127,374.80294200000003,11.264695,1.77931549,0.165401105,172.277,5879.49,4442.52,25.1185,11139.0,0.999888,0.0342579,16.0,-1322.0,71.0,,0.0,,2022-11-15 18:06:51.387371+00:00,1.1838684209534305,0.01475350958997524,4.585523555950738,-2.6903651949461596,-3.7133490813551875,-0.4872959,414.0762273559992,0.20632158123157285,0.25147633317760054,4.474672160793683,413.2938810007374,-2.678022359742542,-3.577734573151487,-0.46713912999999996,0.25173221722234207,0.205525615379936,0.9709916612895299,-0.2391133490757029,-2.8335995414996935,0.23763010335034213,2.365467541228682,,169.91153245877132,0.005099019513592785,False,0.22824758232322634,,5879.261752417677,0.7071067811865476,False,-22.81057170737713,-7.764991192426764,24.09600111711193,8.874909000000002,1.144972031435934,0.0028990000000135296,-44.797302032970606,-110.8609970466169,119.56989142590702,True,0.0,0.0
2022-11-15 11:06:52.387361-07:00,62.654755,3.47,-2.89,-1.81,-0.66,12.36,970.23,43.82,6.0,2.0,-0.337842,-1.08158,-0.00449196,32.8211632,-111.787129,374.78219,11.3507139,2.55229142,-0.172976778,206.252,7083.16,4261.66,25.1197,11187.0,0.99988,0.0342837,14.0,-1326.0,71.0,,0.0,,2022-11-15 18:06:52.387361+00:00,1.183826955911192,0.014752829573471583,4.2042522170170455,-2.287385359531279,-3.527549421524056,-0.66449196,417.039226100826,0.19599475499241537,0.24813721542699116,4.341414224569149,416.92334493488704,-2.368065958202383,-3.638203566529653,-0.677336092,0.24917792391509908,0.19980248792091668,0.9545180976981454,-0.298152982823774,-2.7666852184010136,0.2277209274825758,2.3647783763069095,,203.8872216236931,0.005099019513592785,False,-0.04220083655334361,,7083.202200836553,0.7071067811865476,False,-23.85703026295179,-7.9521002290731735,25.147441043188135,8.854156999999987,1.0514399260762062,-0.02075200000001587,-45.843760588545265,-111.0481060832633,120.1388040958439,True,0.0,0.0
2022-11-15 11:06:53.386986-07:00,63.65438,3.9,-3.24,-2.06,-0.67,12.28,970.22,43.99,360.0,2.0,0.0383097,-0.766229,-0.0179087,32.8211546,-111.787129,374.80224000000004,11.0783324,6.03311617,3.16343731,210.855,7172.94,4238.42,25.1204,11211.0,0.999881,0.0342848,11.0,-1369.0,71.0,,0.0,,2022-11-15 18:06:53.386986+00:00,1.184146552673238,0.014758223389204878,4.147264329095627,-2.165272949413686,-3.5371449602647553,-0.6879087,418.5270017859209,0.20499869849301228,0.24995784863448745,4.13769665062433,417.1218681239105,-2.246644769209828,-3.4741487665953485,-0.59741776,0.25117564525002917,0.20737916080682867,0.998752452643992,0.04993534156897755,-3.5820015754218533,0.2505498627771404,2.3640761045035763,,208.49092389549642,0.005099019513592785,False,-0.3045711676545757,,7173.244571167655,0.7071067811865476,False,-24.81442866227455,-7.952101023914407,26.057470723952726,8.874207000000013,0.9100296807645911,0.020050000000026102,-46.80115898786803,-111.04810687810455,120.50738783916374,True,0.0,0.0
2022-11-15 11:06:54.387390-07:00,64.654784,4.9,-4.29,-2.31,-0.49,12.34,970.19,43.66,14.0,2.0,0.882993,-0.395098,-0.00817107,32.8211511,-111.787121,374.751367,11.1799787,6.36308736,2.23732144,140.821,4763.73,4677.26,25.1214,11158.0,0.999878,0.0342819,14.0,-1352.0,71.0,,0.0,,2022-11-15 18:06:54.387390+00:00,1.1838610794475315,0.01475399745800204,4.193582732411723,-1.8294662781957363,-3.7734850298532283,-0.49817107,424.13489990377775,0.21377146092501226,0.25071995639593136,4.081675017949391,424.07421640210305,-1.7816860726834463,-3.6675081703929022,-0.502503064,0.2501502368010375,0.21136152653765156,0.40843050196352954,0.9127894198914771,-3.1242263997023656,0.18097962365720757,2.3633599572150352,,138.45764004278496,0.005099019513592785,False,-0.5592920538000443,,4764.2892920538,0.7071067811865476,False,-25.204067314319047,-7.203668213282056,26.213314267977943,8.823333999999988,0.15584354402521683,-0.05087300000002415,-47.190797639912525,-110.2996740674722,119.9707859492542,True,0.0,0.0
2022-11-15 11:06:55.386965-07:00,65.654359,5.89,-5.3,-2.57,-0.28,12.62,970.19,42.78,354.0,2.0,1.38876,-0.180817,0.0147791,32.8211512,-111.787106,374.68252,11.3940765,5.17959452,0.103932911,123.177,4163.97,4807.99,25.1226,11140.0,0.999873,0.0342785,15.0,-1329.0,70.0,,0.0,,2022-11-15 18:06:55.386965+00:00,1.1827011217814178,0.0147349795196245,4.62036285000333,-1.6531196522210214,-4.31450440736031,-0.26522090000000004,429.0354653853525,0.22341633343646844,0.25181776418965834,4.440713511131923,426.33624493217485,-1.7810123307939012,-4.056904802952259,-0.25787278456000007,0.2538868323870352,0.226129359235623,0.1291105723601123,0.9916302033040564,-2.289894920791842,0.2224001587320082,2.362631129894133,,120.81436887010588,0.005099019513592785,False,-0.8060869176089989,,4164.776086917609,0.7071067811865476,False,-25.192934503359847,-5.800356154931634,25.852042093703783,8.754486999999983,-0.36127217427415914,-0.06884700000000521,-47.17966482895332,-108.89636200912177,118.67745545045224,True,0.0,0.0
2022-11-15 11:06:56.387768-07:00,66.655162,6.23,-5.59,-2.69,-0.6,12.44,970.19,43.24,17.0,2.0,1.66065,-0.109918,0.0525978,32.8211527,-111.787086,374.64531900000003,11.3044381,4.69600893,0.390560765,124.548,4181.16,4792.64,25.1237,11206.0,0.999867,0.0342736,12.0,-1339.0,70.0,,0.0,,2022-11-15 18:06:56.387768+00:00,1.1834465477484357,0.014747199677186594,4.65143451059931,-1.6519670474985748,-4.348200533596982,-0.5474022,429.19722935148616,0.22840162447594461,0.252630801354754,4.5201342317418085,428.3179289961748,-1.6652666612900529,-4.201050314476268,-0.48520580999999996,0.2528022533528044,0.22757471943798016,0.06604522829957134,0.9978166303579318,-1.9390900957334147,0.2265847281449753,2.361888158188888,,122.18611184181111,0.005099019513592785,False,-1.0455905653651647,,4182.205590565365,0.7071067811865476,False,-25.02594628146014,-3.929273436080821,25.33253198987458,8.717286000000001,-0.5195101038292016,-0.03720099999998183,-47.01267660705362,-107.02527929027096,116.89568926577194,True,0.0,0.0
2022-11-15 11:06:57.387507-07:00,67.654901,5.81,-5.13,-2.61,-0.79,12.53,970.19,42.94,6.0,2.0,1.87802,0.0671329,0.00653457,32.8211561,-111.78706,374.677026,11.2455021,4.02826139,1.25812547,89.0809,2949.37,5055.47,25.1248,11195.0,0.999859,0.0342728,14.0,-1368.0,70.0,,0.0,,2022-11-15 18:06:57.387507+00:00,1.1830737173462467,0.014741087053599208,3.9548417662028346,-1.4923382808551058,-3.6624718225805895,-0.78346543,427.83070073310296,0.225263044490934,0.25274772168785814,3.9982053763759224,425.7616865076855,-1.630194429753388,-3.64669277332262,-0.390192446,0.2552612329907627,0.23102594061594522,0.03572382035937405,-0.999361700616414,1.4988800801137463,0.23073133727766731,2.3611327837486966,,86.7197672162513,0.005099019513592785,False,-1.2773830790392402,,2950.647383079039,0.7071067811865476,False,-24.647440098643756,-1.4968660205279052,24.692851421001244,8.748992999999984,-0.639680568873338,0.031706999999983054,-46.63417042423723,-104.59287187471804,114.51818501075708,True,0.0,0.0
2022-11-15 11:06:58.387301-07:00,68.654695,6.17,-5.65,-2.46,-0.21,12.4,970.15,42.34,22.0,2.0,2.01637,0.217532,0.0111323,32.8211607,-111.787032,374.75219100000004,11.3322926,2.08877082,0.747013126,71.9341,2377.37,5194.46,25.1259,11171.0,0.999853,0.034272,12.0,-1343.0,70.0,,0.0,,2022-11-15 18:06:58.387301+00:00,1.1835635263902893,0.014749725936437698,4.150982002089464,-1.0842897832997835,-4.006865014884125,-0.19886769999999998,434.85796025634966,0.21919241484787838,0.24929957806455152,3.7598737235953785,434.299665371818,-1.0178572262706904,-3.617613801590987,-0.25281117999999997,0.24919330140074192,0.21439819240492214,0.10726059460588236,-0.9942309414038534,0.6239577408767276,0.21195096699857918,2.3603642244223546,,69.57373577557765,0.005099019513592785,False,-1.5018646449999,,2378.8718646449997,0.7071067811865476,False,-24.135343615343267,1.1226494701945824,24.161439387247174,8.824158000000011,-0.5314120337540693,0.0751650000000268,-46.122073940936744,-101.97335638399555,111.91877017207884,True,0.0,0.0
