Timestamp,Seconds,S,Um,Vm,Wm,T,P,H,MD,Sts,Vx,Vy,Vz,Lat,Lon,Alt,Yaw,Roll,Pitch,CH4,C2H6,H2O,T_a,Batt,R,C2C1,Power,Current,SOC,Lat_a,Lon_a,TS,Timestamp_UTC
2022-11-15 11:05:49.732606-07:00,0.0,2.77,-0.35,-2.75,0.04,12.78,971.25,43.53,26.0,0.0,-0.000791927,0.000203031,0.012139,32.8213778,-111.787045,365.089417,0.548701593,-0.460070327,-0.13126305,,,,,,,,,,,,,,2022-11-15 18:05:49.732606+00:00
2022-11-15 11:05:49.942683-07:00,0.210077,3.0,-0.24,-2.99,-0.11,12.33,971.24,44.84,25.0,0.0,-0.000188265,0.000120376,0.0125395,32.8213779,-111.787045,365.08844,0.5616105,-0.461349962,-0.133755156,,,,,,,,,,,,,,2022-11-15 18:05:49.942683+00:00
2022-11-15 11:05:50.152309-07:00,0.419703,3.0,-0.25,-2.98,-0.19,12.3,971.25,44.88,26.0,0.0,-0.000455622,7.1365e-05,0.0126339,32.8213779,-111.787045,365.089905,0.57474975,-0.461004558,-0.131533751,,,,,,,,,,,,,,2022-11-15 18:05:50.152309+00:00
2022-11-15 11:05:50.362604-07:00,0.629998,2.8,-0.29,-2.78,-0.09,12.39,971.25,44.61,28.0,0.0,-0.000138402,0.000155701,0.0117452,32.8213779,-111.787045,365.087341,0.589002979,-0.460081488,-0.128532382,2.07645,-5.06693,5840.47,25.0711,11204.0,-0.4385,-1.0,12.0,-1350.0,71.0,,0.0,,2022-11-15 18:05:50.362604+00:00
2022-11-15 11:05:50.572416-07:00,0.83981,2.98,-0.2,-2.96,-0.33,12.17,971.24,45.26,27.0,0.0,-0.000149657,0.000628128,0.0111586,32.821378,-111.787045,365.087738,0.601982973,-0.455878879,-0.129749146,,,,,,,,,,,,,,2022-11-15 18:05:50.572416+00:00
2022-11-15 11:05:50.782396-07:00,1.04979,3.02,-0.22,-3.0,-0.3,12.24,971.23,45.05,26.0,0.0,0.000213867,-0.000395279,0.0107383,32.8213781,-111.787045,365.087372,0.619870917,-0.457189682,-0.120879697,,,,,,,,,,,,,,2022-11-15 18:05:50.782396+00:00
2022-11-15 11:05:50.986151-07:00,1.253545,3.07,-0.43,-3.04,-0.1,12.27,971.25,44.96,26.0,0.0,-0.000171642,0.000567061,0.0101629,32.8213781,-111.787045,365.086609,0.631990487,-0.459725832,-0.128551618,,,,,,,,,,,,,,2022-11-15 18:05:50.986151+00:00
2022-11-15 11:05:51.186757-07:00,1.454151,2.93,-0.33,-2.9,-0.26,12.22,971.23,45.1,27.0,0.0,-0.000209975,0.000187919,0.00930434,32.8213782,-111.787045,365.08847,0.644763356,-0.460479202,-0.11623868,,,,,,,,,,,,,,2022-11-15 18:05:51.186757+00:00
2022-11-15 11:05:51.387882-07:00,1.655276,2.97,-0.2,-2.95,-0.31,12.39,971.24,44.56,27.0,0.0,0.000203991,0.00028893,0.00995392,32.8213782,-111.787045,365.088715,0.656601728,-0.45679927,-0.123001916,2.07719,-5.4168,5833.65,25.0719,11212.0,-0.386222,-1.0,14.0,-1366.0,71.0,,0.0,,2022-11-15 18:05:51.387882+00:00
2022-11-15 11:05:51.586781-07:00,1.854175,2.93,-0.16,-2.9,-0.33,12.68,971.24,43.7,26.0,0.0,-5.86099e-05,4.93804e-05,0.00976356,32.8213782,-111.787045,365.084808,0.666288793,-0.455336285,-0.117159664,,,,,,,,,,,,,,2022-11-15 18:05:51.586781+00:00
2022-11-15 11:05:51.786771-07:00,2.054165,3.01,-0.25,-2.98,-0.32,12.29,971.24,44.9,26.0,0.0,0.000496299,1.63028e-05,0.0102055,32.8213782,-111.787045,365.087585,0.678750786,-0.454772571,-0.117598985,,,,,,,,,,,,,,2022-11-15 18:05:51.786771+00:00
2022-11-15 11:05:51.986414-07:00,2.253808,3.11,-0.41,-3.08,-0.14,12.28,971.23,44.88,27.0,0.0,7.74917e-05,0.000922766,0.00987682,32.8213782,-111.787045,365.085541,0.688195936,-0.456146686,-0.115892995,,,,,,,,,,,,,,2022-11-15 18:05:51.986414+00:00
2022-11-15 11:05:52.186054-07:00,2.453448,2.95,-0.49,-2.91,-0.06,12.34,971.23,44.75,29.0,0.0,-7.14133e-06,-0.000183663,0.00946254,32.8213782,-111.787045,365.087891,0.702735832,-0.459047992,-0.104466014,,,,,,,,,,,,,,2022-11-15 18:05:52.186054+00:00
2022-11-15 11:05:52.387159-07:00,2.654553,2.82,-0.41,-2.78,-0.09,12.37,971.24,44.66,27.0,0.0,-0.000166279,0.000993985,0.00974599,32.8213782,-111.787045,365.088074,0.717345177,-0.457920323,-0.113766694,2.07631,-5.49304,5791.13,25.0725,11140.0,-0.366789,-1.0,19.0,-1336.0,71.0,,0.0,,2022-11-15 18:05:52.387159+00:00
2022-11-15 11:05:52.586830-07:00,2.854224,2.53,-0.08,-2.53,-0.04,12.65,971.23,43.8,26.0,0.0,-0.000352406,-0.000133656,0.00898298,32.8213783,-111.787045,365.089172,0.733524885,-0.455830031,-0.105583412,,,,,,,,,,,,,,2022-11-15 18:05:52.586830+00:00
2022-11-15 11:05:52.786774-07:00,3.054168,2.19,0.12,-2.18,0.15,12.74,971.24,43.49,27.0,0.0,0.000425,0.000571603,0.00904011,32.8213783,-111.787045,365.086426,0.749089127,-0.459835192,-0.113644697,,,,,,,,,,,,,,2022-11-15 18:05:52.786774+00:00
2022-11-15 11:05:52.986082-07:00,3.253476,2.45,-0.13,-2.43,-0.29,12.76,971.24,43.48,28.0,0.0,-9.71653e-05,-0.00020435,0.00879091,32.8213783,-111.787045,365.087402,0.762244802,-0.461273103,-0.107025645,,,,,,,,,,,,,,2022-11-15 18:05:52.986082+00:00
2022-11-15 11:05:53.186898-07:00,3.454292,2.66,-0.12,-2.64,-0.31,12.8,971.25,43.36,28.0,0.0,-0.000558164,-5.14325e-05,0.00948819,32.8213783,-111.787045,365.087799,0.775578113,-0.461510267,-0.117714645,,,,,,,,,,,,,,2022-11-15 18:05:53.186898+00:00
2022-11-15 11:05:53.387326-07:00,3.65472,3.12,-0.36,-3.09,-0.21,12.54,971.24,44.11,26.0,0.0,-0.000428358,0.000716158,0.00914408,32.8213782,-111.787045,365.087494,0.786350524,-0.462090779,-0.116383809,2.07846,-5.56795,5743.06,25.0728,11145.0,-0.360457,-1.0,14.0,-1327.0,71.0,,0.0,,2022-11-15 18:05:53.387326+00:00
2022-11-15 11:05:53.586459-07:00,3.853853,2.83,-0.43,-2.79,-0.18,12.61,971.23,43.92,26.0,0.0,-0.000210842,-0.000320243,0.00889204,32.8213782,-111.787045,365.0867,0.804213089,-0.46216545,-0.1076871,,,,,,,,,,,,,,2022-11-15 18:05:53.586459+00:00
2022-11-15 11:05:53.786802-07:00,4.054196,2.72,-0.14,-2.7,-0.27,12.74,971.24,43.49,28.0,0.0,-0.000692618,0.000578359,0.00896225,32.8213782,-111.787045,365.086304,0.81275623,-0.461004911,-0.116762978,,,,,,,,,,,,,,2022-11-15 18:05:53.786802+00:00
2022-11-15 11:05:53.986435-07:00,4.253829,2.41,-0.02,-2.41,0.0,12.87,971.25,43.06,27.0,0.0,-0.000323524,-0.00032682,0.00882774,32.8213782,-111.787045,365.086395,0.826011388,-0.460836274,-0.109674335,,,,,,,,,,,,,,2022-11-15 18:05:53.986435+00:00
2022-11-15 11:05:54.186163-07:00,4.453557,2.05,-0.1,-2.04,0.03,12.89,971.23,43.05,26.0,0.0,-0.000350009,0.000683189,0.00762363,32.8213782,-111.787045,365.085571,0.839875061,-0.460763284,-0.119551396,,,,,,,,,,,,,,2022-11-15 18:05:54.186163+00:00
2022-11-15 11:05:54.387901-07:00,4.655295,1.9,-0.05,-1.9,0.12,12.72,971.24,43.59,26.0,0.0,-0.000361734,4.3961e-06,0.00738056,32.8213782,-111.787045,365.085968,0.852723355,-0.458886148,-0.11351395,2.07692,-5.91427,5717.18,25.0731,11145.0,-0.300941,-1.0,14.0,-1327.0,71.0,,0.0,,2022-11-15 18:05:54.387901+00:00
2022-11-15 11:05:54.586143-07:00,4.853537,2.32,-0.08,-2.31,-0.11,12.5,971.23,44.18,27.0,0.0,-0.000177197,-0.000229011,0.0067389,32.8213782,-111.787045,365.08432,0.865774433,-0.457891996,-0.122289254,,,,,,,,,,,,,,2022-11-15 18:05:54.586143+00:00
2022-11-15 11:05:54.786919-07:00,5.054313,2.41,-0.13,-2.41,-0.16,12.58,971.24,43.93,28.0,0.0,-0.000203183,0.000679639,0.00707233,32.8213782,-111.787045,365.086792,0.870615696,-0.453519543,-0.121107028,,,,,,,,,,,,,,2022-11-15 18:05:54.786919+00:00
2022-11-15 11:05:54.986744-07:00,5.254138,2.21,-0.13,-2.2,-0.05,12.71,971.24,43.56,27.0,0.0,-0.000230839,-0.000759133,0.00814927,32.8213782,-111.787045,365.090332,0.884931547,-0.452782325,-0.114030884,,,,,,,,,,,,,,2022-11-15 18:05:54.986744+00:00
2022-11-15 11:05:55.186609-07:00,5.454003,2.25,-0.17,-2.24,-0.11,12.65,971.24,43.8,25.0,0.0,0.000175803,0.000369646,0.0086195,32.8213782,-111.787045,365.091278,0.899130054,-0.451773688,-0.121540653,,,,,,,,,,,,,,2022-11-15 18:05:55.186609+00:00
2022-11-15 11:05:55.387120-07:00,5.654514,2.27,-0.14,-2.26,-0.2,12.62,971.23,43.82,26.0,0.0,0.00050658,-0.000714107,0.00829491,32.8213782,-111.787045,365.090942,0.912981916,-0.450050274,-0.11112512,2.07878,-5.84276,5709.77,25.0741,11203.0,-0.31425,-1.0,14.0,-1348.0,71.0,,0.0,,2022-11-15 18:05:55.387120+00:00
2022-11-15 11:05:55.586229-07:00,5.853623,2.26,-0.21,-2.25,-0.02,12.67,971.24,43.75,28.0,0.0,0.00035215,0.000468429,0.00793953,32.8213782,-111.787045,365.085083,0.926681638,-0.454175567,-0.11970741,,,,,,,,,,,,,,2022-11-15 18:05:55.586229+00:00
2022-11-15 11:05:55.786346-07:00,6.05374,2.17,-0.12,-2.17,-0.07,12.63,971.24,43.74,27.0,0.0,-0.000525454,-0.000528337,0.00789796,32.8213782,-111.787045,365.086456,0.939441202,-0.456644771,-0.113793214,,,,,,,,,,,,,,2022-11-15 18:05:55.786346+00:00
2022-11-15 11:05:55.986140-07:00,6.253534,2.24,-0.22,-2.22,-0.02,12.54,971.23,44.0,26.0,0.0,-0.00028867,-8.3223e-05,0.00776059,32.8213782,-111.787045,365.08548,0.95480842,-0.456618747,-0.117744487,,,,,,,,,,,,,,2022-11-15 18:05:55.986140+00:00
2022-11-15 11:05:56.185997-07:00,6.453391,1.84,0.0,-1.84,0.14,12.61,971.24,43.86,26.0,0.0,0.000110231,-0.000262047,0.0080962,32.8213782,-111.787045,365.086792,0.965704464,-0.459658189,-0.115106814,,,,,,,,,,,,,,2022-11-15 18:05:56.185997+00:00
2022-11-15 11:05:56.386988-07:00,6.654382,2.09,-0.04,-2.09,-0.11,12.74,971.24,43.44,28.0,0.0,-0.000179771,-0.000415763,0.00826199,32.8213782,-111.787045,365.088226,0.975295568,-0.460961475,-0.112434044,2.07693,-5.40615,5705.35,25.0743,11197.0,0.0721832,-1.0,16.0,-1364.0,71.0,,0.0,,2022-11-15 18:05:56.386988+00:00
2022-11-15 11:05:56.586716-07:00,6.85411,2.15,-0.08,-2.15,-0.11,12.96,971.24,42.82,28.0,0.0,-0.000237022,-0.000129691,0.00758774,32.8213782,-111.787045,365.086578,0.985206007,-0.4605648,-0.122729388,,,,,,,,,,,,,,2022-11-15 18:05:56.586716+00:00
2022-11-15 11:05:56.786030-07:00,7.053424,1.9,0.01,-1.9,0.03,12.94,971.25,42.92,26.0,0.0,-0.000197756,-0.000174106,0.00743399,32.8213782,-111.787045,365.089996,0.998264569,-0.460932439,-0.114954615,,,,,,,,,,,,,,2022-11-15 18:05:56.786030+00:00
2022-11-15 11:05:56.985931-07:00,7.253325,2.2,-0.17,-2.19,-0.13,12.91,971.22,42.96,26.0,0.0,-0.000320886,-6.97694e-05,0.00674181,32.8213782,-111.787045,365.088409,1.00949559,-0.460845873,-0.126037142,,,,,,,,,,,,,,2022-11-15 18:05:56.985931+00:00
2022-11-15 11:05:57.186120-07:00,7.453514,1.86,0.01,-1.85,0.18,12.73,971.23,43.52,28.0,0.0,-0.000290527,-0.000461396,0.00673086,32.8213782,-111.787045,365.088928,1.02653995,-0.460016255,-0.114769586,,,,,,,,,,,,,,2022-11-15 18:05:57.186120+00:00
2022-11-15 11:05:57.386879-07:00,7.654273,1.46,0.2,-1.42,0.25,13.53,971.23,41.26,28.0,0.0,-0.000243428,-0.0010089,0.00636269,32.8213782,-111.787045,365.085938,1.04337364,-0.45890386,-0.120903443,2.07514,-5.42999,5689.87,25.0752,11138.0,0.142804,-1.0,18.0,-1358.0,71.0,,0.0,,2022-11-15 18:05:57.386879+00:00
2022-11-15 11:05:57.586773-07:00,7.854167,1.64,-0.07,-1.64,-0.0,13.69,971.23,40.87,26.0,0.0,0.000125371,0.000254555,0.00549337,32.8213782,-111.787045,365.081207,1.05506771,-0.460310816,-0.117515795,,,,,,,,,,,,,,2022-11-15 18:05:57.586773+00:00
2022-11-15 11:05:57.786741-07:00,8.054135,1.38,0.05,-1.36,0.23,13.59,971.22,41.03,26.0,0.0,5.60139e-05,-0.00053583,0.00557898,32.8213782,-111.787045,365.079071,1.06972847,-0.461180191,-0.116828906,,,,,,,,,,,,,,2022-11-15 18:05:57.786741+00:00
2022-11-15 11:05:57.986158-07:00,8.253552,1.2,0.14,-1.13,0.36,13.79,971.23,40.51,26.0,0.0,0.000428196,1.7137e-05,0.00554578,32.8213782,-111.787045,365.07901,1.0785557,-0.460676843,-0.123855919,,,,,,,,,,,,,,2022-11-15 18:05:57.986158+00:00
2022-11-15 11:05:58.186276-07:00,8.45367,1.07,0.3,-0.94,0.42,13.78,971.22,40.52,28.0,0.0,-1.69944e-06,-0.000724854,0.0064311,32.8213782,-111.787045,365.081116,1.09400373,-0.461889562,-0.111594303,,,,,,,,,,,,,,2022-11-15 18:05:58.186276+00:00
2022-11-15 11:05:58.387616-07:00,8.65501,1.27,0.73,-0.95,0.43,14.47,971.23,38.75,26.0,0.0,-0.000429593,0.000445046,0.00674726,32.8213782,-111.787045,365.08313,1.10528157,-0.466146049,-0.118036224,2.07641,-5.58808,5680.8,25.0756,11213.0,0.161181,-1.0,14.0,-1386.0,71.0,,0.0,,2022-11-15 18:05:58.387616+00:00
2022-11-15 11:05:58.586130-07:00,8.853524,1.59,0.77,-1.32,0.45,13.86,971.24,40.28,26.0,0.0,0.000126405,-0.000124647,0.00647247,32.8213782,-111.787045,365.083435,1.11685051,-0.467595148,-0.110708651,,,,,,,,,,,,,,2022-11-15 18:05:58.586130+00:00
2022-11-15 11:05:58.786263-07:00,9.053657,2.04,0.78,-1.83,0.41,12.86,971.24,43.04,26.0,0.0,-0.000336753,0.000158614,0.00632288,32.8213782,-111.787045,365.084717,1.12894223,-0.467492541,-0.114245875,,,,,,,,,,,,,,2022-11-15 18:05:58.786263+00:00
2022-11-15 11:05:58.986718-07:00,9.254112,1.94,0.68,-1.77,0.41,13.37,971.23,41.73,27.0,0.0,-0.000163515,-3.31988e-05,0.00520738,32.8213782,-111.787045,365.083801,1.13822044,-0.465639751,-0.112183034,,,,,,,,,,,,,,2022-11-15 18:05:58.986718+00:00
2022-11-15 11:05:59.186288-07:00,9.453682,1.79,0.53,-1.67,0.39,13.73,971.23,40.71,27.0,0.0,-0.000360537,-0.00114043,0.00489613,32.8213782,-111.787045,365.08783,1.14824342,-0.466845782,-0.104496776,,,,,,,,,,,,,,2022-11-15 18:05:59.186288+00:00
2022-11-15 11:05:59.387140-07:00,9.654534,1.61,0.42,-1.49,0.45,13.95,971.24,40.05,26.0,0.0,-0.000872614,0.000203649,0.00483783,32.8213782,-111.787045,365.082764,1.15864429,-0.465415465,-0.111861207,2.07497,-6.20371,5697.41,25.0767,11198.0,0.277503,-1.0,17.0,-1384.0,71.0,,0.0,,2022-11-15 18:05:59.387140+00:00
2022-11-15 11:05:59.586159-07:00,9.853553,1.68,0.73,-1.43,0.49,13.76,971.23,40.53,25.0,0.0,-0.000167251,-0.000823524,0.00454319,32.8213782,-111.787045,365.081635,1.17178057,-0.462698948,-0.0998597441,,,,,,,,,,,,,,2022-11-15 18:05:59.586159+00:00
2022-11-15 11:05:59.786770-07:00,10.054164,2.13,0.1,-2.12,0.18,12.99,971.24,42.67,27.0,0.0,-0.000292233,0.000347809,0.00488054,32.8213782,-111.787045,365.084686,1.18220484,-0.462707837,-0.108352585,,,,,,,,,,,,,,2022-11-15 18:05:59.786770+00:00
2022-11-15 11:05:59.986490-07:00,10.253884,1.97,0.09,-1.97,0.07,12.88,971.23,42.98,27.0,0.0,-0.000254023,-0.000853347,0.00614225,32.8213782,-111.787045,365.091553,1.19455294,-0.460413797,-0.0996901564,,,,,,,,,,,,,,2022-11-15 18:05:59.986490+00:00
2022-11-15 11:06:00.186852-07:00,10.454246,1.71,0.16,-1.69,0.17,13.37,971.24,41.62,26.0,0.0,-0.000269451,-1.02083e-05,0.00566882,32.8213782,-111.787045,365.089111,1.20500969,-0.458850437,-0.10679736,,,,,,,,,,,,,,2022-11-15 18:06:00.186852+00:00
2022-11-15 11:06:00.387270-07:00,10.654664,1.47,0.12,-1.46,0.14,13.21,971.24,42.06,26.0,0.0,-0.000691404,-0.000145974,0.00528977,32.8213782,-111.787045,365.091187,1.21449017,-0.459211263,-0.105938656,2.07422,-5.3832,5748.94,25.0774,11138.0,0.223163,-1.0,16.0,-1348.0,71.0,,0.0,,2022-11-15 18:06:00.387270+00:00
2022-11-15 11:06:00.586271-07:00,10.853665,1.34,0.15,-1.32,0.2,13.41,971.24,41.46,26.0,0.0,-0.000563886,-0.000812896,0.00612406,32.8213782,-111.787045,365.089783,1.22711277,-0.456904014,-0.1054191,,,,,,,,,,,,,,2022-11-15 18:06:00.586271+00:00
2022-11-15 11:06:00.786732-07:00,11.054126,1.49,0.12,-1.45,0.34,14.05,971.23,39.83,28.0,0.0,-0.000193108,2.54261e-06,0.00616106,32.8213782,-111.787045,365.089386,1.23505321,-0.456436257,-0.10985643,,,,,,,,,,,,,,2022-11-15 18:06:00.786732+00:00
2022-11-15 11:06:00.986420-07:00,11.253814,1.47,0.26,-1.44,0.13,14.17,971.23,39.52,27.0,0.0,-0.000325535,-0.00153906,0.00629282,32.8213781,-111.787045,365.089325,1.24506332,-0.459485648,-0.105332435,,,,,,,,,,,,,,2022-11-15 18:06:00.986420+00:00
2022-11-15 11:06:01.186054-07:00,11.453448,1.61,1.06,-1.14,0.42,14.16,971.23,39.49,26.0,0.0,-0.000113866,-0.000188355,0.00579211,32.8213781,-111.787045,365.088196,1.25682817,-0.463471737,-0.114704393,,,,,,,,,,,,,,2022-11-15 18:06:01.186054+00:00
2022-11-15 11:06:01.387568-07:00,11.654962,1.64,0.79,-1.38,0.41,13.9,971.23,40.23,26.0,0.0,-0.000373377,-0.00118638,0.00508003,32.821378,-111.787045,365.088989,1.27048132,-0.462127759,-0.10282211,2.07729,-5.7767,5780.51,25.0778,11179.0,0.230565,-1.0,16.0,-1347.0,71.0,,0.0,,2022-11-15 18:06:01.387568+00:00
2022-11-15 11:06:01.586305-07:00,11.853699,1.6,0.79,-1.3,0.49,13.77,971.25,40.56,28.0,0.0,-6.48318e-05,-0.000263522,0.00460097,32.821378,-111.787045,365.089111,1.28083277,-0.460399959,-0.111090862,,,,,,,,,,,,,,2022-11-15 18:06:01.586305+00:00
2022-11-15 11:06:01.786122-07:00,12.053516,1.74,0.81,-1.47,0.43,13.85,971.23,40.36,28.0,0.0,-0.000493291,-0.000796508,0.00396864,32.821378,-111.787045,365.087799,1.28964464,-0.460364741,-0.107977938,,,,,,,,,,,,,,2022-11-15 18:06:01.786122+00:00
2022-11-15 11:06:01.985934-07:00,12.253328,2.0,0.86,-1.75,0.44,13.42,971.23,41.51,26.0,0.0,-0.000266506,-0.000500339,0.00393352,32.821378,-111.787045,365.089478,1.30352951,-0.460369206,-0.110002232,,,,,,,,,,,,,,2022-11-15 18:06:01.985934+00:00
2022-11-15 11:06:02.186588-07:00,12.453982,2.37,0.9,-2.15,0.44,13.07,971.23,42.45,26.0,0.0,-0.000244116,-0.000555951,0.00447287,32.8213781,-111.787045,365.089661,1.31351679,-0.458471374,-0.107430748,,,,,,,,,,,,,,2022-11-15 18:06:02.186588+00:00
2022-11-15 11:06:02.387579-07:00,12.654973,2.33,0.82,-2.12,0.47,13.11,971.24,42.3,27.0,0.0,-0.000159024,-0.000922435,0.00412841,32.8213781,-111.787045,365.088135,1.32743353,-0.459381766,-0.105593584,2.07636,-5.64182,5805.41,25.0784,11218.0,0.256718,-1.0,13.0,-1363.0,71.0,,0.0,,2022-11-15 18:06:02.387579+00:00
2022-11-15 11:06:02.586242-07:00,12.853636,2.27,0.88,-2.06,0.37,13.41,971.24,41.47,29.0,0.0,-5.17235e-05,0.00044487,0.00550395,32.8213781,-111.787045,365.089417,1.33938795,-0.458758894,-0.110535021,,,,,,,,,,,,,,2022-11-15 18:06:02.586242+00:00
2022-11-15 11:06:02.786596-07:00,13.05399,1.83,0.81,-1.58,0.45,13.72,971.23,40.7,26.0,0.0,-0.0003501,-0.000789667,0.00515399,32.8213781,-111.787045,365.090942,1.34882162,-0.455705607,-0.10515479,,,,,,,,,,,,,,2022-11-15 18:06:02.786596+00:00
2022-11-15 11:06:02.986198-07:00,13.253592,2.0,0.52,-1.89,0.4,13.38,971.24,41.6,26.0,0.0,-0.000361694,-0.000182719,0.0054494,32.8213781,-111.787045,365.088684,1.35837044,-0.45562405,-0.119590162,,,,,,,,,,,,,,2022-11-15 18:06:02.986198+00:00
2022-11-15 11:06:03.186045-07:00,13.453439,2.01,0.33,-1.97,0.27,13.36,971.22,41.56,26.0,0.0,-0.000196183,-0.000569739,0.0037062,32.8213781,-111.787045,365.086182,1.36490483,-0.456040111,-0.119108313,,,,,,,,,,,,,,2022-11-15 18:06:03.186045+00:00
2022-11-15 11:06:03.387795-07:00,13.655189,1.85,0.34,-1.8,0.29,13.12,971.22,42.32,28.0,0.0,-3.1481e-05,-0.000596003,0.0038763,32.8213781,-111.787045,365.091492,1.37732239,-0.456139044,-0.118931728,2.07451,-6.67404,5830.75,25.0795,11181.0,0.306443,-1.0,17.0,-1373.0,71.0,,0.0,,2022-11-15 18:06:03.387795+00:00
2022-11-15 11:06:03.586650-07:00,13.854044,2.19,0.6,-2.07,0.39,13.15,971.24,42.17,27.0,0.0,-0.000364213,-0.000618091,0.00419295,32.8213781,-111.787045,365.088074,1.3869249,-0.452497937,-0.12409076,,,,,,,,,,,,,,2022-11-15 18:06:03.586650+00:00
2022-11-15 11:06:03.786136-07:00,14.05353,1.86,0.02,-1.85,0.09,13.31,971.22,41.78,26.0,0.0,0.000130125,-0.000851947,0.00356778,32.8213781,-111.787045,365.086639,1.40689639,-0.454014226,-0.114414029,,,,,,,,,,,,,,2022-11-15 18:06:03.786136+00:00
2022-11-15 11:06:03.986679-07:00,14.254073,1.7,0.42,-1.61,0.34,13.56,971.22,41.12,26.0,0.0,0.000204869,-0.000410272,0.00334132,32.8213781,-111.787045,365.084137,1.4172571,-0.454492166,-0.121630859,,,,,,,,,,,,,,2022-11-15 18:06:03.986679+00:00
2022-11-15 11:06:04.186707-07:00,14.454101,2.11,0.91,-1.83,0.54,13.4,971.22,41.56,29.0,0.0,6.81102e-05,-0.00218823,0.00368699,32.821378,-111.787045,365.086792,1.43350873,-0.453458448,-0.113879752,,,,,,,,,,,,,,2022-11-15 18:06:04.186707+00:00
2022-11-15 11:06:04.386955-07:00,14.654349,1.98,0.88,-1.66,0.63,13.24,971.22,41.97,29.0,0.0,7.02097e-05,-0.000963417,0.0036537,32.821378,-111.787045,365.088165,1.44507702,-0.453114639,-0.120152627,2.07909,-5.91423,5823.29,25.0801,11181.0,0.262764,-1.0,17.0,-1373.0,71.0,,0.0,,2022-11-15 18:06:04.386955+00:00
2022-11-15 11:06:04.586133-07:00,14.853527,2.12,0.97,-1.83,0.46,13.12,971.22,42.17,27.0,0.0,-0.000146352,-0.00121677,0.00414305,32.8213779,-111.787045,365.091095,1.45453389,-0.456187479,-0.108040437,,,,,,,,,,,,,,2022-11-15 18:06:04.586133+00:00
2022-11-15 11:06:04.786612-07:00,15.054006,2.05,1.04,-1.61,0.71,13.2,971.22,41.97,27.0,0.0,-0.000120227,-0.000570379,0.00417206,32.8213779,-111.787045,365.091492,1.46934667,-0.455636442,-0.113353306,,,,,,,,,,,,,,2022-11-15 18:06:04.786612+00:00
2022-11-15 11:06:04.986298-07:00,15.253692,2.43,1.11,-2.07,0.61,13.22,971.21,41.93,28.0,0.0,-0.000118319,-0.000816567,0.00436773,32.8213779,-111.787045,365.090302,1.48184677,-0.454444589,-0.107097055,,,,,,,,,,,,,,2022-11-15 18:06:04.986298+00:00
2022-11-15 11:06:05.186739-07:00,15.454133,2.34,0.88,-2.12,0.44,13.09,971.21,42.27,29.0,0.0,4.55752e-05,-0.000767995,0.00388189,32.8213779,-111.787045,365.090729,1.49178907,-0.455923038,-0.105981598,,,,,,,,,,,,,,2022-11-15 18:06:05.186739+00:00
2022-11-15 11:06:05.387478-07:00,15.654872,2.45,1.1,-2.09,0.65,12.96,971.22,42.66,27.0,0.0,0.000127836,-2.49703e-05,0.00273988,32.8213779,-111.787045,365.08786,1.50125691,-0.456126705,-0.111190887,2.07631,-5.97109,5789.14,25.0808,11136.0,0.325948,-1.0,19.0,-1328.0,71.0,,0.0,,2022-11-15 18:06:05.387478+00:00
2022-11-15 11:06:05.586126-07:00,15.85352,2.62,1.29,-2.18,0.67,12.79,971.21,43.19,26.0,0.0,0.000313007,2.90899e-06,0.00319682,32.821378,-111.787045,365.093903,1.51081216,-0.455530178,-0.0953434417,,,,,,,,,,,,,,2022-11-15 18:06:05.586126+00:00
2022-11-15 11:06:05.786272-07:00,16.053666,2.45,1.21,-2.0,0.74,12.99,971.23,42.62,27.0,0.0,-0.000520101,-3.37147e-05,0.00308663,32.821378,-111.787045,365.092651,1.5206474,-0.453872204,-0.102419408,,,,,,,,,,,,,,2022-11-15 18:06:05.786272+00:00
2022-11-15 11:06:05.985939-07:00,16.253333,2.21,1.07,-1.81,0.7,13.12,971.22,42.27,28.0,0.0,-0.000353636,0.000889094,0.00292335,32.821378,-111.787045,365.091736,1.53412683,-0.455157368,-0.100904491,,,,,,,,,,,,,,2022-11-15 18:06:05.985939+00:00
2022-11-15 11:06:06.186394-07:00,16.453788,2.63,1.06,-2.36,0.47,13.06,971.21,42.48,27.0,0.0,-0.000229917,0.000340236,0.00285964,32.821378,-111.787045,365.091736,1.54526808,-0.452917415,-0.0936037888,,,,,,,,,,,,,,2022-11-15 18:06:06.186394+00:00
2022-11-15 11:06:06.386952-07:00,16.654346,2.62,1.13,-2.32,0.46,12.98,971.22,42.55,26.0,0.0,-0.000274953,-0.000528519,0.00253745,32.8213779,-111.787045,365.087616,1.55114603,-0.451990508,-0.104155646,2.07532,-5.57767,5755.06,25.0816,11211.0,0.290279,-1.0,17.0,-1366.0,71.0,,0.0,,2022-11-15 18:06:06.386952+00:00
2022-11-15 11:06:06.586024-07:00,16.853418,2.64,1.07,-2.38,0.38,12.89,971.22,42.95,26.0,0.0,0.00017482,-8.11612e-05,0.00151289,32.8213779,-111.787045,365.084442,1.56034485,-0.449770721,-0.0929859093,,,,,,,,,,,,,,2022-11-15 18:06:06.586024+00:00
2022-11-15 11:06:06.786232-07:00,17.053626,2.56,0.94,-2.35,0.4,13.24,971.21,41.99,28.0,0.0,0.000159343,-0.00018611,0.00183514,32.8213779,-111.787045,365.082062,1.56867116,-0.448389953,-0.106180521,,,,,,,,,,,,,,2022-11-15 18:06:06.786232+00:00
2022-11-15 11:06:06.986810-07:00,17.254204,2.36,0.54,-2.27,0.38,13.29,971.22,41.86,28.0,0.0,-0.000227956,0.000287839,0.00186961,32.8213778,-111.787045,365.08725,1.57763321,-0.447282203,-0.0924310691,,,,,,,,,,,,,,2022-11-15 18:06:06.986810+00:00
2022-11-15 11:06:07.186341-07:00,17.453735,2.76,1.15,-2.48,0.38,12.83,971.22,43.07,27.0,0.0,-3.95321e-05,-3.05998e-05,0.00264157,32.8213779,-111.787045,365.088715,1.58710286,-0.448404445,-0.104647428,,,,,,,,,,,,,,2022-11-15 18:06:07.186341+00:00
2022-11-15 11:06:07.387744-07:00,17.655138,2.43,1.09,-2.1,0.57,13.02,971.23,42.54,26.0,0.0,-0.000198505,0.000316707,0.00222405,32.8213779,-111.787045,365.086884,1.59743934,-0.452842663,-0.104225683,2.07701,-6.44122,5720.15,25.0816,11161.0,0.289371,-1.0,19.0,-1351.0,71.0,,0.0,,2022-11-15 18:06:07.387744+00:00
2022-11-15 11:06:07.585920-07:00,17.853314,2.51,1.03,-2.23,0.53,13.07,971.22,42.33,27.0,0.0,-0.000592396,-0.000198268,0.0025969,32.8213779,-111.787045,365.091736,1.61187781,-0.454731625,-0.11224612,,,,,,,,,,,,,,2022-11-15 18:06:07.585920+00:00
2022-11-15 11:06:07.786105-07:00,18.053499,1.99,0.64,-1.83,0.44,13.37,971.22,41.52,28.0,0.0,-0.000120921,0.00011646,0.00248182,32.8213779,-111.787045,365.09259,1.62203885,-0.458515097,-0.109305391,,,,,,,,,,,,,,2022-11-15 18:06:07.786105+00:00
2022-11-15 11:06:07.986209-07:00,18.253603,2.59,-0.08,-2.59,-0.07,13.18,971.23,42.1,27.0,0.0,-0.000252202,-0.00117241,0.00317523,32.8213778,-111.787045,365.094543,1.62923768,-0.459257615,-0.11094542,,,,,,,,,,,,,,2022-11-15 18:06:07.986209+00:00
2022-11-15 11:06:08.186080-07:00,18.453474,2.5,0.11,-2.49,0.09,12.7,971.22,43.43,26.0,0.0,-0.000631368,-0.000444763,0.00275788,32.8213778,-111.787045,365.095337,1.63403225,-0.455629343,-0.111933371,,,,,,,,,,,,,,2022-11-15 18:06:08.186080+00:00
2022-11-15 11:06:08.387297-07:00,18.654691,2.6,0.04,-2.59,-0.19,12.74,971.22,43.39,26.0,0.0,0.000155348,-0.000190163,0.00234871,32.8213777,-111.787045,365.093231,1.64134602,-0.457652729,-0.0976116413,2.07451,-6.08203,5700.42,25.0828,11146.0,0.321513,-1.0,16.0,-1328.0,71.0,,0.0,,2022-11-15 18:06:08.387297+00:00
2022-11-15 11:06:08.586010-07:00,18.853404,2.35,0.07,-2.35,0.03,12.73,971.23,43.3,29.0,0.0,2.80916e-05,0.000555644,0.00253888,32.8213777,-111.787045,365.090576,1.64861165,-0.454126974,-0.0955961724,,,,,,,,,,,,,,2022-11-15 18:06:08.586010+00:00
2022-11-15 11:06:08.786700-07:00,19.054094,2.69,-0.02,-2.68,-0.18,12.84,971.23,43.04,28.0,0.0,-0.000629225,-0.000313273,0.00129958,32.8213776,-111.787045,365.087463,1.65902162,-0.453345963,-0.0922117424,,,,,,,,,,,,,,2022-11-15 18:06:08.786700+00:00
2022-11-15 11:06:08.986376-07:00,19.25377,2.26,0.51,-2.19,0.2,13.61,971.23,40.87,26.0,0.0,4.74748e-05,0.000888279,0.000659625,32.8213776,-111.787045,365.083618,1.66817394,-0.457195659,-0.0889441531,,,,,,,,,,,,,,2022-11-15 18:06:08.986376+00:00
2022-11-15 11:06:09.186617-07:00,19.454011,2.19,1.03,-1.9,0.38,13.69,971.23,40.68,26.0,0.0,-0.000109281,-0.000524553,0.0011004,32.8213776,-111.787045,365.086334,1.68142123,-0.458394821,-0.0848143719,,,,,,,,,,,,,,2022-11-15 18:06:09.186617+00:00
2022-11-15 11:06:09.387836-07:00,19.65523,1.96,1.03,-1.6,0.48,13.86,971.22,40.21,27.0,0.0,7.08639e-05,0.000359825,0.00183807,32.8213776,-111.787045,365.086456,1.69256684,-0.458786544,-0.0798180167,2.07414,-5.89179,5692.68,25.0832,11214.0,0.38034,-1.0,14.0,-1349.0,71.0,,0.0,,2022-11-15 18:06:09.387836+00:00
2022-11-15 11:06:09.586858-07:00,19.854252,2.18,1.13,-1.8,0.48,13.87,971.22,40.19,29.0,0.0,-0.000448172,0.000171591,0.00132563,32.8213775,-111.787045,365.081329,1.70342412,-0.458418207,-0.0855625386,,,,,,,,,,,,,,2022-11-15 18:06:09.586858+00:00
2022-11-15 11:06:09.786082-07:00,20.053476,2.17,1.0,-1.87,0.5,14.14,971.22,39.49,27.0,0.0,-0.000500061,-0.000359396,0.000297545,32.8213775,-111.787045,365.07962,1.7114072,-0.458824257,-0.0864595822,,,,,,,,,,,,,,2022-11-15 18:06:09.786082+00:00
2022-11-15 11:06:09.986273-07:00,20.253667,1.94,0.81,-1.66,0.58,14.23,971.22,39.31,26.0,0.0,-0.000395165,0.000430359,0.000928005,32.8213775,-111.787045,365.077637,1.72068083,-0.459478987,-0.102016286,,,,,,,,,,,,,,2022-11-15 18:06:09.986273+00:00
2022-11-15 11:06:10.186224-07:00,20.453618,1.92,0.79,-1.64,0.59,13.94,971.21,40.01,26.0,0.0,-0.000253421,-0.000816245,0.00128711,32.8213775,-111.787045,365.077454,1.72890874,-0.463557404,-0.0960119074,,,,,,,,,,,,,,2022-11-15 18:06:10.186224+00:00
2022-11-15 11:06:10.387687-07:00,20.655081,2.49,0.77,-2.33,0.38,13.45,971.21,41.32,28.0,0.0,-0.000589325,-0.000183884,0.00263253,32.8213774,-111.787045,365.083191,1.73560429,-0.46324892,-0.109230819,2.07499,-5.78265,5704.33,25.084,11193.0,0.347057,-1.0,17.0,-1376.0,71.0,,0.0,,2022-11-15 18:06:10.387687+00:00
2022-11-15 11:06:10.586010-07:00,20.853404,2.03,0.37,-1.96,0.39,13.54,971.23,41.17,27.0,0.0,-0.000261725,0.000318505,0.00288107,32.8213774,-111.787045,365.084839,1.74659195,-0.463492258,-0.103104549,,,,,,,,,,,,,,2022-11-15 18:06:10.586010+00:00
2022-11-15 11:06:10.786338-07:00,21.053732,2.29,-0.12,-2.29,-0.02,13.66,971.21,40.74,26.0,0.0,-0.000601924,-6.93797e-05,0.00388599,32.8213774,-111.787045,365.089325,1.75838077,-0.463590529,-0.098319274,,,,,,,,,,,,,,2022-11-15 18:06:10.786338+00:00
2022-11-15 11:06:10.986898-07:00,21.254292,2.03,0.4,-1.96,0.34,13.15,971.21,42.12,27.0,0.0,-0.000649832,0.000233052,0.00351644,32.8213774,-111.787045,365.088776,1.7702327,-0.457391514,-0.0997096665,,,,,,,,,,,,,,2022-11-15 18:06:10.986898+00:00
2022-11-15 11:06:11.186415-07:00,21.453809,2.07,0.51,-1.97,0.42,13.31,971.22,41.64,28.0,0.0,-8.04955e-05,-4.99894e-05,0.00267716,32.8213775,-111.787045,365.092438,1.7814562,-0.454404625,-0.0875232587,,,,,,,,,,,,,,2022-11-15 18:06:11.186415+00:00
2022-11-15 11:06:11.386976-07:00,21.65437,1.94,0.0,-1.94,0.04,13.19,971.23,41.96,29.0,0.0,0.000491807,-0.000137587,0.00266605,32.8213775,-111.787045,365.088745,1.78547892,-0.450564843,-0.0860348427,2.07396,-6.16009,5740.5,25.0846,11136.0,0.416625,-1.0,20.0,-1333.0,71.0,,0.0,,2022-11-15 18:06:11.386976+00:00
2022-11-15 11:06:11.586210-07:00,21.853604,2.14,0.27,-2.1,0.31,12.96,971.22,42.66,27.0,0.0,0.000168279,0.000484788,0.00197542,32.8213775,-111.787045,365.088654,1.79634452,-0.450093321,-0.0811615375,,,,,,,,,,,,,,2022-11-15 18:06:11.586210+00:00
2022-11-15 11:06:11.786700-07:00,22.054094,2.47,0.26,-2.45,0.21,12.83,971.23,43.07,26.0,0.0,-0.000111527,0.000509838,0.00188023,32.8213775,-111.787045,365.08902,1.803224,-0.44904117,-0.0889604082,,,,,,,,,,,,,,2022-11-15 18:06:11.786700+00:00
2022-11-15 11:06:11.986365-07:00,22.253759,2.5,0.21,-2.47,0.36,12.84,971.22,43.0,28.0,0.0,0.000113065,0.000195741,0.00196829,32.8213775,-111.787045,365.088287,1.81349308,-0.454603337,-0.0826624198,,,,,,,,,,,,,,2022-11-15 18:06:11.986365+00:00
2022-11-15 11:06:12.186427-07:00,22.453821,2.61,0.03,-2.61,0.09,12.82,971.22,43.04,29.0,0.0,0.000146105,0.000100734,0.00187972,32.8213775,-111.787045,365.089264,1.82432797,-0.456435473,-0.0926290448,,,,,,,,,,,,,,2022-11-15 18:06:12.186427+00:00
2022-11-15 11:06:12.387734-07:00,22.655128,2.48,0.21,-2.46,0.22,12.81,971.22,43.13,28.0,0.0,0.000167098,0.00110395,0.00160662,32.8213775,-111.787045,365.08728,1.83177207,-0.461068707,-0.0903057904,2.07753,-5.97167,5753.74,25.0855,11173.0,0.384323,-1.0,14.0,-1339.0,71.0,,0.0,,2022-11-15 18:06:12.387734+00:00
2022-11-15 11:06:12.586306-07:00,22.8537,2.39,0.16,-2.37,0.19,12.88,971.21,42.82,26.0,0.0,7.81694e-05,6.11354e-05,0.00162681,32.8213775,-111.787045,365.089447,1.84317908,-0.464571873,-0.0873053527,,,,,,,,,,,,,,2022-11-15 18:06:12.586306+00:00
2022-11-15 11:06:12.786541-07:00,23.053935,2.29,0.2,-2.27,0.22,12.91,971.22,42.75,27.0,0.0,-0.000227462,0.0004237,0.00118302,32.8213775,-111.787045,365.086792,1.85287241,-0.463179873,-0.0956404219,,,,,,,,,,,,,,2022-11-15 18:06:12.786541+00:00
2022-11-15 11:06:12.986774-07:00,23.254168,2.21,0.29,-2.17,0.29,12.94,971.22,42.66,29.0,0.0,-0.000490958,-1.20753e-05,0.00172018,32.8213775,-111.787045,365.091064,1.86281635,-0.468747878,-0.0869631758,,,,,,,,,,,,,,2022-11-15 18:06:12.986774+00:00
2022-11-15 11:06:13.186042-07:00,23.453436,1.88,0.0,-1.88,0.07,13.0,971.21,42.49,27.0,0.0,-0.000427314,-4.86724e-07,0.00218871,32.8213774,-111.787045,365.089813,1.87360315,-0.465487634,-0.0943763416,,,,,,,,,,,,,,2022-11-15 18:06:13.186042+00:00
2022-11-15 11:06:13.387143-07:00,23.654537,1.73,0.15,-1.71,0.16,13.01,971.22,42.58,27.0,0.0,-0.000570394,4.5031e-05,0.00240713,32.8213774,-111.787045,365.090515,1.88329576,-0.463956775,-0.0915278955,2.07899,-6.45619,5726.85,25.0862,11215.0,0.237087,-1.0,17.0,-1377.0,71.0,,0.0,,2022-11-15 18:06:13.387143+00:00
2022-11-15 11:06:13.586828-07:00,23.854222,1.68,0.28,-1.64,0.26,13.05,971.21,42.39,26.0,0.0,-0.000459367,0.000247034,0.00202511,32.8213774,-111.787045,365.095306,1.89311151,-0.463348042,-0.0933374978,,,,,,,,,,,,,,2022-11-15 18:06:13.586828+00:00
2022-11-15 11:06:13.786376-07:00,24.05377,1.77,0.55,-1.61,0.5,13.27,971.21,41.79,27.0,0.0,-0.000309698,0.000638059,0.00210787,32.8213773,-111.787045,365.095398,1.90508122,-0.458939283,-0.0869856875,,,,,,,,,,,,,,2022-11-15 18:06:13.786376+00:00
2022-11-15 11:06:13.986666-07:00,24.25406,1.72,0.32,-1.65,0.35,13.3,971.21,41.78,28.0,0.0,-0.000538026,-0.000359739,0.00176304,32.8213773,-111.787045,365.092468,1.91331584,-0.455109947,-0.0884614903,,,,,,,,,,,,,,2022-11-15 18:06:13.986666+00:00
2022-11-15 11:06:14.186757-07:00,24.454151,2.27,-0.01,-2.27,-0.17,12.96,971.2,42.64,27.0,0.0,-0.000211203,0.000186925,0.000677061,32.8213774,-111.787045,365.091339,1.91716543,-0.452495738,-0.0939090266,,,,,,,,,,,,,,2022-11-15 18:06:14.186757+00:00
2022-11-15 11:06:14.387860-07:00,24.655254,2.45,-0.09,-2.43,-0.28,12.89,971.22,42.84,26.0,0.0,-0.000229877,-0.000666156,0.00144705,32.8213774,-111.787045,365.092285,1.92781948,-0.454624796,-0.0934749956,2.07818,-6.46076,5694.52,25.0869,11167.0,0.153398,-1.0,16.0,-1353.0,71.0,,0.0,,2022-11-15 18:06:14.387860+00:00
2022-11-15 11:06:14.586830-07:00,24.854224,2.35,-0.14,-2.34,-0.22,13.08,971.21,42.32,27.0,0.0,-0.000153176,0.000872529,0.000882345,32.8213774,-111.787045,365.087311,1.93625594,-0.455092509,-0.102859496,,,,,,,,,,,,,,2022-11-15 18:06:14.586830+00:00
2022-11-15 11:06:14.786294-07:00,25.053688,2.01,-0.1,-2.0,-0.16,13.22,971.21,41.98,28.0,0.0,-0.000388875,-0.000468401,0.000180991,32.8213774,-111.787045,365.085693,1.94509521,-0.454283271,-0.0894864135,,,,,,,,,,,,,,2022-11-15 18:06:14.786294+00:00
2022-11-15 11:06:14.986767-07:00,25.254161,1.83,0.14,-1.81,0.17,13.38,971.21,41.49,26.0,0.0,-0.000245639,-0.000417783,0.000182551,32.8213774,-111.787045,365.086273,1.95619168,-0.45260115,-0.0949547874,,,,,,,,,,,,,,2022-11-15 18:06:14.986767+00:00
2022-11-15 11:06:15.185935-07:00,25.453329,2.3,0.32,-2.26,0.3,13.2,971.21,41.94,26.0,0.0,-0.000224742,-0.000522013,0.00152293,32.8213774,-111.787045,365.087982,1.96550606,-0.455110046,-0.094727183,,,,,,,,,,,,,,2022-11-15 18:06:15.185935+00:00
2022-11-15 11:06:15.387689-07:00,25.655083,2.01,0.21,-1.99,0.24,13.24,971.21,41.87,26.0,0.0,-0.000136665,-0.000231532,0.00211542,32.8213774,-111.787045,365.088684,1.97364564,-0.45597809,-0.100994344,2.07541,-5.86346,5674.23,25.0881,11142.0,0.161689,-1.0,18.0,-1323.0,71.0,,0.0,,2022-11-15 18:06:15.387689+00:00
2022-11-15 11:06:15.586697-07:00,25.854091,1.62,0.45,-1.5,0.41,13.36,971.23,41.54,27.0,0.0,-0.000593867,-0.000505974,0.00238125,32.8213774,-111.787045,365.087585,1.97761034,-0.458411044,-0.103482805,,,,,,,,,,,,,,2022-11-15 18:06:15.586697+00:00
2022-11-15 11:06:15.786891-07:00,26.054285,1.99,0.27,-1.97,0.2,13.23,971.21,41.9,28.0,0.0,-3.39829e-05,-0.000617624,0.00252897,32.8213774,-111.787045,365.091156,1.98755654,-0.457984668,-0.0996802312,,,,,,,,,,,,,,2022-11-15 18:06:15.786891+00:00
2022-11-15 11:06:15.986196-07:00,26.25359,2.14,0.14,-2.14,-0.0,13.11,971.21,42.18,26.0,0.0,-0.000411197,-0.000831017,0.00265346,32.8213774,-111.787045,365.092102,1.99644613,-0.454085454,-0.1090783,,,,,,,,,,,,,,2022-11-15 18:06:15.986196+00:00
2022-11-15 11:06:16.186709-07:00,26.454103,2.47,0.1,-2.46,-0.14,13.15,971.21,42.11,26.0,0.0,8.44885e-05,-0.000430809,0.00318513,32.8213774,-111.787045,365.094788,2.00545253,-0.451073364,-0.0971390503,,,,,,,,,,,,,,2022-11-15 18:06:16.186709+00:00
2022-11-15 11:06:16.386884-07:00,26.654278,2.04,-0.11,-2.03,0.1,13.29,971.2,41.7,26.0,0.0,-3.9455e-05,-0.000792952,0.00166808,32.8213774,-111.787045,365.088867,2.01262089,-0.449587502,-0.105045854,2.07416,-6.18692,5670.72,25.0887,11192.0,0.173229,-1.0,13.0,-1357.0,71.0,,0.0,,2022-11-15 18:06:16.386884+00:00
2022-11-15 11:06:16.586580-07:00,26.853974,1.52,0.28,-1.42,0.44,13.47,971.2,41.3,28.0,0.0,1.2516e-05,-0.000809303,0.00120293,32.8213774,-111.787045,365.086395,2.02201378,-0.446971583,-0.0964170169,,,,,,,,,,,,,,2022-11-15 18:06:16.586580+00:00
2022-11-15 11:06:16.786005-07:00,27.053399,2.38,-0.17,-2.38,-0.09,13.19,971.21,42.01,27.0,0.0,0.000283456,-0.000416616,0.00160234,32.8213774,-111.787045,365.09082,2.02976004,-0.445475749,-0.099753329,,,,,,,,,,,,,,2022-11-15 18:06:16.786005+00:00
2022-11-15 11:06:16.986199-07:00,27.253593,2.59,-0.12,-2.58,-0.21,13.25,971.22,41.92,25.0,0.0,7.10521e-05,-1.22453e-05,0.00150561,32.8213774,-111.787045,365.086639,2.03883319,-0.44281113,-0.0954858153,,,,,,,,,,,,,,2022-11-15 18:06:16.986199+00:00
2022-11-15 11:06:17.186380-07:00,27.453774,2.59,-0.22,-2.58,-0.1,13.57,971.22,40.93,25.0,0.0,0.000160697,0.000520569,0.00109583,32.8213774,-111.787045,365.086975,2.0493344,-0.444821882,-0.0878264887,,,,,,,,,,,,,,2022-11-15 18:06:17.186380+00:00
2022-11-15 11:06:17.387559-07:00,27.654953,2.27,-0.16,-2.26,-0.0,13.47,971.22,41.19,27.0,0.0,0.000302912,0.000405507,0.00208835,32.8213774,-111.787045,365.091736,2.05624078,-0.444255297,-0.0946169594,2.07813,-6.5124,5677.33,25.0894,11214.0,0.0761351,-1.0,17.0,-1372.0,71.0,,0.0,,2022-11-15 18:06:17.387559+00:00
2022-11-15 11:06:17.586754-07:00,27.854148,2.69,-0.15,-2.68,-0.09,13.01,971.21,42.5,28.0,0.0,0.000327062,-5.118e-05,0.0018768,32.8213774,-111.787045,365.089844,2.06606131,-0.449205717,-0.0852077485,,,,,,,,,,,,,,2022-11-15 18:06:17.586754+00:00
2022-11-15 11:06:17.786426-07:00,28.05382,1.93,0.05,-1.92,0.21,13.13,971.21,42.14,26.0,0.0,-0.000378721,-0.000995021,0.000698839,32.8213774,-111.787045,365.090088,2.08180348,-0.450693143,-0.0848127044,,,,,,,,,,,,,,2022-11-15 18:06:17.786426+00:00
2022-11-15 11:06:17.986483-07:00,28.253877,2.14,-0.19,-2.13,-0.11,13.2,971.22,41.99,26.0,0.0,-6.62482e-05,5.4633e-05,0.000240918,32.8213774,-111.787045,365.089294,2.09011006,-0.452814534,-0.0818943362,,,,,,,,,,,,,,2022-11-15 18:06:17.986483+00:00
2022-11-15 11:06:18.186419-07:00,28.453813,1.94,-0.03,-1.94,-0.03,13.2,971.21,42.04,28.0,0.0,-0.000135864,0.000387344,6.90079e-06,32.8213774,-111.787045,365.089813,2.0976421,-0.449943168,-0.0872702546,,,,,,,,,,,,,,2022-11-15 18:06:18.186419+00:00
2022-11-15 11:06:18.386909-07:00,28.654303,2.32,-0.26,-2.31,-0.04,13.39,971.22,41.43,28.0,0.0,-0.000165461,0.00117807,-5.32841e-05,32.8213774,-111.787045,365.086182,2.10126476,-0.450217216,-0.0735806276,2.07427,-6.37671,5684.72,25.0904,11175.0,-0.00757722,-1.0,16.0,-1361.0,71.0,,0.0,,2022-11-15 18:06:18.386909+00:00
2022-11-15 11:06:18.586297-07:00,28.853691,2.27,-0.23,-2.26,0.03,13.61,971.22,40.87,27.0,0.0,8.58978e-07,0.000987201,-0.00069298,32.8213773,-111.787045,365.080505,2.1072093,-0.450014988,-0.0868058278,,,,,,,,,,,,,,2022-11-15 18:06:18.586297+00:00
2022-11-15 11:06:18.786174-07:00,29.053568,2.3,-0.14,-2.29,0.14,13.7,971.21,40.63,26.0,0.0,0.000223864,0.000497113,-5.30289e-06,32.8213773,-111.787045,365.084961,2.116053,-0.44854131,-0.077625764,,,,,,,,,,,,,,2022-11-15 18:06:18.786174+00:00
2022-11-15 11:06:18.986267-07:00,29.253661,1.61,0.09,-1.59,0.26,13.64,971.22,40.85,26.0,0.0,0.000189018,-2.66295e-05,0.000884618,32.8213773,-111.787045,365.083588,2.12966218,-0.448703404,-0.0913516777,,,,,,,,,,,,,,2022-11-15 18:06:18.986267+00:00
2022-11-15 11:06:19.186350-07:00,29.453744,2.45,-0.27,-2.43,-0.01,13.87,971.21,40.16,28.0,0.0,0.000111139,0.000564336,0.00033444,32.8213773,-111.787045,365.079132,2.13960781,-0.45125115,-0.0839406804,,,,,,,,,,,,,,2022-11-15 18:06:19.186350+00:00
2022-11-15 11:06:19.386991-07:00,29.654385,2.14,0.04,-2.14,0.16,13.59,971.2,40.93,28.0,0.0,0.00012145,-0.00031795,8.34591e-05,32.8213773,-111.787044,365.081207,2.14661457,-0.454943889,-0.0906687647,2.0768,-5.95871,5695.97,25.0915,11138.0,-0.00826075,-1.0,18.0,-1324.0,71.0,,0.0,,2022-11-15 18:06:19.386991+00:00
2022-11-15 11:06:19.586182-07:00,29.853576,1.85,0.05,-1.84,0.15,13.72,971.21,40.59,26.0,0.0,-0.00022301,0.000236075,0.000951821,32.8213773,-111.787044,365.082153,2.15465735,-0.457198537,-0.0920671276,,,,,,,,,,,,,,2022-11-15 18:06:19.586182+00:00
2022-11-15 11:06:19.786153-07:00,30.053547,1.97,-0.07,-1.97,-0.02,13.82,971.2,40.28,26.0,0.0,-0.000371045,0.000586305,0.00127898,32.8213773,-111.787044,365.084961,2.15527917,-0.458991487,-0.0896422273,,,,,,,,,,,,,,2022-11-15 18:06:19.786153+00:00
2022-11-15 11:06:19.986710-07:00,30.254104,2.05,-0.04,-2.05,0.03,13.68,971.21,40.75,27.0,0.0,-0.000560217,-0.000598299,0.0013342,32.8213773,-111.787044,365.083191,2.16206807,-0.461941173,-0.0829568319,,,,,,,,,,,,,,2022-11-15 18:06:19.986710+00:00
2022-11-15 11:06:20.185957-07:00,30.453351,2.11,-0.08,-2.11,0.07,13.62,971.21,40.81,28.0,0.0,-0.00029312,-0.00044416,0.000354511,32.8213773,-111.787044,365.082153,2.1778954,-0.463830717,-0.0727444557,,,,,,,,,,,,,,2022-11-15 18:06:20.185957+00:00
2022-11-15 11:06:20.391129-07:00,30.658523,2.43,-0.21,-2.42,-0.15,13.53,971.2,41.15,27.0,0.0,-0.000949034,0.000339796,0.000953866,32.8213773,-111.787044,365.083588,2.18373904,-0.462507217,-0.0951032241,2.0776,-6.50141,5716.88,25.0921,11188.0,-0.0570273,-1.0,13.0,-1345.0,71.0,,0.0,,2022-11-15 18:06:20.391129+00:00
2022-11-15 11:06:20.586297-07:00,30.853691,2.1,0.12,-2.09,0.19,13.72,971.22,40.59,26.0,0.0,-0.000729109,7.29931e-05,0.000703271,32.8213773,-111.787044,365.082825,2.19296314,-0.463466616,-0.0800571536,,,,,,,,,,,,,,2022-11-15 18:06:20.586297+00:00
2022-11-15 11:06:20.786375-07:00,31.053769,2.19,0.75,-2.02,0.36,13.47,971.21,41.22,27.0,0.0,-0.000326137,-0.000359795,-8.30179e-05,32.8213773,-111.787044,365.079865,2.20417297,-0.460765152,-0.0958568605,,,,,,,,,,,,,,2022-11-15 18:06:20.786375+00:00
2022-11-15 11:06:20.986081-07:00,31.253475,2.26,0.16,-2.26,-0.01,13.25,971.21,41.84,28.0,0.0,-0.000236029,-8.86795e-05,0.000936847,32.8213773,-111.787044,365.081268,2.21677058,-0.457762274,-0.0924352113,,,,,,,,,,,,,,2022-11-15 18:06:20.986081+00:00
2022-11-15 11:06:21.186866-07:00,31.45426,2.65,-0.12,-2.64,-0.15,13.36,971.22,41.5,27.0,0.0,-0.00036045,-0.000101257,0.000835019,32.8213773,-111.787044,365.081421,2.21945538,-0.457192987,-0.0982905658,,,,,,,,,,,,,,2022-11-15 18:06:21.186866+00:00
2022-11-15 11:06:21.387572-07:00,31.654966,2.37,-0.17,-2.36,-0.03,13.5,971.22,41.12,25.0,0.0,0.000184052,2.43485e-05,0.000417632,32.8213772,-111.787044,365.083405,2.2308842,-0.452486421,-0.099605686,2.07605,-6.26529,5737.74,25.0923,11166.0,-0.0817663,-1.0,17.0,-1358.0,71.0,,0.0,,2022-11-15 18:06:21.387572+00:00
2022-11-15 11:06:21.586387-07:00,31.853781,1.95,-0.04,-1.95,0.03,13.82,971.22,40.29,26.0,0.0,-1.77125e-05,-0.000164151,0.000619155,32.8213772,-111.787044,365.083771,2.23697133,-0.453401427,-0.0853099347,,,,,,,,,,,,,,2022-11-15 18:06:21.586387+00:00
2022-11-15 11:06:21.786092-07:00,32.053486,2.19,-0.25,-2.18,0.02,13.79,971.22,40.35,27.0,0.0,-0.000273431,-0.000416035,-0.000237308,32.8213772,-111.787044,365.082336,2.2438276,-0.453772848,-0.103497859,,,,,,,,,,,,,,2022-11-15 18:06:21.786092+00:00
2022-11-15 11:06:21.986251-07:00,32.253645,2.05,-0.12,-2.04,0.17,13.98,971.23,39.89,27.0,0.0,-0.000151139,9.8869e-05,-0.000150425,32.8213772,-111.787044,365.080536,2.25054727,-0.456847675,-0.0979252569,,,,,,,,,,,,,,2022-11-15 18:06:21.986251+00:00
2022-11-15 11:06:22.186537-07:00,32.453931,2.3,-0.21,-2.28,0.23,14.33,971.23,39.05,26.0,0.0,-0.000120026,-0.000916352,-0.000459364,32.8213773,-111.787044,365.080109,2.2599631,-0.453327765,-0.107386838,,,,,,,,,,,,,,2022-11-15 18:06:22.186537+00:00
2022-11-15 11:06:22.387231-07:00,32.654625,2.69,-0.34,-2.67,0.08,13.86,971.22,40.16,25.0,0.0,-0.000189572,-0.000103367,-8.06123e-05,32.8213773,-111.787044,365.077545,2.26817616,-0.451883707,-0.106758073,2.07992,-6.44804,5746.02,25.0932,11166.0,-0.161751,-1.0,17.0,-1358.0,71.0,,0.0,,2022-11-15 18:06:22.387231+00:00
2022-11-15 11:06:22.585959-07:00,32.853353,2.45,-0.34,-2.43,0.02,13.89,971.22,40.14,27.0,0.0,-6.84733e-05,-0.000410143,-0.000211898,32.8213773,-111.787044,365.075714,2.27962951,-0.451758509,-0.102963736,,,,,,,,,,,,,,2022-11-15 18:06:22.585959+00:00
2022-11-15 11:06:22.786305-07:00,33.053699,2.61,-0.48,-2.57,0.08,14.43,971.23,38.67,28.0,0.0,-0.000158224,0.00063821,0.000545623,32.8213773,-111.787044,365.078308,2.28662744,-0.452062452,-0.102260473,,,,,,,,,,,,,,2022-11-15 18:06:22.786305+00:00
2022-11-15 11:06:22.986052-07:00,33.253446,3.16,-0.63,-3.1,-0.04,13.9,971.23,40.06,27.0,0.0,-6.27078e-05,-0.000130475,0.000996612,32.8213773,-111.787044,365.077179,2.29614377,-0.453509076,-0.0859726906,,,,,,,,,,,,,,2022-11-15 18:06:22.986052+00:00
2022-11-15 11:06:23.186901-07:00,33.454295,2.84,-0.4,-2.81,-0.11,13.97,971.22,39.88,25.0,0.0,6.98991e-05,-0.000409034,0.00108443,32.8213773,-111.787044,365.079834,2.29898208,-0.459361666,-0.102008736,,,,,,,,,,,,,,2022-11-15 18:06:23.186901+00:00
2022-11-15 11:06:23.387177-07:00,33.654571,2.61,-0.4,-2.58,0.01,14.37,971.22,38.96,27.0,0.0,3.0822e-05,-8.41349e-05,0.00153521,32.8213773,-111.787044,365.075592,2.30713541,-0.46044585,-0.099573416,2.07723,-6.45412,5754.7,25.0946,11140.0,-0.236937,-1.0,18.0,-1327.0,71.0,,0.0,,2022-11-15 18:06:23.387177+00:00
2022-11-15 11:06:23.586231-07:00,33.853625,2.57,-0.58,-2.5,0.23,14.93,971.21,37.57,27.0,0.0,-3.38185e-05,-0.000359424,-0.000462428,32.8213773,-111.787044,365.072845,2.31670828,-0.461412283,-0.104634301,,,,,,,,,,,,,,2022-11-15 18:06:23.586231+00:00
2022-11-15 11:06:23.786166-07:00,34.05356,2.73,-0.45,-2.69,0.21,14.81,971.25,37.82,27.0,0.0,-0.000536028,5.61301e-05,0.00083054,32.8213773,-111.787044,365.076508,2.32177537,-0.461351065,-0.0976319852,,,,,,,,,,,,,,2022-11-15 18:06:23.786166+00:00
2022-11-15 11:06:23.986687-07:00,34.254081,3.24,-0.31,-3.22,-0.12,13.22,971.24,41.92,26.0,0.0,-0.000554246,-0.000161028,0.000816889,32.8213773,-111.787044,365.074677,2.33265889,-0.45934118,-0.10517474,,,,,,,,,,,,,,2022-11-15 18:06:23.986687+00:00
2022-11-15 11:06:24.186437-07:00,34.453831,2.91,-0.55,-2.86,0.07,13.76,971.23,40.49,27.0,0.0,-0.000126445,0.000432019,-0.000384459,32.8213773,-111.787044,365.072113,2.33827501,-0.459590815,-0.105379059,,,,,,,,,,,,,,2022-11-15 18:06:24.186437+00:00
2022-11-15 11:06:24.387227-07:00,34.654621,2.89,-0.62,-2.83,0.04,13.71,971.23,40.6,28.0,0.0,-0.0004093,-0.000997246,0.000170784,32.8213773,-111.787044,365.07608,2.3466598,-0.46223776,-0.0884978558,2.07616,-6.39696,5804.03,25.0953,11193.0,-0.234479,-1.0,14.0,-1357.0,71.0,,0.0,,2022-11-15 18:06:24.387227+00:00
2022-11-15 11:06:24.586036-07:00,34.85343,2.8,-0.57,-2.74,0.07,14.1,971.23,39.65,26.0,0.0,-0.000299176,1.59934e-06,0.00162377,32.8213773,-111.787044,365.075104,2.35357793,-0.459513222,-0.108051242,,,,,,,,,,,,,,2022-11-15 18:06:24.586036+00:00
2022-11-15 11:06:24.786163-07:00,35.053557,3.36,-0.57,-3.31,-0.06,13.87,971.23,40.19,26.0,0.0,-2.84997e-05,-0.000168186,0.000697438,32.8213773,-111.787044,365.072937,2.36240296,-0.45909008,-0.0901232894,,,,,,,,,,,,,,2022-11-15 18:06:24.786163+00:00
2022-11-15 11:06:24.986735-07:00,35.254129,3.3,-0.46,-3.26,-0.11,13.26,971.23,41.82,26.0,0.0,-0.000108714,-0.000251457,0.000712533,32.8213774,-111.787044,365.070892,2.36768654,-0.456005664,-0.100221304,,,,,,,,,,,,,,2022-11-15 18:06:24.986735+00:00
2022-11-15 11:06:25.186040-07:00,35.453434,3.51,-0.39,-3.48,-0.16,13.57,971.23,40.93,27.0,0.0,-0.000449522,0.00010413,0.000995921,32.8213774,-111.787044,365.073303,2.37187759,-0.455156008,-0.0992531303,,,,,,,,,,,,,,2022-11-15 18:06:25.186040+00:00
2022-11-15 11:06:25.387104-07:00,35.654498,3.73,-0.58,-3.68,-0.14,13.48,971.22,41.17,28.0,0.0,5.99436e-05,0.000169208,0.000939442,32.8213774,-111.787044,365.07785,2.38229246,-0.455833152,-0.0870694775,2.07571,-6.05649,5845.34,25.0959,11206.0,-0.274763,-1.0,13.0,-1386.0,71.0,,0.0,,2022-11-15 18:06:25.387104+00:00
2022-11-15 11:06:25.585956-07:00,35.85335,4.04,-0.86,-3.95,-0.12,13.86,971.22,40.17,27.0,0.0,-4.53179e-05,0.000144514,0.000668434,32.8213774,-111.787044,365.0737,2.3875919,-0.452947654,-0.0893029986,,,,,,,,,,,,,,2022-11-15 18:06:25.585956+00:00
2022-11-15 11:06:25.786078-07:00,36.053472,4.18,-0.64,-4.13,-0.17,13.45,971.24,41.26,26.0,0.0,-7.88459e-05,0.000510507,0.000550525,32.8213774,-111.787044,365.073639,2.39884279,-0.453950308,-0.0872215827,,,,,,,,,,,,,,2022-11-15 18:06:25.786078+00:00
2022-11-15 11:06:25.986249-07:00,36.253643,3.61,-0.58,-3.56,-0.11,13.66,971.22,40.7,27.0,0.0,-6.36101e-05,0.000408376,0.000609912,32.8213774,-111.787044,365.074585,2.40464903,-0.455179428,-0.0918935045,,,,,,,,,,,,,,2022-11-15 18:06:25.986249+00:00
2022-11-15 11:06:26.186892-07:00,36.454286,3.83,-0.64,-3.77,-0.13,13.81,971.22,40.44,28.0,0.0,-0.000694171,0.000722169,0.00135304,32.8213774,-111.787044,365.07431,2.4123982,-0.457574917,-0.0873308859,,,,,,,,,,,,,,2022-11-15 18:06:26.186892+00:00
2022-11-15 11:06:26.387202-07:00,36.654596,4.12,-1.04,-3.97,-0.34,13.31,971.22,41.75,27.0,0.0,-0.000445842,0.000349961,0.00112359,32.8213774,-111.787044,365.073669,2.4193452,-0.454442181,-0.085400755,2.07644,-6.6778,5849.17,25.0971,11145.0,-0.31296,-1.0,16.0,-1345.0,71.0,,0.0,,2022-11-15 18:06:26.387202+00:00
2022-11-15 11:06:26.586815-07:00,36.854209,4.24,-1.2,-4.05,-0.3,13.37,971.23,41.58,26.0,0.0,5.53317e-05,-6.08394e-05,0.00156105,32.8213774,-111.787044,365.0802,2.4279391,-0.450191157,-0.0856087625,,,,,,,,,,,,,,2022-11-15 18:06:26.586815+00:00
2022-11-15 11:06:26.786565-07:00,37.053959,4.26,-1.41,-4.01,-0.3,13.23,971.22,41.81,26.0,0.0,-0.000117077,-0.000112926,0.00191747,32.8213774,-111.787044,365.081696,2.4338396,-0.451567381,-0.0893176129,,,,,,,,,,,,,,2022-11-15 18:06:26.786565+00:00
2022-11-15 11:06:26.986847-07:00,37.254241,4.32,-1.0,-4.19,-0.33,13.4,971.23,41.45,27.0,0.0,-0.000475623,0.0010608,0.00130305,32.8213774,-111.787044,365.080872,2.44512021,-0.449062245,-0.0909662185,,,,,,,,,,,,,,2022-11-15 18:06:26.986847+00:00
2022-11-15 11:06:27.186657-07:00,37.454051,4.25,-1.37,-4.01,-0.29,13.32,971.23,41.62,27.0,0.0,0.000171195,0.00034098,0.00125435,32.8213774,-111.787044,365.083679,2.45287543,-0.450909926,-0.0757513957,,,,,,,,,,,,,,2022-11-15 18:06:27.186657+00:00
2022-11-15 11:06:27.387234-07:00,37.654628,3.69,-1.46,-3.38,-0.28,13.68,971.22,40.75,26.0,0.0,-9.81074e-06,0.00111634,0.000435037,32.8213774,-111.787044,365.082001,2.45448395,-0.451629668,-0.0899963437,2.07509,-6.39604,5839.56,25.0979,11155.0,-0.265539,-1.0,14.0,-1325.0,71.0,,0.0,,2022-11-15 18:06:27.387234+00:00
2022-11-15 11:06:27.586845-07:00,37.854239,3.6,-1.59,-3.21,-0.32,13.54,971.22,41.07,25.0,0.0,0.000166185,0.000440981,0.000333021,32.8213774,-111.787044,365.083832,2.46033788,-0.448451116,-0.0697381163,,,,,,,,,,,,,,2022-11-15 18:06:27.586845+00:00
2022-11-15 11:06:27.786423-07:00,38.053817,3.34,-1.48,-2.98,-0.28,13.33,971.21,41.64,27.0,0.0,-5.45697e-05,7.58529e-05,0.000641794,32.8213774,-111.787044,365.082886,2.46748811,-0.451383681,-0.0797784896,,,,,,,,,,,,,,2022-11-15 18:06:27.786423+00:00
2022-11-15 11:06:27.986180-07:00,38.253574,3.05,-1.01,-2.87,-0.23,13.51,971.21,41.14,28.0,0.0,0.000117355,0.00080049,0.000523133,32.8213774,-111.787044,365.083069,2.47339874,-0.450651241,-0.0768779843,,,,,,,,,,,,,,2022-11-15 18:06:27.986180+00:00
2022-11-15 11:06:28.186216-07:00,38.45361,3.13,-0.92,-2.99,-0.19,13.8,971.22,40.33,26.0,0.0,0.000453222,0.000375408,3.26481e-05,32.8213774,-111.787044,365.08075,2.48385829,-0.447396011,-0.0823950683,,,,,,,,,,,,,,2022-11-15 18:06:28.186216+00:00
2022-11-15 11:06:28.387313-07:00,38.654707,3.29,-1.17,-3.06,-0.26,13.25,971.22,41.8,25.0,0.0,-2.86368e-05,0.00143353,0.000711739,32.8213774,-111.787044,365.08432,2.4948101,-0.451015578,-0.0865394902,2.11547,-4.86575,5832.84,25.0988,11210.0,0.510695,-1.0,14.0,-1356.0,71.0,,0.0,,2022-11-15 18:06:28.387313+00:00
2022-11-15 11:06:28.586825-07:00,38.854219,3.38,-1.16,-3.16,-0.33,12.95,971.21,42.67,27.0,0.0,-0.000203727,0.000423926,0.000864281,32.8213774,-111.787044,365.089996,2.50656309,-0.453272335,-0.0787337631,,,,,,,,,,,,,,2022-11-15 18:06:28.586825+00:00
2022-11-15 11:06:28.786282-07:00,39.053676,3.07,-0.95,-2.91,-0.14,13.65,971.21,40.68,27.0,0.0,1.54704e-05,0.00115579,0.000869618,32.8213774,-111.787044,365.092224,2.51137219,-0.453935622,-0.102422436,,,,,,,,,,,,,,2022-11-15 18:06:28.786282+00:00
2022-11-15 11:06:28.986841-07:00,39.254235,3.51,-1.16,-3.3,-0.32,13.0,971.22,42.43,27.0,0.0,-0.000802437,0.00105768,0.000197875,32.8213774,-111.787044,365.088684,2.52039418,-0.454186077,-0.079647622,,,,,,,,,,,,,,2022-11-15 18:06:28.986841+00:00
2022-11-15 11:06:29.186908-07:00,39.454302,3.88,-1.26,-3.66,-0.33,13.16,971.22,42.1,26.0,0.0,-0.000652649,0.000557107,0.000274757,32.8213774,-111.787044,365.087067,2.53046904,-0.45430575,-0.105662926,,,,,,,,,,,,,,2022-11-15 18:06:29.186908+00:00
2022-11-15 11:06:29.387167-07:00,39.654561,4.01,-1.1,-3.84,-0.32,13.36,971.22,41.51,26.0,0.0,-0.000518397,0.00292298,-0.000531112,32.8213774,-111.787044,365.081421,2.53764761,-0.455585051,-0.084548121,2.27977,0.244145,5826.61,25.0997,11139.0,0.958267,0.0313056,18.0,-1332.0,71.0,,0.0,,2022-11-15 18:06:29.387167+00:00
2022-11-15 11:06:29.586588-07:00,39.853982,4.31,-1.22,-4.11,-0.46,12.86,971.23,42.98,28.0,1.0,-0.00128303,0.00124054,-0.00106424,32.8213774,-111.787044,365.081451,3.05636107,-0.454905974,-0.0885521705,,,,,,,,,,,,,,2022-11-15 18:06:29.586588+00:00
2022-11-15 11:06:29.786470-07:00,40.053864,3.65,-1.27,-3.41,-0.26,12.75,971.22,43.24,28.0,1.0,-0.00113629,0.00296553,-0.00136169,32.8213774,-111.787044,365.08139,3.62912089,-0.449790395,-0.0926578197,,,,,,,,,,,,,,2022-11-15 18:06:29.786470+00:00
2022-11-15 11:06:29.986570-07:00,40.253964,4.21,-1.39,-3.95,-0.37,12.66,971.21,43.46,26.0,1.0,-0.000737289,0.00117071,-0.00266851,32.8213774,-111.787044,365.08017,4.01013596,-0.452833082,-0.0957968362,,,,,,,,,,,,,,2022-11-15 18:06:29.986570+00:00
2022-11-15 11:06:30.186493-07:00,40.453887,3.69,-1.44,-3.39,-0.16,13.06,971.2,42.37,26.0,1.0,-0.000514837,0.00157753,-0.00281893,32.8213774,-111.787044,365.079559,4.16531071,-0.451873311,-0.101085478,,,,,,,,,,,,,,2022-11-15 18:06:30.186493+00:00
2022-11-15 11:06:30.387203-07:00,40.654597,3.92,-2.11,-3.25,-0.56,12.73,971.21,43.35,28.0,1.0,-0.00049462,0.00191894,-0.00352191,32.8213775,-111.787044,365.078033,4.58364773,-0.458388566,-0.0879023279,2.23284,-1.06801,5811.6,25.1004,11178.0,0.977981,0.0319268,14.0,-1344.0,71.0,,0.0,,2022-11-15 18:06:30.387203+00:00
2022-11-15 11:06:30.586084-07:00,40.853478,4.12,-2.06,-3.54,-0.5,12.71,971.21,43.24,28.0,1.0,-0.00150948,0.00153638,-0.0027331,32.8213775,-111.787044,365.078156,4.68978485,-0.45156342,-0.127227039,,,,,,,,,,,,,,2022-11-15 18:06:30.586084+00:00
2022-11-15 11:06:30.786692-07:00,41.054086,4.35,-2.3,-3.66,-0.4,12.45,971.22,43.99,27.0,1.0,0.00187245,0.00341551,-0.00428681,32.8213775,-111.787044,365.075104,4.83065342,-0.465041321,-0.113622366,,,,,,,,,,,,,,2022-11-15 18:06:30.786692+00:00
2022-11-15 11:06:30.986859-07:00,41.254253,4.1,-2.28,-3.39,-0.4,12.45,971.21,44.09,25.0,1.0,-0.00456882,0.00146881,-0.00633865,32.8213775,-111.787044,365.069733,4.78220611,-0.4584386,-0.117747528,,,,,,,,,,,,,,2022-11-15 18:06:30.986859+00:00
2022-11-15 11:06:31.186226-07:00,41.45362,4.06,-2.05,-3.47,-0.48,12.36,971.2,44.31,26.0,1.0,-0.0029665,-0.000447951,-0.0075131,32.8213775,-111.787044,365.067627,4.80959851,-0.451418625,-0.157545088,,,,,,,,,,,,,,2022-11-15 18:06:31.186226+00:00
2022-11-15 11:06:31.387869-07:00,41.655263,4.15,-1.89,-3.68,-0.32,12.71,971.19,43.35,28.0,1.0,0.00297699,0.00148609,-0.00757613,32.8213775,-111.787044,365.065704,4.86873505,-0.47749164,-0.187515121,10.9159,307.581,5713.34,25.1016,11217.0,0.999982,0.035499,15.0,-1367.0,71.0,,0.0,,2022-11-15 18:06:31.387869+00:00
2022-11-15 11:06:31.586317-07:00,41.853711,4.1,-2.52,-3.23,-0.12,13.16,971.2,41.99,26.0,1.0,-0.00577994,-0.00236667,-0.0118401,32.8213775,-111.787044,365.05957,4.98067778,-0.460547478,-0.244035099,,,,,,,,,,,,,,2022-11-15 18:06:31.586317+00:00
2022-11-15 11:06:31.786205-07:00,42.053599,3.94,-2.27,-3.2,-0.4,12.78,971.19,43.14,22.0,1.0,-0.00145995,-0.00575,-0.0183797,32.8213775,-111.787044,365.055695,5.03232375,-0.469227563,-0.424871489,,,,,,,,,,,,,,2022-11-15 18:06:31.786205+00:00
2022-11-15 11:06:31.986325-07:00,42.253719,4.37,-2.69,-3.42,-0.4,13.0,971.18,42.55,24.0,1.0,-0.00263544,-0.0292845,-0.0137701,32.8213774,-111.787044,365.052795,5.19518454,-0.465786267,-0.933555384,,,,,,,,,,,,,,2022-11-15 18:06:31.986325+00:00
2022-11-15 11:06:32.186478-07:00,42.453872,4.41,-2.97,-3.24,-0.27,12.73,971.16,43.24,22.0,1.0,-0.0103432,-0.0130889,0.00141181,32.8213774,-111.787044,365.057404,5.51324801,-0.536727896,-1.43601586,,,,,,,,,,,,,,2022-11-15 18:06:32.186478+00:00
2022-11-15 11:06:32.387837-07:00,42.655231,4.59,-3.29,-3.19,-0.25,12.89,971.16,42.8,36.0,1.0,-0.0466919,-0.00151945,0.0123706,32.8213774,-111.787044,365.035461,5.90737227,-0.797507469,-1.42130024,48.3189,1552.74,5424.38,25.1025,11217.0,0.999951,0.0337652,15.0,-1367.0,71.0,,0.0,,2022-11-15 18:06:32.387837+00:00
2022-11-15 11:06:32.586816-07:00,42.85421,4.43,-2.92,-3.31,-0.33,12.83,971.16,42.95,25.0,1.0,-0.133818,-0.0575709,0.04602,32.8213774,-111.787045,365.004181,6.62543465,-1.5891141,-1.38849693,,,,,,,,,,,,,,2022-11-15 18:06:32.586816+00:00
2022-11-15 11:06:32.786381-07:00,43.053775,4.27,-2.71,-3.29,-0.34,12.89,971.15,42.78,23.0,2.0,-0.27088,-0.118107,0.277791,32.8213773,-111.787045,365.018524,7.36664571,-2.09637485,-0.172867308,,,,,,,,,,,,,,2022-11-15 18:06:32.786381+00:00
2022-11-15 11:06:32.986231-07:00,43.253625,4.12,-2.36,-3.34,-0.43,13.12,971.16,42.21,43.0,2.0,-0.397107,-0.154237,0.511111,32.821377,-111.787046,365.112915,7.41046429,-0.678266722,0.580931149,,,,,,,,,,,,,,2022-11-15 18:06:32.986231+00:00
2022-11-15 11:06:33.186850-07:00,43.454244,4.68,-2.55,-3.87,-0.65,13.04,971.14,42.44,25.0,2.0,-0.442669,-0.177234,0.709252,32.8213766,-111.787047,365.291687,7.3267779,1.31676136,0.372060041,,,,,,,,,,,,,,2022-11-15 18:06:33.186850+00:00
2022-11-15 11:06:33.387374-07:00,43.654768,4.71,-2.05,-4.1,-1.07,12.82,971.12,43.04,23.0,2.0,-0.457206,-0.217876,0.744529,32.8213761,-111.787048,365.508972,7.25273671,2.18766209,-0.262521054,99.0516,3277.06,5068.27,25.1034,11161.0,0.99999,0.0338366,17.0,-1353.0,71.0,,0.0,,2022-11-15 18:06:33.387374+00:00
2022-11-15 11:06:33.586550-07:00,43.853944,4.69,-2.49,-3.89,-0.83,12.83,971.1,42.91,18.0,2.0,-0.461154,-0.267837,0.69199,32.8213754,-111.787049,365.699127,7.27392042,2.97365052,-0.0672253252,,,,,,,,,,,,,,2022-11-15 18:06:33.586550+00:00
2022-11-15 11:06:33.785983-07:00,44.053377,4.51,-1.65,-4.09,-0.95,12.58,971.08,43.68,18.0,2.0,-0.410914,-0.319994,0.594627,32.8213747,-111.78705,365.855438,7.29148191,3.16876371,1.02158544,,,,,,,,,,,,,,2022-11-15 18:06:33.785983+00:00
2022-11-15 11:06:33.986726-07:00,44.25412,4.28,-2.21,-3.56,-0.85,12.52,971.06,43.83,357.0,2.0,-0.371146,-0.309517,0.581037,32.8213741,-111.787051,365.996124,7.30050451,3.02073586,2.04379228,,,,,,,,,,,,,,2022-11-15 18:06:33.986726+00:00
2022-11-15 11:06:34.186401-07:00,44.453795,4.28,-2.95,-3.07,-0.45,12.56,971.05,43.67,20.0,2.0,-0.343565,-0.265277,0.614672,32.8213736,-111.787052,366.140198,7.31333658,3.17304395,2.30344647,,,,,,,,,,,,,,2022-11-15 18:06:34.186401+00:00
2022-11-15 11:06:34.387083-07:00,44.654477,4.55,-2.97,-3.4,-0.57,12.51,971.02,43.81,12.0,2.0,-0.304802,-0.217946,0.792069,32.8213732,-111.787052,366.311707,7.28537275,3.0296014,1.86921667,135.217,4557.85,4814.95,25.105,11140.0,0.999974,0.034109,17.0,-1352.0,71.0,,0.0,,2022-11-15 18:06:34.387083+00:00
2022-11-15 11:06:34.586209-07:00,44.853603,4.1,-2.12,-3.43,-0.75,12.68,971.01,43.39,21.0,2.0,-0.276865,-0.193539,0.925107,32.8213729,-111.787053,366.508392,7.25048162,3.12620213,1.41990068,,,,,,,,,,,,,,2022-11-15 18:06:34.586209+00:00
2022-11-15 11:06:34.786491-07:00,45.053885,4.41,-2.03,-3.77,-1.07,12.68,970.99,43.38,22.0,2.0,-0.256654,-0.196157,1.1133,32.8213726,-111.787054,366.751984,7.26382498,2.65684615,1.15554069,,,,,,,,,,,,,,2022-11-15 18:06:34.786491+00:00
2022-11-15 11:06:34.986127-07:00,45.253521,4.5,-2.52,-3.66,-0.68,12.95,970.98,42.52,29.0,2.0,-0.24085,-0.188124,1.31693,32.8213723,-111.787054,367.003387,7.18204449,2.57647318,1.40846603,,,,,,,,,,,,,,2022-11-15 18:06:34.986127+00:00
2022-11-15 11:06:35.186329-07:00,45.453723,5.15,-3.53,-3.72,-0.38,12.81,970.94,43.02,27.0,2.0,-0.253894,-0.175064,1.46745,32.8213719,-111.787055,367.296143,7.14113046,2.36978556,2.06872977,,,,,,,,,,,,,,2022-11-15 18:06:35.186329+00:00
2022-11-15 11:06:35.390888-07:00,45.658282,4.66,-2.8,-3.7,-0.46,12.21,970.91,44.7,19.0,2.0,-0.254521,-0.161203,1.56129,32.8213716,-111.787056,367.611694,7.14995013,2.6569228,1.97117331,141.876,4778.66,4757.3,25.1056,11207.0,0.999982,0.0341582,14.0,-1370.0,71.0,,0.0,,2022-11-15 18:06:35.390888+00:00
2022-11-15 11:06:35.586462-07:00,45.853856,4.68,-2.93,-3.63,-0.4,12.27,970.89,44.52,17.0,2.0,-0.253658,-0.153164,1.58345,32.8213714,-111.787056,367.768219,7.09305413,2.76883797,1.9322086,,,,,,,,,,,,,,2022-11-15 18:06:35.586462+00:00
2022-11-15 11:06:35.786476-07:00,46.05387,4.7,-2.99,-3.6,-0.47,12.24,970.86,44.65,133.0,2.0,-0.252081,-0.134418,1.58383,32.821371,-111.787057,368.235352,7.08101437,2.89266304,2.04306248,,,,,,,,,,,,,,2022-11-15 18:06:35.786476+00:00
2022-11-15 11:06:35.986411-07:00,46.253805,4.76,-2.98,-3.67,-0.56,12.28,970.83,44.54,38.0,2.0,-0.254398,-0.138667,1.62705,32.8213707,-111.787058,368.552521,7.13842261,3.33347535,1.82955423,,,,,,,,,,,,,,2022-11-15 18:06:35.986411+00:00
