Timestamp,Seconds,S,Um,Vm,Wm,T,P,H,MD,Sts,Vx,Vy,Vz,Lat,Lon,Alt,Yaw,Roll,Pitch,nan,CH4,C2H6,H20,T_a,Batt,R,C2C1,Power,Current,SOC,Lat_a,Lon_a,TS,Timestamp_UTC,Rho,Rho_err,Sc,V,U,W,WD,V_err,U_err,Sc_avg,WD_avg,V_avg,U_avg,W_avg,U_err_avg,V_err_avg,Nx,Ny,cross_wind,cross_wind_err,CH4_sub,CH4_res,CH4_adj,CH4_adj_err,BG_Samples_CH4,C2H6_sub,C2H6_res,C2H6_adj,C2H6_adj_err,BG_Samples_C2H6,x_dist,y_dist,s_dist,z_dist,velocity_s,velocity_z,x_src_dist,y_src_dist,s_src_dist,collecting,group,transect_num
2023-06-06 10:45:32.958259-07:00,0.420724,2.29,0.87,2.03,0.6,23.01,862.04,55.28,33.0,-1.0,,,,,,,,,,,1.87206,19.4917,16099.9,28.2989,11931.0,0.398814,-1.0,22.0,-1280.0,94.0,,0.0,2023-06-06 10:45:26.924,2023-06-06 17:45:32.958259+00:00,1.0139951236284592,0.013610726624674552,,,,,,,,,,,,,,,,,,,,,,,,,,,,,,,,,,,,,,False,,
2023-06-06 10:45:33.992193-07:00,1.454658,3.85,-0.64,3.78,0.27,23.52,862.04,53.6,33.0,-1.0,,,,,,,,,,,1.87455,20.2978,15986.4,28.3047,11890.0,0.3885,-1.0,20.0,-1271.0,94.0,,0.0,2023-06-06 10:45:27.948,2023-06-06 17:45:33.992193+00:00,1.0122519830579584,0.01358142029912814,,,,,,,,,,,,,,,,,,,,,,,,,,,,,,,,,,,,,,False,,
2023-06-06 10:45:34.993122-07:00,2.455587,5.56,-0.43,5.54,-0.12,20.83,861.99,63.19,39.0,-1.0,,,,,,,,,,,1.86668,17.8242,16009.1,28.3112,11890.0,0.445202,-1.0,20.0,-1271.0,94.0,,0.0,2023-06-06 10:45:28.972,2023-06-06 17:45:34.993122+00:00,1.021455124669684,0.013737260021704233,,,,,,,,,,,,,,,,,,,,,,,,,,,,,,,,,,,,,,False,,
2023-06-06 10:45:35.993310-07:00,3.455775,5.1,-0.06,5.1,0.09,21.32,861.98,61.31,31.0,-1.0,,,,,,,,,,,1.8667,18.8973,16041.6,28.3177,11890.0,0.471537,-1.0,21.0,-1280.0,94.0,,0.0,2023-06-06 10:45:29.996,2023-06-06 17:45:35.993310+00:00,1.019743586435669,0.013708524398115192,,,,,,,,,,,,,,,,,,,,,,,,,,,,,,,,,,,,,,False,,
2023-06-06 10:45:36.993018-07:00,4.455483,4.64,-0.24,4.63,0.19,21.85,861.97,59.44,34.0,-1.0,,,,,,,,,,,1.87835,18.0009,15900.1,28.3239,11873.0,0.445715,-1.0,19.0,-1231.0,94.0,,0.0,2023-06-06 10:45:31.020,2023-06-06 17:45:36.993018+00:00,1.017899695745862,0.013677583920223032,,,,,,,,,,,,,,,,,,,,,,,,,,,,,,,,,,,,,,False,,
2023-06-06 10:45:37.993424-07:00,5.455889,6.27,-0.72,6.23,-0.03,21.37,861.95,61.19,39.0,-1.0,,,,,,,,,,,1.86756,18.327,15818.1,28.3308,11884.0,0.476237,-1.0,17.0,-1229.0,94.0,,0.0,2023-06-06 10:45:32.044,2023-06-06 17:45:37.993424+00:00,1.0195349821392943,0.01370548149271093,,,,,,,,,,,,,,,,,,,,,,,,,,,,,,,,,,,,,,False,,
2023-06-06 10:45:38.993106-07:00,6.455571,4.3,-0.71,4.24,0.12,22.32,862.02,57.81,31.0,-1.0,,,,,,,,,,,1.87956,17.7066,15938.9,28.337,11919.0,0.426148,-1.0,15.0,-1247.0,94.0,,0.0,2023-06-06 10:45:33.068,2023-06-06 17:45:38.993106+00:00,1.0163394879630423,0.013650501752729981,,,,,,,,,,,,,,,,,,,,,,,,,,,,,,,,,,,,,,False,,
2023-06-06 10:45:39.992961-07:00,7.455426,5.6,0.21,5.59,-0.15,20.99,861.99,62.65,34.0,-1.0,,,,,,,,,,,1.86729,18.1899,15998.6,28.3436,11910.0,0.413359,-1.0,17.0,-1225.0,94.0,,0.0,2023-06-06 10:45:34.092,2023-06-06 17:45:39.992961+00:00,1.0208994953096946,0.013727876767107267,,,,,,,,,,,,,,,,,,,,,,,,,,,,,,,,,,,,,,False,,
2023-06-06 10:45:40.992589-07:00,8.455054,3.67,0.78,3.52,0.69,22.05,861.98,58.64,39.0,-1.0,,,,,,,,,,,1.86287,18.0376,16082.9,28.3503,11925.0,0.447541,-1.0,14.0,-1237.0,94.0,,0.0,2023-06-06 10:45:35.116,2023-06-06 17:45:40.992589+00:00,1.0172218627971255,0.013666000765688321,,,,,,,,,,,,,,,,,,,,,,,,,,,,,,,,,,,,,,False,,
2023-06-06 10:45:41.993012-07:00,9.455477,5.41,0.3,5.4,-0.0,21.31,861.98,61.55,31.0,-1.0,,,,,,,,,,,1.86714,18.2934,16011.6,28.3565,11933.0,0.457692,-1.0,16.0,-1268.0,94.0,,0.0,2023-06-06 10:45:36.140,2023-06-06 17:45:41.993012+00:00,1.019778217407157,0.013709108786162981,,,,,,,,,,,,,,,,,,,,,,,,,,,,,,,,,,,,,,False,,
2023-06-06 10:45:42.992879-07:00,10.455344,3.61,0.54,3.53,0.48,21.59,862.0,60.53,36.0,-1.0,,,,,,,,,,,1.87175,17.9138,15997.1,28.3621,11929.0,0.445645,-1.0,17.0,-1316.0,94.0,,0.0,2023-06-06 10:45:37.164,2023-06-06 17:45:42.992879+00:00,1.0188330772988934,0.013692846075327983,,,,,,,,,,,,,,,,,,,,,,,,,,,,,,,,,,,,,,False,,
2023-06-06 10:45:43.992882-07:00,11.455347,6.93,-0.4,6.89,-0.63,20.36,861.96,65.25,37.0,-1.0,,,,,,,,,,,1.87408,17.6961,15999.1,28.3613,11939.0,0.408736,-1.0,19.0,-1294.0,94.0,,0.0,2023-06-06 10:45:38.188,2023-06-06 17:45:43.992882+00:00,1.0230551824208616,0.01376477618672594,,,,,,,,,,,,,,,,,,,,,,,,,,,,,,,,,,,,,,False,,
2023-06-06 10:45:44.993285-07:00,12.45575,4.81,-0.94,4.7,0.41,21.26,861.96,61.76,31.0,-1.0,,,,,,,,,,,1.87692,17.2661,16079.2,28.3677,11935.0,0.379743,-1.0,14.0,-1292.0,94.0,,0.0,2023-06-06 10:45:39.212,2023-06-06 17:45:44.993285+00:00,1.0199277422381954,0.013711950253500697,,,,,,,,,,,,,,,,,,,,,,,,,,,,,,,,,,,,,,False,,
2023-06-06 10:45:45.993634-07:00,13.456099,4.86,1.57,4.59,0.31,20.89,861.93,63.23,38.0,-1.0,,,,,,,,,,,1.87063,17.6148,15947.5,28.3738,11941.0,0.366649,-1.0,16.0,-1270.0,94.0,,0.0,2023-06-06 10:45:40.236,2023-06-06 17:45:45.993634+00:00,1.0211756075170066,0.013733495225822918,,,,,,,,,,,,,,,,,,,,,,,,,,,,,,,,,,,,,,False,,
2023-06-06 10:45:46.993148-07:00,14.455613,3.86,0.36,3.84,0.11,21.26,862.01,61.87,37.0,-1.0,,,,,,,,,,,1.87784,16.8493,15893.4,28.3803,11938.0,0.297689,-1.0,17.0,-1276.0,94.0,,0.0,2023-06-06 10:45:41.260,2023-06-06 17:45:46.993148+00:00,1.0199869055254847,0.013712153342654066,,,,,,,,,,,,,,,,,,,,,,,,,,,,,,,,,,,,,,False,,
2023-06-06 10:45:47.992816-07:00,15.455281,6.55,-0.04,6.55,-0.21,20.16,861.95,65.36,31.0,-1.0,,,,,,,,,,,1.87217,16.9063,15841.9,28.3866,11926.0,0.240691,-1.0,19.0,-1298.0,94.0,,0.0,2023-06-06 10:45:42.284,2023-06-06 17:45:47.992816+00:00,1.0237408985021477,0.013776530612996416,,,,,,,,,,,,,,,,,,,,,,,,,,,,,,,,,,,,,,False,,
2023-06-06 10:45:48.992961-07:00,16.455426,5.68,0.11,5.68,-0.22,20.84,861.98,62.59,38.0,-1.0,,,,,,,,,,,1.87198,16.4084,15854.5,28.3928,11889.0,0.212085,-1.0,17.0,-1257.0,94.0,,0.0,2023-06-06 10:45:43.308,2023-06-06 17:45:48.992961+00:00,1.0214085305544796,0.013736632408140324,,,,,,,,,,,,,,,,,,,,,,,,,,,,,,,,,,,,,,False,,
2023-06-06 10:45:49.993251-07:00,17.455716,2.58,0.43,2.46,0.66,22.11,862.02,58.0,34.0,-1.0,,,,,,,,,,,1.87409,17.3577,15843.0,28.3993,11894.0,0.167363,-1.0,19.0,-1245.0,94.0,,0.0,2023-06-06 10:45:44.332,2023-06-06 17:45:49.993251+00:00,1.017062346773827,0.013662678818591891,,,,,,,,,,,,,,,,,,,,,,,,,,,,,,,,,,,,,,False,,
2023-06-06 10:45:50.993579-07:00,18.456044,4.14,0.64,4.06,0.49,21.33,862.02,60.76,31.0,-1.0,,,,,,,,,,,1.87064,16.2355,15929.6,28.406,11893.0,0.163481,-1.0,17.0,-1258.0,94.0,,0.0,2023-06-06 10:45:45.356,2023-06-06 17:45:50.993579+00:00,1.0197562771951918,0.013708102428279322,,,,,,,,,,,,,,,,,,,,,,,,,,,,,,,,,,,,,,False,,
2023-06-06 10:45:51.993615-07:00,19.45608,3.69,0.14,3.64,0.58,21.85,861.99,58.84,37.0,-1.0,,,,,,,,,,,1.87296,16.7765,16047.5,28.4123,11870.0,0.158963,-1.0,16.0,-1271.0,94.0,,0.0,2023-06-06 10:45:46.380,2023-06-06 17:45:51.993615+00:00,1.0179233137301478,0.013677664710322132,,,,,,,,,,,,,,,,,,,,,,,,,,,,,,,,,,,,,,False,,
2023-06-06 10:45:52.992700-07:00,20.455165,4.08,-1.39,3.84,0.07,22.2,862.05,57.62,34.0,-1.0,,,,,,,,,,,1.86885,16.0737,16069.6,28.4182,11870.0,0.150605,-1.0,16.0,-1271.0,94.0,,0.0,2023-06-06 10:45:47.404,2023-06-06 17:45:52.992700+00:00,1.0167878092652334,0.013657578162805061,,,,,,,,,,,,,,,,,,,,,,,,,,,,,,,,,,,,,,False,,
2023-06-06 10:45:53.993490-07:00,21.455955,3.34,-0.15,3.31,0.42,22.42,862.07,56.97,32.0,-1.0,,,,,,,,,,,1.87121,15.8937,16183.3,28.4246,11871.0,0.143847,-1.0,15.0,-1244.0,94.0,,0.0,2023-06-06 10:45:48.428,2023-06-06 17:45:53.993490+00:00,1.0160545615991168,0.013644911840994808,,,,,,,,,,,,,,,,,,,,,,,,,,,,,,,,,,,,,,False,,
2023-06-06 10:45:54.992864-07:00,22.455329,4.56,-1.87,4.15,-0.24,21.52,862.03,60.83,36.0,-1.0,,,,,,,,,,,1.86597,16.6251,16318.5,28.4319,11868.0,0.174985,-1.0,15.0,-1261.0,94.0,,0.0,2023-06-06 10:45:49.452,2023-06-06 17:45:54.992864+00:00,1.0191105716941742,0.013697049890364306,,,,,,,,,,,,,,,,,,,,,,,,,,,,,,,,,,,,,,False,,
2023-06-06 10:45:55.992975-07:00,23.45544,4.13,-1.53,3.8,0.57,21.15,862.01,61.47,35.0,-1.0,,,,,,,,,,,1.86708,15.1722,16356.3,28.4391,11880.0,0.198968,-1.0,16.0,-1255.0,94.0,,0.0,2023-06-06 10:45:50.476,2023-06-06 17:45:55.992975+00:00,1.020368144260136,0.013718587883922384,,,,,,,,,,,,,,,,,,,,,,,,,,,,,,,,,,,,,,False,,
2023-06-06 10:45:56.992985-07:00,24.45545,5.61,-2.66,4.93,0.23,21.05,862.0,61.98,32.0,-1.0,,,,,,,,,,,1.86556,15.176,16280.2,28.4456,11892.0,0.212075,-1.0,15.0,-1254.0,94.0,,0.0,2023-06-06 10:45:51.500,2023-06-06 17:45:56.992985+00:00,1.0207031312137176,0.013724402110678362,,,,,,,,,,,,,,,,,,,,,,,,,,,,,,,,,,,,,,False,,
2023-06-06 10:45:57.993017-07:00,25.455482,2.91,-0.18,2.85,0.53,22.48,862.05,56.63,37.0,-1.0,,,,,,,,,,,1.87259,15.042,16278.2,28.4528,11904.0,0.121566,-1.0,17.0,-1254.0,94.0,,0.0,2023-06-06 10:45:52.524,2023-06-06 17:45:57.993017+00:00,1.0158247791715542,0.01364135930995646,,,,,,,,,,,,,,,,,,,,,,,,,,,,,,,,,,,,,,False,,
2023-06-06 10:45:58.993341-07:00,26.455806,5.01,-1.71,4.71,-0.04,21.9,862.02,59.48,37.0,-1.0,,,,,,,,,,,1.86849,15.903,16406.3,28.4598,11939.0,0.0561107,-1.0,14.0,-1274.0,94.0,,0.0,2023-06-06 10:45:53.548,2023-06-06 17:45:58.993341+00:00,1.017786234565125,0.013674878046813525,,,,,,,,,,,,,,,,,,,,,,,,,,,,,,,,,,,,,,False,,
2023-06-06 10:45:59.993037-07:00,27.455502,6.44,-1.44,6.27,-0.27,20.52,861.98,64.7,31.0,-1.0,,,,,,,,,,,1.86919,15.4819,16547.7,28.4673,11935.0,0.114068,-1.0,15.0,-1295.0,94.0,,0.0,2023-06-06 10:45:54.572,2023-06-06 17:45:59.993037+00:00,1.0225215170010946,0.013755436419020332,,,,,,,,,,,,,,,,,,,,,,,,,,,,,,,,,,,,,,False,,
2023-06-06 10:46:00.993391-07:00,28.455856,5.71,-1.57,5.49,-0.06,20.17,861.99,66.16,37.0,-1.0,,,,,,,,,,,1.87074,14.7578,16515.0,28.4743,11936.0,0.172869,-1.0,18.0,-1279.0,94.0,,0.0,2023-06-06 10:45:55.596,2023-06-06 17:46:00.993391+00:00,1.0237535031719405,0.013776104485884984,,,,,,,,,,,,,,,,,,,,,,,,,,,,,,,,,,,,,,False,,
2023-06-06 10:46:01.993329-07:00,29.455794,5.62,-1.74,5.35,0.04,20.86,862.0,62.52,36.0,-1.0,,,,,,,,,,,1.8677,14.8086,16317.8,28.4813,11935.0,0.167702,-1.0,18.0,-1277.0,94.0,,0.0,2023-06-06 10:45:56.620,2023-06-06 17:46:01.993329+00:00,1.0213627468558069,0.013735540436104287,,,,,,,,,,,,,,,,,,,,,,,,,,,,,,,,,,,,,,False,,
2023-06-06 10:46:02.993316-07:00,30.455781,3.83,-0.86,3.72,0.34,21.83,862.01,58.92,30.0,-1.0,,,,,,,,,,,1.8722,14.7619,16179.4,28.4887,11935.0,0.131532,-1.0,18.0,-1277.0,94.0,,0.0,2023-06-06 10:45:57.644,2023-06-06 17:46:02.993316+00:00,1.018015949744925,0.013678908987722659,,,,,,,,,,,,,,,,,,,,,,,,,,,,,,,,,,,,,,False,,
2023-06-06 10:46:03.993388-07:00,31.455853,5.05,-1.61,4.77,0.42,20.5,862.0,63.94,38.0,-1.0,,,,,,,,,,,1.87014,14.0747,16186.1,28.4961,11915.0,0.0626786,-1.0,21.0,-1245.0,94.0,,0.0,2023-06-06 10:45:58.668,2023-06-06 17:46:03.993388+00:00,1.0226148857588142,0.01375669522562074,,,,,,,,,,,,,,,,,,,,,,,,,,,,,,,,,,,,,,False,,
2023-06-06 10:46:04.993141-07:00,32.455606,5.24,-1.7,4.95,0.17,20.37,862.0,64.52,38.0,-1.0,,,,,,,,,,,1.87081,14.5853,16131.7,28.5034,11923.0,0.0916968,-1.0,20.0,-1250.0,94.0,,0.0,2023-06-06 10:45:59.692,2023-06-06 17:46:04.993141+00:00,1.023067801863845,0.01376435077974516,,,,,,,,,,,,,,,,,,,,,,,,,,,,,,,,,,,,,,False,,
2023-06-06 10:46:05.993358-07:00,33.455823,5.23,-1.41,5.04,0.02,20.62,862.03,63.46,30.0,-1.0,,,,,,,,,,,1.87177,13.737,16068.7,28.5102,11914.0,0.140242,-1.0,20.0,-1259.0,94.0,,0.0,2023-06-06 10:46:00.716,2023-06-06 17:46:05.993358+00:00,1.0222327404470242,0.013749758842947482,,,,,,,,,,,,,,,,,,,,,,,,,,,,,,,,,,,,,,False,,
2023-06-06 10:46:06.992877-07:00,34.455342,2.58,-0.7,2.41,0.57,22.46,862.06,56.71,35.0,-1.0,,,,,,,,,,,1.87512,12.548,16131.0,28.5178,11898.0,-0.0406373,-1.0,18.0,-1258.0,94.0,,0.0,2023-06-06 10:46:01.740,2023-06-06 17:46:06.992877+00:00,1.0159052911578392,0.013642556666486986,,,,,,,,,,,,,,,,,,,,,,,,,,,,,,,,,,,,,,False,,
2023-06-06 10:46:07.993229-07:00,35.455694,5.02,-0.32,5.01,0.19,20.94,862.0,62.1,37.0,-1.0,,,,,,,,,,,1.86939,13.4497,16253.0,28.5251,11879.0,0.0274895,-1.0,17.0,-1235.0,94.0,,0.0,2023-06-06 10:46:02.764,2023-06-06 17:46:07.993229+00:00,1.0210849100720043,0.013730848370498516,,,,,,,,,,,,,,,,,,,,,,,,,,,,,,,,,,,,,,False,,
2023-06-06 10:46:08.993117-07:00,36.455582,5.7,-0.96,5.61,-0.18,21.07,861.99,61.72,31.0,-1.0,,,,,,,,,,,1.86253,14.2951,16213.6,28.5322,11877.0,0.0174608,-1.0,16.0,-1237.0,94.0,,0.0,2023-06-06 10:46:03.788,2023-06-06 17:46:08.993117+00:00,1.0206219072476161,0.013723190035739406,,,,,,,,,,,,,,,,,,,,,,,,,,,,,,,,,,,,,,False,,
2023-06-06 10:46:09.993542-07:00,37.456007,4.57,0.75,4.5,0.18,22.06,862.02,58.05,34.0,-1.0,,,,,,,,,,,1.8603,13.7681,16276.3,28.5397,11870.0,0.170128,-1.0,19.0,-1264.0,94.0,,0.0,2023-06-06 10:46:04.812,2023-06-06 17:46:09.993542+00:00,1.0172346075960845,0.013665581384314505,,,,,,,,,,,,,,,,,,,,,,,,,,,,,,,,,,,,,,False,,
2023-06-06 10:46:10.993736-07:00,38.456201,5.18,0.95,5.09,0.24,21.06,862.0,61.65,38.0,-1.0,,,,,,,,,,,1.85567,13.6712,16397.7,28.5471,11873.0,0.373574,-1.0,18.0,-1268.0,94.0,,0.0,2023-06-06 10:46:05.836,2023-06-06 17:46:10.993736+00:00,1.0206684382008626,0.013723816392846684,,,,,,,,,,,,,,,,,,,,,,,,,,,,,,,,,,,,,,False,,
2023-06-06 10:46:11.992621-07:00,39.455086,5.2,-0.37,5.19,0.03,20.69,862.01,63.1,31.0,-1.0,,,,,,,,,,,1.8687,13.3973,16298.1,28.5543,11885.0,0.434224,-1.0,20.0,-1281.0,93.0,,0.0,2023-06-06 10:46:06.860,2023-06-06 17:46:11.992621+00:00,1.021965507949081,0.013745562766720268,,,,,,,,,,,,,,,,,,,,,,,,,,,,,,,,,,,,,,False,,
2023-06-06 10:46:12.992790-07:00,40.455255,5.63,0.1,5.63,-0.04,20.46,862.01,63.97,34.0,-1.0,,,,,,,,,,,1.86238,13.3343,16226.1,28.5612,11885.0,0.474676,-1.0,20.0,-1281.0,93.0,,0.0,2023-06-06 10:46:07.884,2023-06-06 17:46:12.992790+00:00,1.0227660667407716,0.013759090779524214,,,,,,,,,,,,,,,,,,,,,,,,,,,,,,,,,,,,,,False,,
2023-06-06 10:46:13.993622-07:00,41.456087,4.75,1.71,4.43,0.14,21.54,862.0,59.8,39.0,-1.0,,,,,,,,,,,1.87544,12.1452,16179.9,28.5678,11918.0,0.319477,-1.0,17.0,-1276.0,93.0,,0.0,2023-06-06 10:46:08.908,2023-06-06 17:46:13.993622+00:00,1.0190059425263014,0.013695761717446497,,,,,,,,,,,,,,,,,,,,,,,,,,,,,,,,,,,,,,False,,
2023-06-06 10:46:14.993564-07:00,42.456029,6.13,-0.05,6.12,-0.41,20.26,861.99,64.83,31.0,-1.0,,,,,,,,,,,1.85981,12.8829,16059.3,28.575,11920.0,0.331311,-1.0,17.0,-1261.0,93.0,,0.0,2023-06-06 10:46:09.932,2023-06-06 17:46:14.993564+00:00,1.0234394790579517,0.01377079434020962,,,,,,,,,,,,,,,,,,,,,,,,,,,,,,,,,,,,,,False,,
2023-06-06 10:46:15.993547-07:00,43.456012,5.72,-1.17,5.6,-0.08,19.93,862.0,66.07,33.0,-1.0,,,,,,,,,,,1.86447,11.8022,15974.6,28.5822,11926.0,0.364251,-1.0,20.0,-1292.0,93.0,,0.0,2023-06-06 10:46:10.956,2023-06-06 17:46:15.993547+00:00,1.0246037300500743,0.013790326416894034,,,,,,,,,,,,,,,,,,,,,,,,,,,,,,,,,,,,,,False,,
2023-06-06 10:46:16.992969-07:00,44.455434,5.49,-1.37,5.32,0.02,20.54,861.98,63.53,38.0,-1.0,,,,,,,,,,,1.87221,11.6421,15888.7,28.5886,11929.0,0.232657,-1.0,15.0,-1315.0,93.0,,0.0,2023-06-06 10:46:11.980,2023-06-06 17:46:16.992969+00:00,1.0224518842919794,0.013754259631855774,,,,,,,,,,,,,,,,,,,,,,,,,,,,,,,,,,,,,,False,,
2023-06-06 10:46:17.993540-07:00,45.456005,4.59,-1.38,4.38,0.1,20.47,862.01,63.9,31.0,-1.0,,,,,,,,,,,1.86559,11.671,15785.8,28.5954,11925.0,0.229112,-1.0,21.0,-1286.0,93.0,,0.0,2023-06-06 10:46:13.004,2023-06-06 17:46:17.993540+00:00,1.022731233757094,0.013758502040982964,,,,,,,,,,,,,,,,,,,,,,,,,,,,,,,,,,,,,,False,,
2023-06-06 10:46:18.993541-07:00,46.456006,4.57,-1.03,4.45,0.05,19.78,862.02,66.57,33.0,-1.0,,,,,,,,,,,1.88095,11.2794,15713.7,28.6023,11927.0,0.022781,-1.0,19.0,-1302.0,93.0,,0.0,2023-06-06 10:46:14.028,2023-06-06 17:46:18.993541+00:00,1.0251521814373405,0.013799286958031062,,,,,,,,,,,,,,,,,,,,,,,,,,,,,,,,,,,,,,False,,
2023-06-06 10:46:19.992752-07:00,47.455217,4.28,-1.04,4.15,0.17,20.59,862.03,62.61,39.0,-1.0,,,,,,,,,,,1.86344,11.8668,15621.4,28.6093,11925.0,0.000806352,-1.0,20.0,-1285.0,93.0,,0.0,2023-06-06 10:46:15.052,2023-06-06 17:46:19.992752+00:00,1.0223371422384502,0.013751522927615155,,,,,,,,,,,,,,,,,,,,,,,,,,,,,,,,,,,,,,False,,
2023-06-06 10:46:20.992892-07:00,48.455357,4.17,-0.67,4.11,0.16,20.02,862.01,64.73,32.0,-1.0,,,,,,,,,,,1.8658,12.4359,15636.8,28.6161,11917.0,-0.00377721,-1.0,19.0,-1297.0,93.0,,0.0,2023-06-06 10:46:16.076,2023-06-06 17:46:20.992892+00:00,1.024301070558918,0.013785046188338753,,,,,,,,,,,,,,,,,,,,,,,,,,,,,,,,,,,,,,False,,
2023-06-06 10:46:21.993168-07:00,49.455633,3.61,-1.58,3.23,-0.23,21.2,862.04,60.27,33.0,-1.0,,,,,,,,,,,1.8729,10.4084,15598.7,28.6228,11902.0,-0.125086,-1.0,19.0,-1254.0,93.0,,0.0,2023-06-06 10:46:17.100,2023-06-06 17:46:21.993168+00:00,1.0202303238111243,0.013715784255682451,,,,,,,,,,,,,,,,,,,,,,,,,,,,,,,,,,,,,,False,,
2023-06-06 10:46:22.993147-07:00,50.455612,3.12,-1.45,2.77,0.04,21.83,862.06,57.86,40.0,-1.0,,,,,,,,,,,1.85711,10.7988,15681.5,28.6296,11872.0,-0.00524708,-1.0,17.0,-1294.0,93.0,,0.0,2023-06-06 10:46:18.124,2023-06-06 17:46:22.993147+00:00,1.0180749987089595,0.013679111010176541,,,,,,,,,,,,,,,,,,,,,,,,,,,,,,,,,,,,,,False,,
2023-06-06 10:46:23.993267-07:00,51.455732,3.59,-1.62,3.2,-0.25,21.45,862.05,59.28,32.0,-1.0,,,,,,,,,,,1.87629,9.63987,15919.6,28.6364,11868.0,-0.141928,-1.0,21.0,-1281.0,93.0,,0.0,2023-06-06 10:46:19.148,2023-06-06 17:46:23.993267+00:00,1.0193763729344423,0.013701215799893562,,,,,,,,,,,,,,,,,,,,,,,,,,,,,,,,,,,,,,False,,
2023-06-06 10:46:24.993307-07:00,52.455772,3.95,-1.41,3.68,0.3,21.38,862.03,59.4,32.0,-1.0,,,,,,,,,,,1.86204,10.4128,16026.6,28.6433,11874.0,-0.0615353,-1.0,20.0,-1270.0,93.0,,0.0,2023-06-06 10:46:20.172,2023-06-06 17:46:24.993307+00:00,1.0195949891729954,0.01370522200129846,,,,,,,,,,,,,,,,,,,,,,,,,,,,,,,,,,,,,,False,,
2023-06-06 10:46:25.993442-07:00,53.455907,3.08,-0.13,3.07,0.19,21.09,862.04,60.68,40.0,-1.0,,,,,,,,,,,1.87481,10.5586,15996.5,28.6482,11866.0,-0.11019,-1.0,19.0,-1263.0,93.0,,0.0,2023-06-06 10:46:21.196,2023-06-06 17:46:25.993442+00:00,1.02061173128672,0.013722222278944013,,,,,,,,,,,,,,,,,,,,,,,,,,,,,,,,,,,,,,False,,
2023-06-06 10:46:26.992837-07:00,54.455302,3.84,-0.29,3.83,0.14,21.32,862.03,59.58,33.0,-1.0,,,,,,,,,,,1.86609,9.17364,15968.7,28.6483,11886.0,-0.0622373,-1.0,16.0,-1239.0,93.0,,0.0,2023-06-06 10:46:22.220,2023-06-06 17:46:26.992837+00:00,1.0198027376680894,0.01370872737721863,,,,,,,,,,,,,,,,,,,,,,,,,,,,,,,,,,,,,,False,,
2023-06-06 10:46:27.992865-07:00,55.45533,3.29,-0.81,3.18,0.18,21.97,862.03,57.94,32.0,-1.0,,,,,,,,,,,1.86462,9.18894,16008.1,28.6551,11922.0,-0.0562192,-1.0,17.0,-1290.0,93.0,,0.0,2023-06-06 10:46:23.244,2023-06-06 17:46:27.992865+00:00,1.0175566283583704,0.013670849522777136,,,,,,,,,,,,,,,,,,,,,,,,,,,,,,,,,,,,,,False,,
2023-06-06 10:46:28.992987-07:00,56.455452,2.42,-0.91,2.16,0.58,22.41,862.06,56.4,39.0,-1.0,,,,,,,,,,,1.87343,9.19661,16195.7,28.6617,11926.0,-0.115701,-1.0,17.0,-1274.0,93.0,,0.0,2023-06-06 10:46:24.268,2023-06-06 17:46:28.992987+00:00,1.0160771522505372,0.01364545052916648,,,,,,,,,,,,,,,,,,,,,,,,,,,,,,,,,,,,,,False,,
2023-06-06 10:46:29.993321-07:00,57.455786,5.64,-0.26,5.63,-0.28,20.19,862.02,64.62,33.0,-1.0,,,,,,,,,,,1.85802,9.65313,16219.8,28.6681,11923.0,-0.0482472,-1.0,17.0,-1301.0,93.0,,0.0,2023-06-06 10:46:25.292,2023-06-06 17:46:29.993321+00:00,1.023719330839436,0.01377504717214918,,,,,,,,,,,,,,,,,,,,,,,,,,,,,,,,,,,,,,False,,
2023-06-06 10:46:30.992857-07:00,58.455322,3.19,0.93,3.02,0.42,21.34,862.05,60.2,31.0,-1.0,,,,,,,,,,,1.87381,8.68519,16089.9,28.675,11938.0,-0.128607,-1.0,18.0,-1293.0,93.0,,0.0,2023-06-06 10:46:26.316,2023-06-06 17:46:30.992857+00:00,1.01975713764979,0.0137076398945402,,,,,,,,,,,,,,,,,,,,,,,,,,,,,,,,,,,,,,False,,
2023-06-06 10:46:31.993152-07:00,59.455617,3.94,-0.75,3.87,-0.05,21.0,862.03,61.41,38.0,-1.0,,,,,,,,,,,1.86553,8.3135,15912.2,28.6817,11938.0,-0.103275,-1.0,18.0,-1293.0,93.0,,0.0,2023-06-06 10:46:27.340,2023-06-06 17:46:31.993152+00:00,1.0209121610101046,0.013727453616595277,,,,,,,,,,,,,,,,,,,,,,,,,,,,,,,,,,,,,,False,,
2023-06-06 10:46:32.996675-07:00,60.45914,3.24,0.04,3.24,0.15,21.24,862.06,60.53,35.0,-1.0,,,,,,,,,,,1.85855,8.55118,15931.4,28.6882,11900.0,-0.0643803,-1.0,19.0,-1274.0,93.0,,0.0,2023-06-06 10:46:28.364,2023-06-06 17:46:32.996675+00:00,1.0201153677746144,0.013713525937538596,,,,,,,,,,,,,,,,,,,,,,,,,,,,,,,,,,,,,,False,,
2023-06-06 10:46:33.993372-07:00,61.455837,3.77,-0.4,3.74,0.13,21.5,862.04,59.56,31.0,-1.0,,,,,,,,,,,1.8667,8.78241,16032.9,28.6948,11907.0,-0.0815042,-1.0,21.0,-1274.0,93.0,,0.0,2023-06-06 10:46:29.388,2023-06-06 17:46:33.993372+00:00,1.0191915690269964,0.013698257255556286,,,,,,,,,,,,,,,,,,,,,,,,,,,,,,,,,,,,,,False,,
2023-06-06 10:46:34.993424-07:00,62.455889,3.35,-0.85,3.24,0.11,21.89,862.05,58.16,37.0,-1.0,,,,,,,,,,,1.86575,7.94711,16117.7,28.7012,11877.0,-0.103774,-1.0,17.0,-1269.0,93.0,,0.0,2023-06-06 10:46:30.412,2023-06-06 17:46:34.993424+00:00,1.0178561532893393,0.013675580662071739,,,,,,,,,,,,,,,,,,,,,,,,,,,,,,,,,,,,,,False,,
2023-06-06 10:46:35.993147-07:00,63.455612,4.84,-0.1,4.84,-0.01,20.94,862.02,61.5,36.0,-1.0,,,,,,,,,,,1.8773,7.7323,16197.9,28.708,11875.0,-0.220106,-1.0,17.0,-1248.0,93.0,,0.0,2023-06-06 10:46:31.436,2023-06-06 17:46:35.993147+00:00,1.0211086011372033,0.013730929850738788,,,,,,,,,,,,,,,,,,,,,,,,,,,,,,,,,,,,,,False,,
2023-06-06 10:46:36.992817-07:00,64.455282,2.8,1.13,2.49,0.62,21.8,862.04,58.34,30.0,-1.0,,,,,,,,,,,1.87178,8.50637,16239.2,28.7144,11881.0,-0.284269,-1.0,15.0,-1224.0,93.0,,0.0,2023-06-06 10:46:32.460,2023-06-06 17:46:36.992817+00:00,1.018154927322612,0.013680775841132531,,,,,,,,,,,,,,,,,,,,,,,,,,,,,,,,,,,,,,False,,
2023-06-06 10:46:37.993218-07:00,65.455683,2.25,-1.21,1.9,-0.02,23.57,862.06,52.43,36.0,-1.0,,,,,,,,,,,1.87271,7.22067,16484.3,28.7212,11925.0,-0.341022,-1.0,17.0,-1241.0,93.0,,0.0,2023-06-06 10:46:33.484,2023-06-06 17:46:37.993218+00:00,1.0121048905337315,0.013578633568766383,,,,,,,,,,,,,,,,,,,,,,,,,,,,,,,,,,,,,,False,,
2023-06-06 10:46:38.993510-07:00,66.455975,3.09,-0.64,3.02,0.1,21.97,862.05,57.76,39.0,-1.0,,,,,,,,,,,1.8556,7.43599,16691.0,28.7276,11925.0,-0.204616,-1.0,16.0,-1301.0,93.0,,0.0,2023-06-06 10:46:34.508,2023-06-06 17:46:38.993510+00:00,1.0175802367392472,0.013670930226905388,,,,,,,,,,,,,,,,,,,,,,,,,,,,,,,,,,,,,,False,,
2023-06-06 10:46:40.031533-07:00,67.493998,1.79,-0.91,1.47,0.45,22.8,862.07,54.98,32.0,-1.0,,,,,,,,,,,1.85518,7.4135,16827.8,28.7345,11926.0,-0.0641327,-1.0,16.0,-1306.0,93.0,,0.0,2023-06-06 10:46:35.532,2023-06-06 17:46:40.031533+00:00,1.0147499468553842,0.013622951573221867,,,,,,,,,,,,,,,,,,,,,,,,,,,,,,,,,,,,,,False,,
2023-06-06 10:46:41.023117-07:00,68.485582,2.19,-1.01,1.93,0.21,22.3,862.06,57.28,33.0,-1.0,,,,,,,,,,,1.85735,6.37986,16904.7,28.7408,11926.0,0.119265,-1.0,16.0,-1306.0,93.0,,0.0,2023-06-06 10:46:36.556,2023-06-06 17:46:41.023117+00:00,1.0164554514102853,0.013651821433801397,,,,,,,,,,,,,,,,,,,,,,,,,,,,,,,,,,,,,,False,,
2023-06-06 10:46:42.047125-07:00,69.50959,2.27,-1.26,1.88,-0.06,22.98,862.07,55.03,40.0,-1.0,,,,,,,,,,,1.85993,6.66095,17098.1,28.7477,11908.0,0.153717,-1.0,17.0,-1264.0,93.0,,0.0,2023-06-06 10:46:37.580,2023-06-06 17:46:42.047125+00:00,1.0141331400798668,0.013612574469324682,,,,,,,,,,,,,,,,,,,,,,,,,,,,,,,,,,,,,,False,,
2023-06-06 10:47:13-07:00,100.462465,4.33,-3.29,2.8,0.3,20.89,862.03,62.03,30.0,0.0,0.000524031,-0.000692803,0.0112791,34.0621914,-106.883898,1407.84158,-22.598375,-3.12573878,-1.35463275,,1.8969,1.13906,15880.1,28.9295,11921.0,-0.769585,-1.0,20.0,-1302.0,93.0,,0.0,,2023-06-06 17:47:13+00:00,1.0212940829857242,0.013733902806604937,4.319486038377755,1.3200808551156251,-4.112827029148874,0.3112791,107.79490471164294,0.27672084784537127,0.13594071129885263,4.066948580069339,121.3903360812003,2.0973386197106856,-3.4380289142995615,0.08342617399999999,0.15971376398835632,0.28051661158469615,0.7975461514132673,0.6032579351868367,-1.4767505639328709,0.14402135541855202,,,,,,,,,,,0.5789857660664749,1.01464262860731,1.168214098996727,-0.9528799999998228,,,194.22745885202696,60.51082230001286,203.4351626133977,False,,
2023-06-06 10:47:14-07:00,101.462465,4.88,-2.43,4.24,0.15,20.51,862.03,63.35,34.0,0.0,0.000541955,-0.000381807,0.00105605,34.0621913,-106.883898,1407.82278,-22.5555003,-3.1260858,-1.3442703,,1.89587,0.145964,15785.4,28.9356,11874.0,-0.788244,-1.0,18.0,-1279.0,93.0,,0.0,,2023-06-06 17:47:14+00:00,1.0226156513012405,0.013756229408752506,4.88631014828251,2.9831988635036026,-3.869954961753361,0.15105605,127.62724201851086,0.2897262464313804,0.1908281165252882,4.632628627218212,117.98260185355453,2.204409744305428,-4.031621449991184,0.1513839806,0.16442022433656128,0.2838136226060757,0.5759283996768634,0.8175001397220965,-0.5198200158219,0.19735933517704424,,,,,,,,,,,0.5678514229830982,1.0146426268144992,1.1627359540037268,-0.9716799999998784,-0.005478144993000145,-0.01880000000005566,194.2163245089436,60.51082229822005,203.4245322496037,False,,
2023-06-06 10:47:15-07:00,102.462465,5.96,-3.33,4.94,-0.16,20.29,861.99,64.31,39.0,0.0,0.000147418,8.54297e-05,-0.000338674,34.0621912,-106.883898,1407.8345,-22.5008271,-3.1286649,-1.32173087,,1.89316,0.297912,15933.1,28.9338,11890.0,-0.802546,-1.0,17.0,-1259.0,93.0,,0.0,,2023-06-06 17:47:15+00:00,1.023334847159193,0.013769025218240872,5.957482490430428,3.289642788832341,-4.966875068457885,-0.16033867400000001,123.51716165925674,0.29774647729321463,0.20314497584236904,5.761098291028079,124.39280351670634,3.2517028066312528,-4.749922817124935,-0.0487103246,0.20171761183723014,0.2963792268428639,0.5013985995475551,-0.8652164147609259,-5.195031292686952,0.22759107181553573,,,,,,,,,,,0.5567170819204508,1.0146426298758082,1.1573390063690578,-0.95995999999991,-0.005396947634668914,0.011719999999968422,194.20519016788094,60.51082230128136,203.41390194310725,False,,
2023-06-06 10:47:16-07:00,103.462465,5.55,-3.3,4.46,0.04,19.83,862.01,66.11,33.0,0.0,0.000201381,-0.000445529,0.00192207,34.062191,-106.883898,1407.8442599999998,-22.4678457,-3.12914373,-1.35155852,,1.89581,0.697495,15945.6,28.9391,11868.0,-0.794943,-1.0,17.0,-1241.0,93.0,,0.0,,2023-06-06 17:47:16+00:00,1.0249653384386577,0.013796285069947062,5.547714557807982,2.8598702276665136,-4.753764728698855,0.04192207,121.03116324846201,0.29215968907616835,0.18628206652039006,5.658944780073145,125.36266580071492,3.2720390632390584,-4.610184935330635,-0.0764173086,0.20266360221545215,0.29595685018430423,0.9112367855575708,0.41188289676400225,-2.8532731736047494,0.17561259949353547,,,,,,,,,,,0.5344483992346389,1.0146426338226608,1.1467932533002863,-0.9501999999999953,-0.01054575306877159,0.009759999999914726,194.18292148519512,60.51082230522821,203.39264149073918,False,,
2023-06-06 10:47:17-07:00,104.462465,5.25,-2.77,4.46,-0.04,20.07,862.0,65.03,30.0,0.0,0.00024095,-0.000578752,0.0010413,34.0621908,-106.883898,1407.8428,-22.4155716,-3.13269659,-1.37257263,,1.89275,0.17127,15824.3,28.9451,11863.0,-0.836762,-1.0,17.0,-1257.0,93.0,,0.0,,2023-06-06 17:47:17+00:00,1.024114525622658,0.01378205061481343,5.249656850332847,3.066173583763837,-4.261159067727396,-0.0389587,125.73740440990065,0.29218121504319206,0.19445213540109052,5.279574312665181,125.72336055884816,3.0808059892902557,-4.278589692791384,-0.005301688000000003,0.19523643845695457,0.2924712024176287,0.9231882607473607,0.38434806519385933,-2.7658419557182983,0.17191306506783807,,,,,,,,,,,0.5121797162881577,1.014642635985004,1.1365860022609882,-0.9516599999999471,-0.010207251039298093,-0.0014599999999518332,194.16065280224865,60.510822307390555,203.37138125339058,False,,
2023-06-06 10:47:18-07:00,105.462465,4.8,-2.62,4.02,0.03,20.65,861.99,62.76,37.0,0.0,-0.000310509,-0.00138652,-0.00202894,34.0621906,-106.883898,1407.9033399999998,-22.3787572,-3.1379377,-1.3852589,,1.89947,-0.672953,15595.6,28.9515,11876.0,-0.865266,-1.0,17.0,-1235.0,93.0,,0.0,,2023-06-06 17:47:18+00:00,1.0220809310769015,0.013747831817076665,4.797886523500407,2.718350013783451,-3.9535159408999894,0.02797106,124.51155197050534,0.28743460603790344,0.18118527157431707,4.666342806374521,128.78085973032518,2.9115434045327078,-3.639358892423006,0.11645707599999999,0.18865701378345814,0.2881361867722031,0.9758290227862266,-0.218535393673606,-4.187667315668852,0.18017344082052356,,,,,,,,,,,0.48991103740485986,1.0146426480082715,1.126726465353656,-0.8911200000000008,-0.009859536907332211,0.0605399999999463,194.13838412336534,60.51082231941382,203.3501212387222,False,,
2023-06-06 10:47:19-07:00,106.462465,3.8,-0.58,3.75,0.2,21.35,861.99,59.37,35.0,0.0,0.00053307,-0.000695631,-0.00122665,34.0621904,-106.883898,1407.9129899999998,-22.3278156,-3.13487483,-1.31777813,,1.90068,-0.531124,15545.3,28.9574,11912.0,-0.900781,-1.0,14.0,-1275.0,93.0,,0.0,,2023-06-06 17:47:19+00:00,1.0196515366736625,0.013706812122307024,3.793717224914626,3.2478045316933213,-1.9606264576727148,0.19877335000000002,148.8815652922377,0.2847115222902296,0.20191117054688773,4.29868959063502,127.49589155030245,2.5083591355975123,-3.345844719438447,0.12021772319999999,0.17558768062624214,0.28354069746772836,0.7937424828539906,0.6082539526487127,-1.1300197359612913,0.15245457521399458,,,,,,,,,,,0.46764235436848123,1.0146426519376288,1.117223828393541,-0.8814700000000357,-0.009502636960114996,0.009649999999965075,194.11611544032897,60.51082232334318,203.32886143361532,False,,
2023-06-06 10:47:20-07:00,107.462465,4.46,-2.48,3.71,-0.03,21.33,862.02,60.24,30.0,0.0,-0.000694349,-0.000635969,0.000223622,34.0621902,-106.883898,1407.96365,-22.2957993,-3.13637242,-1.35440708,,1.90029,-1.12367,15762.2,28.9634,11923.0,-0.905531,-1.0,15.0,-1284.0,93.0,,0.0,,2023-06-06 17:47:20+00:00,1.0197562771951918,0.013708102428279322,4.462787544088657,2.4911122420594998,-3.7028141272732236,-0.029776378,123.93116298816076,0.2843141332805742,0.17303201231319731,3.871881388699393,117.40459134318317,1.8278869423265527,-3.363351796597697,0.1259318748,0.15395193771789,0.27854476743945755,0.6754258706874076,-0.7374278901737833,-3.6196296270011334,0.166962905844974,,,,,,,,,,,0.4453736748360386,1.0146426623895106,1.1080872901436203,-0.8308099999999286,-0.009136538249920667,0.050660000000107175,194.09384676079654,60.51082233379506,203.30760184979724,False,,
2023-06-06 10:47:21-07:00,108.462465,2.73,-1.53,2.26,0.17,21.71,862.05,58.75,34.0,0.0,-0.000417372,-0.000340125,-0.0063366,34.0621902,-106.883898,1407.9864699999998,-22.2664928,-3.13292221,-1.36040407,,1.8999,-0.773475,15994.8,28.9695,11923.0,-0.910835,-1.0,15.0,-1284.0,93.0,,0.0,,2023-06-06 17:47:21+00:00,1.0184775129433856,0.013686055939407504,2.7293531625406127,1.5113950143537056,-2.2726754709938692,0.16366340000000001,123.62505680128973,0.2727024728551216,0.1419879113292063,2.545865727316949,132.09029442764898,1.6010202226460968,-1.9068759518092555,0.170003716,0.14476243492691054,0.27246811278986416,0.6317221881032139,-0.7751948639265406,-2.4457185023561223,0.17362635090330097,,,,,,,,,,,0.44537367642917514,1.014642666018967,1.1080872941073354,-0.807990000000018,3.963715133892265e-09,0.02281999999991058,194.09384676238966,60.510822337424514,203.30760185239842,False,,
2023-06-06 10:47:22-07:00,109.462465,1.8,-0.75,1.57,0.43,22.08,862.06,57.49,39.0,0.0,0.00102803,-0.00120801,-0.000407916,34.06219,-106.883898,1407.9959999999999,-22.2198874,-3.1362523,-1.35183266,,1.89964,-1.26679,16155.2,28.9757,11923.0,-0.903493,-1.0,16.0,-1279.0,93.0,,0.0,,2023-06-06 17:47:22+00:00,1.0172128954346402,0.013664581450400101,1.738369361627513,1.1685812163042164,-1.286991056047479,0.429592084,132.23928592871826,0.2689871011884936,0.13384562263054045,2.1248378226958806,130.75894872388298,1.4708923048136022,-1.49463824034027,0.3115852578,0.14746758166468515,0.27289788206150595,0.7615591842417906,0.6480953702172069,-0.18497698621230918,0.14301642732835312,,,,,,,,,,,0.42310499302728966,1.0146426699292386,1.0993259674754148,-0.7984599999999773,-0.00876132663192064,0.009530000000040673,194.07157807898778,60.51082234133479,203.28634247900973,False,,
2023-06-06 10:47:23-07:00,110.462465,3.53,-0.93,3.4,0.25,21.52,862.03,59.38,32.0,0.0,0.002615,0.00079271,-0.00976393,34.0621897,-106.883898,1408.0359099999998,-22.198145,-3.13061314,-1.26747571,,1.89826,-1.03392,16335.6,28.9815,11906.0,-0.910289,-1.0,17.0,-1274.0,93.0,,0.0,,2023-06-06 17:47:23+00:00,1.0191105716941742,0.013697049890364306,3.523935254570745,2.7974302346179196,-2.1430127766422937,0.24023607,142.5455461500293,0.28136408715477157,0.18457592091507402,3.9288921418914855,138.3425445279313,2.9253665833920826,-2.612366089382396,0.18657007760000002,0.18964934414024728,0.28425321024634564,0.2901031753942997,-0.9569953749241134,-3.5574179880860006,0.2608193232250364,,,,,,,,,,,0.3897019690103114,1.0146426798686392,1.08690726028559,-0.7585500000000138,-0.01241870718982474,0.039909999999963475,194.0381750549708,60.510822351274186,203.25445382645603,False,,
2023-06-06 10:47:24-07:00,111.462465,3.91,-1.77,3.48,-0.23,21.28,862.04,60.32,30.0,0.0,0.00122041,-0.000103838,-0.0104206,34.0621895,-106.883897,1408.11233,-22.1545038,-3.13655146,-1.29777391,,1.89284,-1.6891,16444.2,28.9877,11872.0,-0.902373,-1.0,16.0,-1255.0,93.0,,0.0,,2023-06-06 17:47:24+00:00,1.0199531155582124,0.013711105921775768,3.903276357305816,2.555492191463761,-2.9504281012880664,-0.2404206,130.8972395238629,0.2820788617640794,0.1757457423812881,3.3148526563145397,133.77642851221407,2.285816840332912,-2.3966832229772193,0.10954694599999999,0.16662108281435964,0.27829897287866184,0.08477820353024063,0.9963998475542764,2.0744010531696353,0.27630133777255605,,,,,,,,,,,0.3674332906218056,1.1068829385111731,1.1662748658117852,-0.6821299999999155,0.07936760552619515,0.0764200000000983,194.0159063765823,60.60306260991672,203.2606777633791,False,,
2023-06-06 10:47:25-07:00,112.462465,3.23,-1.24,2.97,0.29,20.74,862.04,62.2,37.0,0.0,-0.00048575,0.0010251,-0.00432136,34.0621892,-106.883897,1408.1914299999999,-22.1267912,-3.12827856,-1.31978353,,1.89292,-1.01975,16544.0,28.9939,11853.0,-0.886562,-1.0,18.0,-1247.0,93.0,,0.0,,2023-06-06 17:47:25+00:00,1.0218272000197506,0.013742747930074191,3.219532125735527,2.285237096467901,-2.2678356469484457,0.28567864,135.21897843864116,0.2776271285715422,0.1662247012662663,3.3495878417849076,134.7030311459492,2.348694493043665,-2.387076314512309,0.19956981199999999,0.168907137218471,0.278769736986949,0.903677697045784,0.42821328781581286,-1.1514054356298993,0.14710226183004213,,,,,,,,,,,0.334030267699428,1.1068829561538562,1.15618601373795,-0.6030299999999897,-0.010088852073835142,0.07909999999992579,193.98250335365992,60.6030626275594,203.22879423741256,False,,
2023-06-06 10:47:26-07:00,113.462465,4.17,-1.88,3.71,-0.18,21.39,862.03,59.97,38.0,0.0,5.68745e-05,0.000604363,-0.00308473,34.062189,-106.883897,1408.19094,-22.0952517,-3.12997409,-1.32264348,,1.88795,-1.55596,16601.7,29.0,11883.0,-0.846268,-1.0,18.0,-1249.0,93.0,,0.0,,2023-06-06 17:47:26+00:00,1.0195603726526865,0.01370463794956597,4.1595004229736965,2.730983988709477,-3.137382702529424,-0.18308473,131.03845243455143,0.2842649545300778,0.18236112949196293,3.5005509240340364,139.63388227553372,2.5352773182088604,-2.30654735720123,0.023058141999999993,0.17522353591257536,0.27982201398828244,0.9956011768910336,-0.09369256412965203,-2.533937896107184,0.17370274052724455,,,,,,,,,,,0.3117615829260977,1.1068829586810771,1.149950072310603,-0.6035199999998895,-0.006235941427346958,-0.0004899999998997373,193.96023466888659,60.603062630086626,203.20753881919774,False,,
2023-06-06 10:47:27-07:00,114.462465,2.36,-1.16,2.05,0.21,22.31,862.04,56.63,31.0,0.0,0.000529402,-0.000552219,0.000244248,34.0621888,-106.883898,1408.19814,-22.0532204,-3.12770676,-1.31467726,,1.89718,-1.8194,16442.1,29.0066,11928.0,-0.843386,-1.0,15.0,-1265.0,93.0,,0.0,,2023-06-06 17:47:27+00:00,1.0163974677242418,0.013651161560029067,2.3546825363226285,1.4639180497199513,-1.8443084857384628,0.210244248,128.44075424500508,0.27117099559570884,0.14149891221512975,2.343359001917341,134.1594684094138,1.6367501112474714,-1.6597735307710864,0.253695432,0.14685992144217833,0.2718832722466842,0.7218627336295673,0.6920362662439363,-0.06543822236636765,0.1510319315572527,,,,,,,,,,,0.289492899213417,1.014642716446346,1.0551331578206657,-0.5963199999998778,-0.09481691448993734,0.0072000000000116415,193.93796598517392,60.510822387851896,203.15879079311492,False,,
2023-06-06 10:47:28-07:00,115.462465,3.97,-1.56,3.65,0.23,21.3,862.02,60.17,32.0,0.0,0.000841789,0.000234699,-0.00252227,34.0621886,-106.883898,1408.1904499999998,-22.0208473,-3.13307456,-1.31228457,,1.8964,-1.71588,16507.3,29.012,11918.0,-0.833252,-1.0,17.0,-1279.0,93.0,,0.0,,2023-06-06 17:47:28+00:00,1.0198601749310243,0.01370985563783869,3.9689640570961457,2.7990455134603183,-2.813897634971599,0.22747773000000002,134.84839292490804,0.28365405375000946,0.18513802608876842,3.823450240762205,133.8873921343,2.659908466769006,-2.742929103099697,0.14816387300000003,0.18056881262828586,0.28246315242186953,0.2685666126490998,-0.9632611144285792,-3.298845571934045,0.2624130473261593,,,,,,,,,,,0.2672242141184923,1.0146427176178252,1.0492419287400458,-0.6040100000000166,-0.0058912290806198975,-0.0076900000001387525,193.915697300079,60.510822389023375,203.13753293168594,False,,
2023-06-06 10:47:29-07:00,116.462465,3.86,-1.7,3.46,-0.14,21.3,862.04,60.91,40.0,0.0,-0.000165186,-0.000934054,-0.00117659,34.0621886,-106.883898,1408.18618,-21.9864304,-3.13766564,-1.32967309,,1.89705,-1.92752,16616.5,29.0179,11894.0,-0.822448,-1.0,17.0,-1270.0,93.0,,0.0,,2023-06-06 17:47:29+00:00,1.01988383703109,0.01370993684637143,3.8545745610194118,2.5709710729097592,-2.8719075174384066,-0.14117659000000002,131.83534178141065,0.2818181544670108,0.1768163945848179,3.597323647227538,133.3139042607574,2.455141157107928,-2.6262267549210785,0.0459077246,0.1733582167456057,0.28042719732953786,0.9847198136038513,-0.17414617048903577,-3.013650951107697,0.16831579155521442,,,,,,,,,,,0.2672242139396309,1.014642716938694,1.0492419280377565,-0.6082799999999224,-7.022893377950368e-10,-0.004269999999905849,193.91569729990013,60.510822388344245,203.1375329313129,False,,
2023-06-06 10:47:30-07:00,117.462465,3.25,-1.78,2.7,-0.21,21.58,862.06,59.91,34.0,0.0,0.000771309,-0.00078399,0.00292208,34.0621884,-106.883898,1408.2240199999999,-21.9565815,-3.13188176,-1.3602212,,1.89675,-2.40312,16686.8,29.0238,11870.0,-0.819083,-1.0,19.0,-1261.0,93.0,,0.0,,2023-06-06 17:47:30+00:00,1.018938564513856,0.013693672093369143,3.232864715638213,1.8378292733235755,-2.6596612249934166,-0.20707792,124.64452214950265,0.2753678067542989,0.15234353586957683,3.0064268873674465,126.88192056453536,1.789035694218316,-2.413820746714509,-0.054652452,0.15118284485324154,0.27456356899863044,0.7128484229985301,0.7013181345356105,-0.466005137009762,0.1553660838920979,,,,,,,,,,,0.24495553066152415,1.014642725351591,1.0437926384634897,-0.5704399999999623,-0.005449289574266825,0.03783999999996013,193.893428616622,60.51082239675714,203.11627529038873,False,,
2023-06-06 10:47:31-07:00,118.462465,3.36,-1.3,3.09,0.19,21.59,862.04,59.87,29.0,0.0,0.0017479,0.000101901,0.000863851,34.0621883,-106.883898,1408.23757,-21.9226038,-3.13357871,-1.33591864,,1.89062,-1.63461,16778.0,29.0298,11870.0,-0.772151,-1.0,19.0,-1261.0,93.0,,0.0,,2023-06-06 17:47:31+00:00,1.018880354935891,0.013693008052723839,3.3511698648180914,2.381301082735492,-2.357911070466331,0.190863851,135.28277655891492,0.2784663867009173,0.17019628712364956,3.2464391358213027,133.650683295679,2.2370042928455334,-2.348651517412647,0.09524404260000001,0.16550033338646344,0.2774576354952549,0.05820028054801998,-0.998304927035889,-2.3699045845710796,0.27651837909000354,,,,,,,,,,,0.23382118978898664,1.014642728703956,1.0412359078067501,-0.5568899999998393,-0.0025567306567395587,0.013550000000122964,193.88229427574947,60.510822400109504,203.10564655165527,False,,
2023-06-06 10:47:32-07:00,119.462465,3.58,-2.28,2.76,-0.15,21.03,862.05,61.96,35.0,0.0,-0.000185346,-6.1954e-05,0.0018526,34.0621883,-106.883898,1408.2645499999999,-21.8918151,-3.13518908,-1.34435644,,1.89598,-3.24636,16836.0,29.036,11868.0,-0.737678,-1.0,17.0,-1249.0,93.0,,0.0,,2023-06-06 17:47:32+00:00,1.0208317338584767,0.013725777231437093,3.58007733880036,1.7108032067099928,-3.144853913888954,-0.14814739999999998,118.54622837339522,0.27576118360544283,0.14879573799572116,2.8075012528641614,121.1831398953038,1.4336592742621783,-2.4084340773355635,0.017843395800000012,0.14143477486478281,0.27214876679792754,0.31701977026498884,-0.9484189291980278,-2.1232308116258474,0.24520973798460244,,,,,,,,,,,0.2338211907778553,1.014642732995049,1.0412359122103099,-0.5299099999999726,4.403559739074581e-09,0.026979999999866777,193.88229427673835,60.5108224044006,203.10564655387765,False,,
2023-06-06 10:47:33-07:00,120.462465,2.71,-1.12,2.46,0.19,21.99,862.04,58.39,39.0,0.0,0.000658767,0.000395696,-0.000975349,34.0621882,-106.883898,1408.2878699999999,-21.8574769,-3.13685933,-1.33603158,,1.89432,-2.99564,16882.3,29.0422,11894.0,-0.692792,-1.0,17.0,-1248.0,93.0,,0.0,,2023-06-06 17:47:33+00:00,1.017499477582857,0.013669727776975832,2.702758080712069,1.866578270445319,-1.9546832999633845,0.18902465100000002,133.67919219407096,0.2735262853084002,0.15350488730085424,2.7816517813504325,128.16271173562762,1.723071856221384,-2.177679452738004,0.06175678239999999,0.1497684840423528,0.27334383252720384,0.5149126794142245,-0.857242633434936,-2.59840541753947,0.20475808172945972,,,,,,,,,,,0.22268684873543232,1.014642737901305,1.0387922401402379,-0.5065899999999601,-0.0024436720700720116,0.023320000000012442,193.87115993469592,60.510822409306854,203.09501786866932,False,,
2023-06-06 10:47:34-07:00,121.462465,4.24,-1.69,3.89,-0.17,21.33,862.04,60.85,31.0,0.0,-0.000213567,0.000463226,-0.000353986,34.0621881,-106.883898,1408.31692,-21.8251325,-3.14165745,-1.33707934,,1.89096,-2.09262,16887.6,29.0481,11917.0,-0.608031,-1.0,16.0,-1277.0,93.0,,0.0,,2023-06-06 17:47:34+00:00,1.0197799368846934,0.01370818361410685,4.241727430042743,2.983339192213644,-3.0152842079941737,-0.170353986,134.69488044898966,0.2860558160390479,0.19270103554859308,3.6427658020567977,132.58257020439441,2.472605511174477,-2.66430992083027,0.005179092799999996,0.17473026103811012,0.28060916260794666,0.9081305848951685,0.418687043957607,-1.384293434398664,0.1522648454433189,,,,,,,,,,,0.2115525068016212,1.0146427437189014,1.0364624260027326,-0.47753999999986263,-0.002329814137505215,0.029050000000097498,193.8600255927621,60.51082241512445,203.08438923802368,False,,
2023-06-06 10:47:35-07:00,122.462465,3.61,-1.04,3.46,-0.11,21.38,862.03,60.64,31.0,0.0,-0.000535051,-0.00113234,0.0019762,34.0621881,-106.883897,1408.3435299999999,-21.7998936,-3.14107329,-1.34897984,,1.88451,-2.58875,16903.1,29.0539,11918.0,-0.435803,-1.0,17.0,-1278.0,93.0,,0.0,,2023-06-06 17:47:35+00:00,1.0195949891729954,0.01370522200129846,3.6123689080578267,2.8252102513852417,-2.2510877733599446,-0.1080238,141.45265617910226,0.28173415010922803,0.18677756006862173,3.6259537210416317,136.829713028855,2.6543710736721553,-2.4602834659679766,0.025479606599999993,0.18114922335385267,0.2813229998576493,0.9041453716797239,-0.4272249370883376,-3.358467423733785,0.15673518316237336,,,,,,,,,,,0.21155250768404218,1.1068829969114322,1.1269181125348195,-0.4509299999999712,0.09045568653208691,0.026609999999891443,193.86002559364454,60.60306266831698,203.11189213817215,False,,
2023-06-06 10:47:36-07:00,123.462465,3.14,-1.85,2.53,-0.17,22.04,862.06,58.32,39.0,0.0,-0.0004753,0.000122632,-0.021073,34.0621879,-106.883898,1408.3617199999999,-21.7676555,-3.14190169,-1.3448159,,1.89356,-3.14327,16845.3,29.0599,11897.0,-0.344895,-1.0,18.0,-1277.0,93.0,,0.0,,2023-06-06 17:47:36+00:00,1.017350733829631,0.013666904065756014,3.134698286203815,1.6636610841483292,-2.6567960295475337,-0.19107300000000002,122.0544173724179,0.2739195792827922,0.14787271866289642,3.066146955973753,127.69998039313676,1.8793740125647638,-2.4094690439430146,-0.17460265800000002,0.1547310272778749,0.2748488831968559,0.24982823502280255,0.9682901698279247,1.2178259832061604,0.2578753224717329,,,,,,,,,,,0.18928382294343676,1.014642753238767,1.0321474130801411,-0.43273999999996704,-0.09477069945467842,0.018190000000004147,193.8377569089039,60.51082242464432,203.06313213870746,False,,
2023-06-06 10:47:37-07:00,124.462465,3.27,-1.86,2.68,-0.11,21.05,862.05,61.83,37.0,0.0,0.000317198,-0.00125896,-0.00493626,34.0621878,-106.883898,1408.4294699999998,-21.7378152,-3.13987234,-1.35459838,,1.89562,-3.85271,16750.6,29.0659,11871.0,-0.311028,-1.0,19.0,-1240.0,93.0,,0.0,,2023-06-06 17:47:37+00:00,1.0207623367317695,0.013724605604969015,3.261248579298301,1.7992923602395596,-2.7199796503574696,-0.11493626,123.48501429212354,0.27499688326692023,0.15193131025785866,3.296594834198969,126.5086067186993,1.955142413677629,-2.6443734077543337,-0.12143955800000002,0.15683770819532578,0.2759252594570108,0.9696953959186847,0.2443170872741105,-2.0865620188733875,0.1483927857827039,,,,,,,,,,,0.17814948251760318,1.0146427652114887,1.0301636661799454,-0.36499000000003434,-0.0019837469001957597,0.0677499999999327,193.8266225684781,60.51082243661704,203.05250367394896,False,,
2023-06-06 10:47:38-07:00,125.462465,3.3,-1.72,2.81,-0.04,20.64,862.04,63.48,31.0,0.0,-4.13864e-05,6.90438e-05,-0.00108914,34.0621877,-106.883898,1408.45706,-21.7004662,-3.13914358,-1.33774066,,1.90155,-2.79855,16666.6,29.0719,11867.0,-0.337686,-1.0,17.0,-1211.0,93.0,,0.0,,2023-06-06 17:47:38+00:00,1.0221750087266568,0.013748623897908582,3.294691335108667,1.9749456899061135,-2.637153866493458,-0.04108914,126.82927785956684,0.2759723006824407,0.15737334918828857,3.0584517785523935,129.92224594472495,1.9662594992374114,-2.3390739256471287,0.06476305339999999,0.15769796871998346,0.27529901582624455,0.8577114150370945,0.5141314311682034,-0.9953345962521651,0.13694749533477865,,,,,,,,,,,0.16701514151215888,1.0146427707968761,1.0282966545820755,-0.3373999999998887,-0.0018670115978698387,0.027590000000145665,193.81548822747266,60.510822442202425,203.04187526095532,False,,
2023-06-06 10:47:39-07:00,126.462465,2.5,-1.19,2.19,0.15,21.32,862.05,60.83,34.0,0.0,-0.000270176,-0.000374664,-0.00144475,34.0621876,-106.883898,1408.4582799999998,-21.6792908,-3.13445275,-1.33511715,,1.88458,-2.99597,16622.2,29.0782,11896.0,-0.221096,-1.0,17.0,-1239.0,93.0,,0.0,,2023-06-06 17:47:39+00:00,1.0198263981610576,0.013708808571315075,2.492396306950917,1.5951192363827693,-1.9151067783871012,0.14855525,129.7913886799345,0.2715155295184115,0.14629257664296008,2.712385007627748,123.82075735003218,1.5234334640516647,-2.209221260666401,0.028395122000000005,0.14604683253947992,0.27215395110224344,0.8111051055786943,-0.5849004254607575,-2.6829675251644916,0.1337934901139655,,,,,,,,,,,0.1558807983495312,1.0146427721881899,1.0265470171637645,-0.336180000000013,-0.001749637418311023,0.0012199999998756539,193.80435388431002,60.51082244359374,203.03124689888253,False,,
2023-06-06 10:47:40-07:00,127.462465,3.46,-1.82,2.93,-0.17,21.01,862.06,62.1,39.0,0.0,0.000377179,0.000327947,0.00171387,34.0621875,-106.883898,1408.48696,-21.6553324,-3.13505565,-1.33348184,,1.8984,-3.64607,16628.4,29.088,11916.0,-0.111775,-1.0,17.0,-1247.0,93.0,,0.0,,2023-06-06 17:47:40+00:00,1.0209129831356025,0.013726989776840826,3.4491381822952367,2.0519095572483805,-2.7724035365436333,-0.16828613,126.5058602040447,0.27690845086590277,0.15995097852842236,3.1928943353563066,123.10225379561616,1.7457419857309606,-2.670516261131785,-0.116369024,0.15080017859198833,0.2744303116590011,0.6561391362649229,-0.7546399365667847,-3.069636854334426,0.169231403408169,,,,,,,,,,,0.14474645580569256,1.014642777946939,1.0249153639731383,-0.30749999999989086,-0.0016316531906261922,0.028680000000122163,193.79321954176618,60.51082244935249,203.02061859294056,False,,
2023-06-06 10:47:41-07:00,128.462465,1.69,-0.87,1.45,0.02,21.73,862.07,59.37,33.0,0.0,0.000100514,0.00043217,0.000991269,34.0621876,-106.883899,1408.49783,-21.624188,-3.1373521,-1.33696298,,1.90141,-3.78969,16652.8,29.0953,11916.0,-0.142406,-1.0,17.0,-1247.0,93.0,,0.0,,2023-06-06 17:47:41+00:00,1.0184320631166948,0.013684972098144082,1.6911588227448844,1.0277727934185317,-1.3430194521512082,0.020991269,127.42575412425685,0.2675095497809343,0.13316184923402433,1.9397067846580658,122.3945616339636,1.0104578236285788,-1.6310520252678067,0.22488893560000003,0.13317892081929647,0.2679630683514597,0.9740033782567455,-0.22653348349514935,-1.8175527134348595,0.12709064907113693,,,,,,,,,,,0.15588079931592,0.9224025255695049,0.9354812893758866,-0.29662999999982276,-0.08943407459725172,0.010870000000068103,193.8043538852764,60.41858219697505,203.00377498850133,False,,
2023-06-06 10:47:42-07:00,129.462465,1.94,-0.98,1.64,0.33,21.85,862.07,58.92,30.0,0.0,-1.77697e-05,0.000117832,0.00430936,34.0621876,-106.883899,1408.5269999999998,-21.5966666,-3.13644333,-1.33607556,,1.89957,-3.5716,16589.2,29.1011,11920.0,0.0456847,-1.0,19.0,-1252.0,93.0,,0.0,,2023-06-06 17:47:42+00:00,1.0180177856672914,0.013677987884691342,1.9105832096776836,1.1642773406316103,-1.5148552654277125,0.33430936,127.54491881182861,0.2683284681831277,0.13605027450894017,2.00877456544197,131.3280241392999,1.334818880537404,-1.4962139035063444,0.307959375,0.14064482324891175,0.2693023303841236,0.9888192179356511,0.14911926180452797,-1.2804378558211071,0.13764769026366455,,,,,,,,,,,0.15588080002867757,0.9224025297871465,0.9354812936533302,-0.26746000000002823,4.277443621525379e-09,0.029169999999794527,193.80435388598917,60.4185822011927,203.00377499043708,False,,
2023-06-06 10:47:43-07:00,130.462465,2.11,-0.83,1.86,0.54,21.6,862.06,59.83,36.0,0.0,-0.000741193,-0.000356558,0.00205889,34.0621876,-106.8839,1408.51687,-21.5619624,-3.13544047,-1.33456824,,1.90027,-4.11616,16599.3,29.1072,11893.0,-0.0364924,-1.0,20.0,-1265.0,93.0,,0.0,,2023-06-06 17:47:43+00:00,1.0188694253406914,0.013692506044267498,2.0370670601428245,1.424450907355539,-1.456221761976146,0.5420588900000001,134.36811214318374,0.26940651970387647,0.14223939878240513,2.322537621497026,134.23987785844582,1.6662084639364096,-1.579257584424521,0.31815546800000005,0.15137478573087884,0.27170043539796784,0.43350695481974855,-0.9011502206196859,-2.1861232711745493,0.222466585354379,,,,,,,,,,,0.155880799781155,0.8301622763116706,0.8446704853085534,-0.2775899999999183,-0.09081080834477684,-0.01012999999989006,193.80435388574165,60.32634194771722,202.97634127617604,False,,
2023-06-06 10:47:44-07:00,131.462465,3.16,-1.13,2.95,0.2,20.66,862.04,63.47,38.0,0.0,-0.000281633,-0.00035382,0.00337463,34.0621875,-106.8839,1408.5317599999998,-21.5298096,-3.13866369,-1.3291641,,1.8906,-4.13784,16624.0,29.1132,11861.0,0.0186487,-1.0,19.0,-1249.0,93.0,,0.0,,2023-06-06 17:47:44+00:00,1.02210542804467,0.01374744829483669,3.158948187353257,2.3291217898470924,-2.1340443618729923,0.20337463,137.50270848626903,0.2769699163063641,0.16957529734874255,3.4468457179176695,137.02266653812785,2.5159700099134428,-2.341004542231942,0.053702332,0.17629826734935436,0.2792113454439013,0.782401416508276,-0.6227744563209406,-3.3984871249382156,0.15288583281684315,,,,,,,,,,,0.14474645682217233,0.8301622792288884,0.8426867428748811,-0.26269999999999527,-0.0019837424336722753,0.01488999999992302,193.79321954278265,60.326341950634436,202.96571009385312,False,,
2023-06-06 10:47:45-07:00,132.462465,4.09,-1.22,3.91,0.07,20.49,862.03,64.13,31.0,0.0,-1.59335e-05,-0.00102159,-0.000788797,34.0621873,-106.8839,1408.52615,-21.509685,-3.13904465,-1.32956911,,1.89654,-3.70945,16501.7,29.12,11859.0,0.0412097,-1.0,20.0,-1253.0,93.0,,0.0,,2023-06-06 17:47:45+00:00,1.0226853022787163,0.013757406541904523,4.095126909574675,3.189345454544113,-2.5686844837584535,0.06921120300000001,141.15218754590566,0.286241989500606,0.20163402960807508,3.43820291953021,138.92809695571407,2.594195776310498,-2.2523794562480863,0.11835820174,0.1793056079787351,0.2796598958002722,0.9998783926340117,-0.015594869144215519,-2.2925616939812445,0.1792620137673405,,,,,,,,,,,0.12247777077710781,0.830162280458041,0.8391485066600696,-0.26830999999992855,-0.00353823621481153,-0.0056099999999332795,193.77095085673758,60.32634195186359,202.94444788960695,False,,
2023-06-06 10:47:46-07:00,133.462465,4.0,-1.17,3.82,0.15,20.92,862.02,62.34,30.0,0.0,0.000188865,0.000364587,0.00161895,34.0621874,-106.8839,1408.52578,-21.4838494,-3.13956019,-1.32484039,,1.90327,-3.99687,16330.0,29.126,11885.0,-0.0367032,-1.0,20.0,-1246.0,93.0,,0.0,,2023-06-06 17:47:46+00:00,1.0211780477724355,0.013732102576126615,3.9953272628576175,3.1264546332191028,-2.487553288626426,0.15161895,141.49260415351148,0.2852709254903662,0.1991674164115148,3.9244640722835533,140.63760225219298,3.0337724619166835,-2.485765941490741,0.11311043200000001,0.19570402188471792,0.28442873428689336,0.8879337185858603,-0.4599714245453582,-3.6026440370162516,0.16561787912973688,,,,,,,,,,,0.13361211408238122,0.8301622794303036,0.8408457689841109,-0.2686799999999039,0.0016972623240413265,-0.0003699999999753345,193.78208520004287,60.326341950835854,202.95507896489275,False,,
2023-06-06 10:47:47-07:00,134.462465,3.69,-1.17,3.5,0.24,21.37,862.02,60.76,38.0,0.0,-3.36608e-05,-0.000554874,0.0048267,34.0621874,-106.883901,1408.5420199999999,-21.4593714,-3.1351128,-1.32953271,,1.90485,-3.83792,16271.5,29.1321,11904.0,-0.0628138,-1.0,17.0,-1275.0,93.0,,0.0,,2023-06-06 17:47:47+00:00,1.019617779805922,0.013705765526151227,3.689975605172205,2.8287809935676544,-2.369370814624923,0.24482669999999998,140.05065085010187,0.28197341072422716,0.1878148956965156,3.3517591541301783,138.34874039949955,2.5083839350913584,-2.2152836667343907,0.34422491600000005,0.1764162959078944,0.27875155040229194,0.9981650110602669,-0.06055254490983222,-2.363107676588283,0.17577241760853488,,,,,,,,,,,0.133612114422511,0.7379220277779835,0.7499207399455127,-0.2524399999999787,-0.09092502903859823,0.016239999999925203,193.782085200383,60.23410169918353,202.92768059610813,False,,
2023-06-06 10:47:48-07:00,135.462465,3.67,-1.63,3.28,-0.17,20.76,862.05,63.16,36.0,0.0,-0.000148595,0.000139215,0.00427465,34.0621874,-106.883901,1408.5345699999998,-21.4378162,-3.13746606,-1.33413889,,1.89144,-3.80816,16301.4,29.138,11925.0,-0.0651578,-1.0,16.0,-1293.0,93.0,,0.0,,2023-06-06 17:47:48+00:00,1.0217695194667982,0.01374161416035781,3.662893857770774,2.4574610352669204,-2.716187893618499,-0.16572535000000002,132.13710415921298,0.2798429612335887,0.17429775068427839,3.790153822605523,131.42604817485739,2.504844672032732,-2.8399852551553453,-0.08259601600000001,0.176066228474489,0.28071905604951375,0.6836984971241709,0.7297645956266652,-0.11374669161094109,0.1706555833700144,,,,,,,,,,,0.13361211426647857,0.7379220269162372,0.7499207390697542,-0.25989000000004125,-8.757584657459461e-10,-0.007450000000062573,193.78208520022696,60.23410169832179,202.92768059570332,False,,
2023-06-06 10:47:49-07:00,136.462465,4.86,-1.99,4.43,0.05,20.02,862.05,66.01,30.0,0.0,-0.000693376,0.00178072,0.00543284,34.0621874,-106.883901,1408.53848,-21.4086386,-3.13043309,-1.25285728,,1.90115,-4.66231,16416.0,29.1445,11923.0,-0.185143,-1.0,18.0,-1285.0,93.0,,0.0,,2023-06-06 17:47:49+00:00,1.0243486013797,0.013785210558559819,4.858180408581101,3.3997300857588013,-3.470410959282443,0.055432840000000004,134.41055462379967,0.29223787961313624,0.21018717544527088,4.829819224020515,132.87135238688222,3.289872824348424,-3.534696238212664,0.128253432,0.20618221237342887,0.29151842820323126,0.9318501279382758,0.362843408458,-2.100098472821484,0.18310474724449416,,,,,,,,,,,0.1336121143483694,0.7379220273685094,0.7499207395293805,-0.2559799999999086,4.5962633699048183e-10,0.003910000000132641,193.78208520030887,60.23410169877406,202.9276805959158,False,,
2023-06-06 10:47:50-07:00,137.462465,5.72,-1.66,5.46,-0.27,20.15,861.99,65.57,32.0,0.0,-0.000836611,-0.00594768,0.00441525,34.0621874,-106.883901,1408.5952399999999,-21.3975403,-3.12802548,-1.32503222,,1.90109,-3.86308,16200.1,29.1504,11890.0,-0.263126,-1.0,20.0,-1291.0,93.0,,0.0,,2023-06-06 17:47:50+00:00,1.0238233124800329,0.013777285084847928,5.702621114055335,4.472073484891069,-3.5384242702372415,-0.26558475000000004,141.6480115786769,0.3058933581237922,0.25584478053418125,4.610382863290608,139.0175684138338,3.4182801921481643,-3.0423856757295082,0.07732949839999999,0.21207127110607069,0.2913865352909121,0.9902515616195352,-0.1392905047376593,-3.4888611397391114,0.20803352919096588,,,,,,,,,,,0.13361211553714805,0.7379220339339766,0.7499207462016031,-0.19921999999996842,6.672222552239759e-09,0.05675999999994019,193.78208520149764,60.234101705339526,202.92768059899979,False,,
2023-06-06 10:47:51-07:00,138.462465,4.11,-1.57,3.79,0.16,20.38,862.04,64.69,40.0,0.0,0.000835418,-0.00891396,0.00380106,34.0621874,-106.883901,1408.60378,-21.3713968,-3.12607261,-1.35074188,,1.90351,-4.06639,15956.8,29.1566,11863.0,-0.369613,-1.0,18.0,-1248.0,93.0,,0.0,,2023-06-06 17:47:51+00:00,1.023080420446988,0.013763925399182187,4.095315349982462,2.948350763870482,-2.84232925414814,0.16380106,136.04891073066597,0.2849315665189646,0.19291241898738845,3.7878452089300416,133.15901887667766,2.5776329981763046,-2.7488421391150246,0.127912206,0.17991301846214486,0.28145012071904696,0.995636984134258,0.09331128454822182,-2.4963266510959308,0.1783633519999637,,,,,,,,,,,0.1336121157160094,0.7379220349218042,0.7499207472054928,-0.19067999999992935,1.0038897491071452e-09,0.008540000000039072,193.7820852016765,60.23410170632735,202.9276805994638,False,,
2023-06-06 10:47:52-07:00,139.462465,5.02,-2.36,4.44,0.11,20.15,862.01,65.56,35.0,0.0,0.000984003,-0.0028677,0.00726759,34.0621873,-106.883901,1408.62051,-21.3503879,-3.13546432,-1.30696897,,1.89744,-4.26988,15940.6,29.1625,11863.0,-0.426465,-1.0,19.0,-1249.0,93.0,,0.0,,2023-06-06 17:47:52+00:00,1.0238470673568292,0.013777367167950088,5.025625589854783,3.2732151017705586,-3.813525333198192,0.11726759,130.6400660959345,0.2923830932886078,0.20543858323204675,4.64286950827702,129.91499862975041,2.975450805303133,-3.5584719236337334,0.0805739,0.19402083238622497,0.2881374264829134,0.9458658172344717,0.32455793902994423,-2.400130773099571,0.17621668753366065,,,,,,,,,,,0.12247777258868975,0.7379220377277207,0.7480172047102382,-0.17394999999987704,-0.0019035424952545954,0.016730000000052314,193.77095085854918,60.23410170913327,202.91704808944095,False,,
2023-06-06 10:47:53-07:00,140.462465,4.14,-2.26,3.47,0.03,20.34,862.04,64.04,30.0,0.0,-0.000514736,-0.00424611,0.00924597,34.0621871,-106.883901,1408.6042699999998,-21.3230634,-3.13159663,-1.33590209,,1.90991,-4.35849,15950.6,29.1687,11908.0,-0.526284,-1.0,17.0,-1256.0,93.0,,0.0,,2023-06-06 17:47:53+00:00,1.0232198569416486,0.013766282556581936,4.139023157779907,2.4064195080263953,-3.3675893235411523,0.03924597,125.5489259723594,0.2816161615033106,0.17300155365726716,4.358092606904395,130.09304112113884,2.8023536588721893,-3.324884558780841,0.121776956,0.18755484228978397,0.285336238754884,0.9927322179361431,-0.12034427062218653,-3.6379672295225283,0.1848847226445544,,,,,,,,,,,0.10020908679470396,0.7379220375907215,0.7446951017955408,-0.1901900000000296,-0.003322102914697478,-0.016240000000152577,193.7486821727552,60.23410170899627,202.89578322963987,False,,
2023-06-06 10:47:54-07:00,141.462465,4.6,-2.6,3.79,-0.03,20.63,862.02,62.97,34.0,0.0,-0.000446848,-0.00120009,0.00888917,34.0621871,-106.883901,1408.6103799999999,-21.2996537,-3.13212911,-1.33392624,,1.90788,-4.18372,15875.0,29.1746,11929.0,-0.541296,-1.0,17.0,-1260.0,93.0,,0.0,,2023-06-06 17:47:54+00:00,1.0221860865560628,0.013749130058466093,4.595790289737883,2.5854794254353157,-3.799550569198899,-0.021110829999999997,124.23410463580103,0.284918351648324,0.17931144532822024,4.102841553870626,126.1459278098524,2.3615810601562286,-3.318457142997034,0.14254179800000003,0.17177579503169277,0.2811280150282996,0.937144523486355,-0.34894145941623583,-3.9339274796445025,0.15469502530349782,,,,,,,,,,,0.10020908689067963,0.7379220382974694,0.7446951025087755,-0.18407999999999447,7.132346935279088e-10,0.006110000000035143,193.74868217285118,60.23410170970302,202.89578322994134,False,,
