Timestamp,Seconds,S,Um,Vm,Wm,T,P,H,MD,Sts,Vx,Vy,Vz,Lat,Lon,Alt,Yaw,Roll,Pitch,nan,CH4,C2H6,H2O,T_a,Batt,R,C2C1,Power,Current,SOC,Lat_a,Lon_a,TS,Timestamp_UTC
2023-06-06 10:45:32.537535-07:00,0.0,2.65,0.49,2.52,0.64,22.27,862.02,57.8,36.0,-1.0,,,,,,,,,,,,,,,,,,,,,,,,2023-06-06 17:45:32.537535+00:00
2023-06-06 10:45:32.748072-07:00,0.210537,2.38,0.03,2.34,0.47,23.3,862.04,54.31,40.0,-1.0,,,,,,,,,,,,,,,,,,,,,,,,2023-06-06 17:45:32.748072+00:00
2023-06-06 10:45:32.958259-07:00,0.420724,2.29,0.87,2.03,0.6,23.01,862.04,55.28,33.0,-1.0,,,,,,,,,,,1.87206,19.4917,16099.9,28.2989,11931.0,0.398814,-1.0,22.0,-1280.0,94.0,,0.0,2023-06-06 10:45:26.924,2023-06-06 17:45:32.958259+00:00
2023-06-06 10:45:33.167728-07:00,0.630193,2.22,1.23,1.66,0.81,23.49,862.03,53.71,31.0,-1.0,,,,,,,,,,,,,,,,,,,,,,,,2023-06-06 17:45:33.167728+00:00
2023-06-06 10:45:33.378079-07:00,0.840544,3.47,1.73,2.95,0.61,23.33,862.04,54.21,38.0,-1.0,,,,,,,,,,,,,,,,,,,,,,,,2023-06-06 17:45:33.378079+00:00
2023-06-06 10:45:33.587536-07:00,1.050001,4.09,1.98,3.49,0.79,22.61,861.98,56.7,37.0,-1.0,,,,,,,,,,,,,,,,,,,,,,,,2023-06-06 17:45:33.587536+00:00
2023-06-06 10:45:33.791549-07:00,1.254014,3.1,0.93,2.84,0.81,23.8,861.99,52.7,31.0,-1.0,,,,,,,,,,,,,,,,,,,,,,,,2023-06-06 17:45:33.791549+00:00
2023-06-06 10:45:33.992193-07:00,1.454658,3.85,-0.64,3.78,0.27,23.52,862.04,53.6,33.0,-1.0,,,,,,,,,,,1.87455,20.2978,15986.4,28.3047,11890.0,0.3885,-1.0,20.0,-1271.0,94.0,,0.0,2023-06-06 10:45:27.948,2023-06-06 17:45:33.992193+00:00
2023-06-06 10:45:34.192256-07:00,1.654721,5.79,-0.68,5.75,-0.15,20.24,862.03,65.49,40.0,-1.0,,,,,,,,,,,,,,,,,,,,,,,,2023-06-06 17:45:34.192256+00:00
2023-06-06 10:45:34.391907-07:00,1.854372,7.69,-0.21,7.66,-0.72,20.07,861.99,66.22,35.0,-1.0,,,,,,,,,,,,,,,,,,,,,,,,2023-06-06 17:45:34.391907+00:00
2023-06-06 10:45:34.591631-07:00,2.054096,6.13,-0.28,6.12,-0.26,22.29,861.94,57.8,30.0,-1.0,,,,,,,,,,,,,,,,,,,,,,,,2023-06-06 17:45:34.591631+00:00
2023-06-06 10:45:34.791895-07:00,2.25436,5.53,-1.55,5.3,0.12,20.48,861.95,64.56,35.0,-1.0,,,,,,,,,,,,,,,,,,,,,,,,2023-06-06 17:45:34.791895+00:00
2023-06-06 10:45:34.993122-07:00,2.455587,5.56,-0.43,5.54,-0.12,20.83,861.99,63.19,39.0,-1.0,,,,,,,,,,,1.86668,17.8242,16009.1,28.3112,11890.0,0.445202,-1.0,20.0,-1271.0,94.0,,0.0,2023-06-06 10:45:28.972,2023-06-06 17:45:34.993122+00:00
2023-06-06 10:45:35.192305-07:00,2.65477,5.61,-0.1,5.61,-0.01,20.75,861.99,63.59,32.0,-1.0,,,,,,,,,,,,,,,,,,,,,,,,2023-06-06 17:45:35.192305+00:00
2023-06-06 10:45:35.391623-07:00,2.854088,5.62,-0.16,5.62,-0.01,20.67,861.98,63.83,31.0,-1.0,,,,,,,,,,,,,,,,,,,,,,,,2023-06-06 17:45:35.391623+00:00
2023-06-06 10:45:35.591923-07:00,3.054388,5.96,0.01,5.96,-0.16,21.0,862.0,62.54,37.0,-1.0,,,,,,,,,,,,,,,,,,,,,,,,2023-06-06 17:45:35.591923+00:00
2023-06-06 10:45:35.791757-07:00,3.254222,5.42,0.02,5.42,0.08,21.15,861.98,61.97,39.0,-1.0,,,,,,,,,,,,,,,,,,,,,,,,2023-06-06 17:45:35.791757+00:00
2023-06-06 10:45:35.993310-07:00,3.455775,5.1,-0.06,5.1,0.09,21.32,861.98,61.31,31.0,-1.0,,,,,,,,,,,1.8667,18.8973,16041.6,28.3177,11890.0,0.471537,-1.0,21.0,-1280.0,94.0,,0.0,2023-06-06 10:45:29.996,2023-06-06 17:45:35.993310+00:00
2023-06-06 10:45:36.191789-07:00,3.654254,4.85,-0.37,4.83,0.07,21.53,861.98,60.56,32.0,-1.0,,,,,,,,,,,,,,,,,,,,,,,,2023-06-06 17:45:36.191789+00:00
2023-06-06 10:45:36.391854-07:00,3.854319,5.4,-0.48,5.38,-0.09,21.62,861.97,60.21,39.0,-1.0,,,,,,,,,,,,,,,,,,,,,,,,2023-06-06 17:45:36.391854+00:00
2023-06-06 10:45:36.592294-07:00,4.054759,6.11,-1.14,6.0,-0.17,21.42,861.95,60.96,36.0,-1.0,,,,,,,,,,,,,,,,,,,,,,,,2023-06-06 17:45:36.592294+00:00
2023-06-06 10:45:36.792355-07:00,4.25482,6.47,-0.54,6.45,-0.24,21.53,861.95,60.6,31.0,-1.0,,,,,,,,,,,,,,,,,,,,,,,,2023-06-06 17:45:36.792355+00:00
2023-06-06 10:45:36.993018-07:00,4.455483,4.64,-0.24,4.63,0.19,21.85,861.97,59.44,34.0,-1.0,,,,,,,,,,,1.87835,18.0009,15900.1,28.3239,11873.0,0.445715,-1.0,19.0,-1231.0,94.0,,0.0,2023-06-06 10:45:31.020,2023-06-06 17:45:36.993018+00:00
2023-06-06 10:45:37.192129-07:00,4.654594,4.28,0.41,4.25,0.35,21.54,861.99,60.46,41.0,-1.0,,,,,,,,,,,,,,,,,,,,,,,,2023-06-06 17:45:37.192129+00:00
2023-06-06 10:45:37.392294-07:00,4.854759,4.03,0.46,3.98,0.42,21.77,861.99,59.73,35.0,-1.0,,,,,,,,,,,,,,,,,,,,,,,,2023-06-06 17:45:37.392294+00:00
2023-06-06 10:45:37.592054-07:00,5.054519,5.12,0.29,5.11,0.09,21.64,862.0,60.09,30.0,-1.0,,,,,,,,,,,,,,,,,,,,,,,,2023-06-06 17:45:37.592054+00:00
2023-06-06 10:45:37.792331-07:00,5.254796,6.45,0.03,6.45,-0.11,21.63,861.97,60.16,37.0,-1.0,,,,,,,,,,,,,,,,,,,,,,,,2023-06-06 17:45:37.792331+00:00
2023-06-06 10:45:37.993424-07:00,5.455889,6.27,-0.72,6.23,-0.03,21.37,861.95,61.19,39.0,-1.0,,,,,,,,,,,1.86756,18.327,15818.1,28.3308,11884.0,0.476237,-1.0,17.0,-1229.0,94.0,,0.0,2023-06-06 10:45:32.044,2023-06-06 17:45:37.993424+00:00
2023-06-06 10:45:38.191387-07:00,5.653852,5.26,-0.58,5.23,-0.02,21.53,861.96,60.56,33.0,-1.0,,,,,,,,,,,,,,,,,,,,,,,,2023-06-06 17:45:38.191387+00:00
2023-06-06 10:45:38.391622-07:00,5.854087,5.41,-0.21,5.41,-0.03,21.57,861.97,60.41,31.0,-1.0,,,,,,,,,,,,,,,,,,,,,,,,2023-06-06 17:45:38.391622+00:00
2023-06-06 10:45:38.592169-07:00,6.054634,3.54,0.58,3.46,0.46,22.12,862.01,58.34,38.0,-1.0,,,,,,,,,,,,,,,,,,,,,,,,2023-06-06 17:45:38.592169+00:00
2023-06-06 10:45:38.792101-07:00,6.254566,2.88,0.36,2.77,0.69,22.49,862.03,57.09,37.0,-1.0,,,,,,,,,,,,,,,,,,,,,,,,2023-06-06 17:45:38.792101+00:00
2023-06-06 10:45:38.993106-07:00,6.455571,4.3,-0.71,4.24,0.12,22.32,862.02,57.81,31.0,-1.0,,,,,,,,,,,1.87956,17.7066,15938.9,28.337,11919.0,0.426148,-1.0,15.0,-1247.0,94.0,,0.0,2023-06-06 10:45:33.068,2023-06-06 17:45:38.993106+00:00
2023-06-06 10:45:39.191497-07:00,6.653962,6.19,-1.41,6.02,0.04,21.1,861.98,62.29,32.0,-1.0,,,,,,,,,,,,,,,,,,,,,,,,2023-06-06 17:45:39.191497+00:00
2023-06-06 10:45:39.391640-07:00,6.854105,6.11,-1.17,6.0,0.11,21.22,861.9,61.84,39.0,-1.0,,,,,,,,,,,,,,,,,,,,,,,,2023-06-06 17:45:39.391640+00:00
2023-06-06 10:45:39.591398-07:00,7.053863,4.25,-0.52,4.18,0.55,21.53,861.96,60.47,35.0,-1.0,,,,,,,,,,,,,,,,,,,,,,,,2023-06-06 17:45:39.591398+00:00
2023-06-06 10:45:39.791644-07:00,7.254109,3.79,1.11,3.57,0.63,21.53,862.0,60.55,30.0,-1.0,,,,,,,,,,,,,,,,,,,,,,,,2023-06-06 17:45:39.791644+00:00
2023-06-06 10:45:39.992961-07:00,7.455426,5.6,0.21,5.59,-0.15,20.99,861.99,62.65,34.0,-1.0,,,,,,,,,,,1.86729,18.1899,15998.6,28.3436,11910.0,0.413359,-1.0,17.0,-1225.0,94.0,,0.0,2023-06-06 10:45:34.092,2023-06-06 17:45:39.992961+00:00
2023-06-06 10:45:40.192187-07:00,7.654652,5.3,0.15,5.29,0.12,21.33,861.96,61.35,40.0,-1.0,,,,,,,,,,,,,,,,,,,,,,,,2023-06-06 17:45:40.192187+00:00
2023-06-06 10:45:40.391798-07:00,7.854263,6.49,-0.09,6.49,-0.28,20.12,861.98,66.08,33.0,-1.0,,,,,,,,,,,,,,,,,,,,,,,,2023-06-06 17:45:40.391798+00:00
2023-06-06 10:45:40.591612-07:00,8.054077,5.43,0.08,5.42,-0.26,20.79,861.97,63.42,31.0,-1.0,,,,,,,,,,,,,,,,,,,,,,,,2023-06-06 17:45:40.591612+00:00
2023-06-06 10:45:40.791393-07:00,8.253858,5.05,-0.16,5.04,0.24,21.11,861.95,62.24,36.0,-1.0,,,,,,,,,,,,,,,,,,,,,,,,2023-06-06 17:45:40.791393+00:00
2023-06-06 10:45:40.992589-07:00,8.455054,3.67,0.78,3.52,0.69,22.05,861.98,58.64,39.0,-1.0,,,,,,,,,,,1.86287,18.0376,16082.9,28.3503,11925.0,0.447541,-1.0,14.0,-1237.0,94.0,,0.0,2023-06-06 10:45:35.116,2023-06-06 17:45:40.992589+00:00
2023-06-06 10:45:41.192264-07:00,8.654729,4.14,0.51,4.08,0.44,21.78,862.01,59.62,32.0,-1.0,,,,,,,,,,,,,,,,,,,,,,,,2023-06-06 17:45:41.192264+00:00
2023-06-06 10:45:41.392269-07:00,8.854734,5.72,0.39,5.71,-0.08,21.05,861.98,62.35,32.0,-1.0,,,,,,,,,,,,,,,,,,,,,,,,2023-06-06 17:45:41.392269+00:00
2023-06-06 10:45:41.592066-07:00,9.054531,5.48,0.81,5.42,0.12,21.22,861.98,61.9,38.0,-1.0,,,,,,,,,,,,,,,,,,,,,,,,2023-06-06 17:45:41.592066+00:00
2023-06-06 10:45:41.791867-07:00,9.254332,4.96,0.89,4.87,0.22,21.13,861.98,62.25,37.0,-1.0,,,,,,,,,,,,,,,,,,,,,,,,2023-06-06 17:45:41.791867+00:00
2023-06-06 10:45:41.993012-07:00,9.455477,5.41,0.3,5.4,-0.0,21.31,861.98,61.55,31.0,-1.0,,,,,,,,,,,1.86714,18.2934,16011.6,28.3565,11933.0,0.457692,-1.0,16.0,-1268.0,94.0,,0.0,2023-06-06 10:45:36.140,2023-06-06 17:45:41.993012+00:00
2023-06-06 10:45:42.192097-07:00,9.654562,4.75,0.32,4.74,0.17,21.29,861.97,61.65,34.0,-1.0,,,,,,,,,,,,,,,,,,,,,,,,2023-06-06 17:45:42.192097+00:00
2023-06-06 10:45:42.391627-07:00,9.854092,5.52,-0.34,5.51,0.04,21.33,861.99,61.4,39.0,-1.0,,,,,,,,,,,,,,,,,,,,,,,,2023-06-06 17:45:42.391627+00:00
2023-06-06 10:45:42.592269-07:00,10.054734,5.14,0.68,5.1,0.08,21.41,861.98,61.12,33.0,-1.0,,,,,,,,,,,,,,,,,,,,,,,,2023-06-06 17:45:42.592269+00:00
2023-06-06 10:45:42.791719-07:00,10.254184,5.81,-0.07,5.81,-0.08,21.25,861.97,61.72,31.0,-1.0,,,,,,,,,,,,,,,,,,,,,,,,2023-06-06 17:45:42.791719+00:00
2023-06-06 10:45:42.992879-07:00,10.455344,3.61,0.54,3.53,0.48,21.59,862.0,60.53,36.0,-1.0,,,,,,,,,,,1.87175,17.9138,15997.1,28.3621,11929.0,0.445645,-1.0,17.0,-1316.0,94.0,,0.0,2023-06-06 10:45:37.164,2023-06-06 17:45:42.992879+00:00
2023-06-06 10:45:43.192347-07:00,10.654812,3.45,-1.43,3.14,-0.11,22.2,862.02,58.29,38.0,-1.0,,,,,,,,,,,,,,,,,,,,,,,,2023-06-06 17:45:43.192347+00:00
2023-06-06 10:45:43.392167-07:00,10.854632,2.71,0.61,2.54,0.75,22.4,862.03,57.6,33.0,-1.0,,,,,,,,,,,,,,,,,,,,,,,,2023-06-06 17:45:43.392167+00:00
2023-06-06 10:45:43.591394-07:00,11.053859,2.69,0.25,2.64,0.43,22.1,862.05,58.65,32.0,-1.0,,,,,,,,,,,,,,,,,,,,,,,,2023-06-06 17:45:43.591394+00:00
2023-06-06 10:45:43.791822-07:00,11.254287,6.39,-0.71,6.33,-0.42,20.43,862.02,64.99,39.0,-1.0,,,,,,,,,,,,,,,,,,,,,,,,2023-06-06 17:45:43.791822+00:00
2023-06-06 10:45:43.992882-07:00,11.455347,6.93,-0.4,6.89,-0.63,20.36,861.96,65.25,37.0,-1.0,,,,,,,,,,,1.87408,17.6961,15999.1,28.3613,11939.0,0.408736,-1.0,19.0,-1294.0,94.0,,0.0,2023-06-06 10:45:38.188,2023-06-06 17:45:43.992882+00:00
2023-06-06 10:45:44.191909-07:00,11.654374,7.54,0.07,7.53,-0.32,20.09,861.93,66.36,31.0,-1.0,,,,,,,,,,,,,,,,,,,,,,,,2023-06-06 17:45:44.191909+00:00
2023-06-06 10:45:44.391824-07:00,11.854289,7.19,0.19,7.19,-0.07,20.17,861.89,66.02,32.0,-1.0,,,,,,,,,,,,,,,,,,,,,,,,2023-06-06 17:45:44.391824+00:00
2023-06-06 10:45:44.592019-07:00,12.054484,6.41,-0.57,6.37,-0.38,20.38,861.99,65.17,40.0,-1.0,,,,,,,,,,,,,,,,,,,,,,,,2023-06-06 17:45:44.592019+00:00
2023-06-06 10:45:44.792026-07:00,12.254491,6.71,-0.15,6.68,-0.58,20.27,861.98,65.68,35.0,-1.0,,,,,,,,,,,,,,,,,,,,,,,,2023-06-06 17:45:44.792026+00:00
2023-06-06 10:45:44.993285-07:00,12.45575,4.81,-0.94,4.7,0.41,21.26,861.96,61.76,31.0,-1.0,,,,,,,,,,,1.87692,17.2661,16079.2,28.3677,11935.0,0.379743,-1.0,14.0,-1292.0,94.0,,0.0,2023-06-06 10:45:39.212,2023-06-06 17:45:44.993285+00:00
2023-06-06 10:45:45.192273-07:00,12.654738,4.5,-0.39,4.45,0.55,21.13,861.96,62.24,36.0,-1.0,,,,,,,,,,,,,,,,,,,,,,,,2023-06-06 17:45:45.192273+00:00
2023-06-06 10:45:45.391989-07:00,12.854454,5.61,0.18,5.61,-0.12,20.55,861.97,64.51,40.0,-1.0,,,,,,,,,,,,,,,,,,,,,,,,2023-06-06 17:45:45.391989+00:00
2023-06-06 10:45:45.592118-07:00,13.054583,5.69,0.15,5.69,-0.05,20.32,861.99,65.43,32.0,-1.0,,,,,,,,,,,,,,,,,,,,,,,,2023-06-06 17:45:45.592118+00:00
2023-06-06 10:45:45.791520-07:00,13.253985,6.58,0.25,6.58,0.05,20.95,861.94,62.85,32.0,-1.0,,,,,,,,,,,,,,,,,,,,,,,,2023-06-06 17:45:45.791520+00:00
2023-06-06 10:45:45.993634-07:00,13.456099,4.86,1.57,4.59,0.31,20.89,861.93,63.23,38.0,-1.0,,,,,,,,,,,1.87063,17.6148,15947.5,28.3738,11941.0,0.366649,-1.0,16.0,-1270.0,94.0,,0.0,2023-06-06 10:45:40.236,2023-06-06 17:45:45.993634+00:00
2023-06-06 10:45:46.191650-07:00,13.654115,6.12,0.11,6.12,-0.14,20.44,861.97,64.95,38.0,-1.0,,,,,,,,,,,,,,,,,,,,,,,,2023-06-06 17:45:46.191650+00:00
2023-06-06 10:45:46.391940-07:00,13.854405,3.46,-0.08,3.42,0.47,21.14,861.96,62.19,32.0,-1.0,,,,,,,,,,,,,,,,,,,,,,,,2023-06-06 17:45:46.391940+00:00
2023-06-06 10:45:46.591826-07:00,14.054291,2.8,-0.61,2.63,0.76,21.95,862.01,59.26,31.0,-1.0,,,,,,,,,,,,,,,,,,,,,,,,2023-06-06 17:45:46.591826+00:00
2023-06-06 10:45:46.791787-07:00,14.254252,3.63,-0.33,3.58,0.5,20.99,862.03,62.77,34.0,-1.0,,,,,,,,,,,,,,,,,,,,,,,,2023-06-06 17:45:46.791787+00:00
2023-06-06 10:45:46.993148-07:00,14.455613,3.86,0.36,3.84,0.11,21.26,862.01,61.87,37.0,-1.0,,,,,,,,,,,1.87784,16.8493,15893.4,28.3803,11938.0,0.297689,-1.0,17.0,-1276.0,94.0,,0.0,2023-06-06 10:45:41.260,2023-06-06 17:45:46.993148+00:00
2023-06-06 10:45:47.191996-07:00,14.654461,4.41,0.32,4.39,0.18,21.13,862.0,62.3,32.0,-1.0,,,,,,,,,,,,,,,,,,,,,,,,2023-06-06 17:45:47.191996+00:00
2023-06-06 10:45:47.391746-07:00,14.854211,4.97,0.49,4.94,0.09,21.28,862.0,61.72,33.0,-1.0,,,,,,,,,,,,,,,,,,,,,,,,2023-06-06 17:45:47.391746+00:00
2023-06-06 10:45:47.591855-07:00,15.05432,5.35,0.16,5.34,-0.24,20.65,861.99,64.17,40.0,-1.0,,,,,,,,,,,,,,,,,,,,,,,,2023-06-06 17:45:47.591855+00:00
2023-06-06 10:45:47.792237-07:00,15.254702,5.2,1.43,4.99,0.3,22.01,861.96,59.05,36.0,-1.0,,,,,,,,,,,,,,,,,,,,,,,,2023-06-06 17:45:47.792237+00:00
2023-06-06 10:45:47.992816-07:00,15.455281,6.55,-0.04,6.55,-0.21,20.16,861.95,65.36,31.0,-1.0,,,,,,,,,,,1.87217,16.9063,15841.9,28.3866,11926.0,0.240691,-1.0,19.0,-1298.0,94.0,,0.0,2023-06-06 10:45:42.284,2023-06-06 17:45:47.992816+00:00
2023-06-06 10:45:48.191965-07:00,15.65443,6.24,-0.07,6.23,-0.22,20.14,862.0,66.24,35.0,-1.0,,,,,,,,,,,,,,,,,,,,,,,,2023-06-06 17:45:48.191965+00:00
2023-06-06 10:45:48.392029-07:00,15.854494,5.68,-0.37,5.66,0.08,20.88,861.98,62.44,38.0,-1.0,,,,,,,,,,,,,,,,,,,,,,,,2023-06-06 17:45:48.392029+00:00
2023-06-06 10:45:48.592106-07:00,16.054571,4.28,-0.46,4.24,0.38,21.31,861.97,61.56,33.0,-1.0,,,,,,,,,,,,,,,,,,,,,,,,2023-06-06 17:45:48.592106+00:00
2023-06-06 10:45:48.791714-07:00,16.254179,5.35,0.17,5.35,0.04,21.03,861.99,61.93,31.0,-1.0,,,,,,,,,,,,,,,,,,,,,,,,2023-06-06 17:45:48.791714+00:00
2023-06-06 10:45:48.992961-07:00,16.455426,5.68,0.11,5.68,-0.22,20.84,861.98,62.59,38.0,-1.0,,,,,,,,,,,1.87198,16.4084,15854.5,28.3928,11889.0,0.212085,-1.0,17.0,-1257.0,94.0,,0.0,2023-06-06 10:45:43.308,2023-06-06 17:45:48.992961+00:00
2023-06-06 10:45:49.191851-07:00,16.654316,5.7,0.71,5.66,0.0,21.24,861.96,61.14,38.0,-1.0,,,,,,,,,,,,,,,,,,,,,,,,2023-06-06 17:45:49.191851+00:00
2023-06-06 10:45:49.391493-07:00,16.853958,5.17,-0.63,5.13,0.08,21.57,861.95,59.94,31.0,-1.0,,,,,,,,,,,,,,,,,,,,,,,,2023-06-06 17:45:49.391493+00:00
2023-06-06 10:45:49.591623-07:00,17.054088,3.33,-0.54,3.25,0.49,22.18,861.98,57.74,32.0,-1.0,,,,,,,,,,,,,,,,,,,,,,,,2023-06-06 17:45:49.591623+00:00
2023-06-06 10:45:49.791507-07:00,17.253972,2.99,0.85,2.8,0.59,21.82,862.02,58.98,39.0,-1.0,,,,,,,,,,,,,,,,,,,,,,,,2023-06-06 17:45:49.791507+00:00
2023-06-06 10:45:49.993251-07:00,17.455716,2.58,0.43,2.46,0.66,22.11,862.02,58.0,34.0,-1.0,,,,,,,,,,,1.87409,17.3577,15843.0,28.3993,11894.0,0.167363,-1.0,19.0,-1245.0,94.0,,0.0,2023-06-06 10:45:44.332,2023-06-06 17:45:49.993251+00:00
2023-06-06 10:45:50.191718-07:00,17.654183,2.41,-0.2,2.34,0.53,22.66,862.04,55.95,33.0,-1.0,,,,,,,,,,,,,,,,,,,,,,,,2023-06-06 17:45:50.191718+00:00
2023-06-06 10:45:50.392152-07:00,17.854617,2.84,-0.59,2.71,0.65,22.48,862.04,56.65,34.0,-1.0,,,,,,,,,,,,,,,,,,,,,,,,2023-06-06 17:45:50.392152+00:00
2023-06-06 10:45:50.591688-07:00,18.054153,4.68,-0.02,4.68,0.14,21.24,862.01,61.16,32.0,-1.0,,,,,,,,,,,,,,,,,,,,,,,,2023-06-06 17:45:50.591688+00:00
2023-06-06 10:45:50.791972-07:00,18.254437,4.16,0.15,4.15,0.14,21.26,862.0,61.06,34.0,-1.0,,,,,,,,,,,,,,,,,,,,,,,,2023-06-06 17:45:50.791972+00:00
2023-06-06 10:45:50.993579-07:00,18.456044,4.14,0.64,4.06,0.49,21.33,862.02,60.76,31.0,-1.0,,,,,,,,,,,1.87064,16.2355,15929.6,28.406,11893.0,0.163481,-1.0,17.0,-1258.0,94.0,,0.0,2023-06-06 10:45:45.356,2023-06-06 17:45:50.993579+00:00
2023-06-06 10:45:51.192002-07:00,18.654467,5.02,-0.83,4.95,0.04,21.24,862.01,61.14,30.0,-1.0,,,,,,,,,,,,,,,,,,,,,,,,2023-06-06 17:45:51.192002+00:00
2023-06-06 10:45:51.392051-07:00,18.854516,4.66,-0.66,4.61,-0.08,21.47,862.0,60.23,42.0,-1.0,,,,,,,,,,,,,,,,,,,,,,,,2023-06-06 17:45:51.392051+00:00
2023-06-06 10:45:51.592293-07:00,19.054758,4.5,-0.51,4.47,0.02,21.56,862.01,59.9,34.0,-1.0,,,,,,,,,,,,,,,,,,,,,,,,2023-06-06 17:45:51.592293+00:00
2023-06-06 10:45:51.791658-07:00,19.254123,5.25,0.24,5.24,0.04,21.05,862.0,61.86,31.0,-1.0,,,,,,,,,,,,,,,,,,,,,,,,2023-06-06 17:45:51.791658+00:00
2023-06-06 10:45:51.993615-07:00,19.45608,3.69,0.14,3.64,0.58,21.85,861.99,58.84,37.0,-1.0,,,,,,,,,,,1.87296,16.7765,16047.5,28.4123,11870.0,0.158963,-1.0,16.0,-1271.0,94.0,,0.0,2023-06-06 10:45:46.380,2023-06-06 17:45:51.993615+00:00
2023-06-06 10:45:52.191564-07:00,19.654029,2.82,0.27,2.72,0.69,22.3,862.02,57.2,35.0,-1.0,,,,,,,,,,,,,,,,,,,,,,,,2023-06-06 17:45:52.191564+00:00
2023-06-06 10:45:52.391997-07:00,19.854462,2.88,0.43,2.79,0.56,22.39,862.05,56.94,32.0,-1.0,,,,,,,,,,,,,,,,,,,,,,,,2023-06-06 17:45:52.391997+00:00
2023-06-06 10:45:52.591868-07:00,20.054333,3.31,-0.64,3.23,0.34,22.37,862.04,57.04,35.0,-1.0,,,,,,,,,,,,,,,,,,,,,,,,2023-06-06 17:45:52.591868+00:00
2023-06-06 10:45:52.792270-07:00,20.254735,2.67,-0.92,2.47,0.46,22.3,862.06,57.44,39.0,-1.0,,,,,,,,,,,,,,,,,,,,,,,,2023-06-06 17:45:52.792270+00:00
2023-06-06 10:45:52.992700-07:00,20.455165,4.08,-1.39,3.84,0.07,22.2,862.05,57.62,34.0,-1.0,,,,,,,,,,,1.86885,16.0737,16069.6,28.4182,11870.0,0.150605,-1.0,16.0,-1271.0,94.0,,0.0,2023-06-06 10:45:47.404,2023-06-06 17:45:52.992700+00:00
2023-06-06 10:45:53.191921-07:00,20.654386,3.86,-1.6,3.51,0.13,22.33,862.04,57.08,31.0,-1.0,,,,,,,,,,,,,,,,,,,,,,,,2023-06-06 17:45:53.191921+00:00
2023-06-06 10:45:53.391866-07:00,20.854331,4.69,-1.34,4.5,-0.11,22.25,862.05,57.54,33.0,-1.0,,,,,,,,,,,,,,,,,,,,,,,,2023-06-06 17:45:53.391866+00:00
2023-06-06 10:45:53.592293-07:00,21.054758,3.58,-0.33,3.55,0.33,22.64,862.02,56.15,38.0,-1.0,,,,,,,,,,,,,,,,,,,,,,,,2023-06-06 17:45:53.592293+00:00
2023-06-06 10:45:53.792221-07:00,21.254686,2.33,-0.69,2.13,0.67,23.16,862.05,55.12,33.0,-1.0,,,,,,,,,,,,,,,,,,,,,,,,2023-06-06 17:45:53.792221+00:00
2023-06-06 10:45:53.993490-07:00,21.455955,3.34,-0.15,3.31,0.42,22.42,862.07,56.97,32.0,-1.0,,,,,,,,,,,1.87121,15.8937,16183.3,28.4246,11871.0,0.143847,-1.0,15.0,-1244.0,94.0,,0.0,2023-06-06 10:45:48.428,2023-06-06 17:45:53.993490+00:00
2023-06-06 10:45:54.191771-07:00,21.654236,4.54,-1.14,4.37,0.47,21.65,862.04,59.59,39.0,-1.0,,,,,,,,,,,,,,,,,,,,,,,,2023-06-06 17:45:54.191771+00:00
2023-06-06 10:45:54.391901-07:00,21.854366,5.23,-1.7,4.93,0.29,21.02,862.02,62.12,37.0,-1.0,,,,,,,,,,,,,,,,,,,,,,,,2023-06-06 17:45:54.391901+00:00
2023-06-06 10:45:54.591542-07:00,22.054007,4.99,-2.0,4.56,0.24,21.45,862.02,61.02,30.0,-1.0,,,,,,,,,,,,,,,,,,,,,,,,2023-06-06 17:45:54.591542+00:00
2023-06-06 10:45:54.791746-07:00,22.254211,5.09,-2.38,4.5,0.13,20.88,862.02,62.45,31.0,-1.0,,,,,,,,,,,,,,,,,,,,,,,,2023-06-06 17:45:54.791746+00:00
2023-06-06 10:45:54.992864-07:00,22.455329,4.56,-1.87,4.15,-0.24,21.52,862.03,60.83,36.0,-1.0,,,,,,,,,,,1.86597,16.6251,16318.5,28.4319,11868.0,0.174985,-1.0,15.0,-1261.0,94.0,,0.0,2023-06-06 10:45:49.452,2023-06-06 17:45:54.992864+00:00
2023-06-06 10:45:55.191471-07:00,22.653936,5.03,-2.09,4.57,0.09,21.78,862.03,59.94,38.0,-1.0,,,,,,,,,,,,,,,,,,,,,,,,2023-06-06 17:45:55.191471+00:00
2023-06-06 10:45:55.391721-07:00,22.854186,5.52,-2.02,5.13,0.16,21.24,862.0,61.83,31.0,-1.0,,,,,,,,,,,,,,,,,,,,,,,,2023-06-06 17:45:55.391721+00:00
2023-06-06 10:45:55.591701-07:00,23.054166,5.76,-1.96,5.41,0.04,20.69,862.0,64.03,31.0,-1.0,,,,,,,,,,,,,,,,,,,,,,,,2023-06-06 17:45:55.591701+00:00
2023-06-06 10:45:55.791711-07:00,23.254176,5.44,-2.35,4.89,0.41,20.86,862.0,62.6,39.0,-1.0,,,,,,,,,,,,,,,,,,,,,,,,2023-06-06 17:45:55.791711+00:00
2023-06-06 10:45:55.992975-07:00,23.45544,4.13,-1.53,3.8,0.57,21.15,862.01,61.47,35.0,-1.0,,,,,,,,,,,1.86708,15.1722,16356.3,28.4391,11880.0,0.198968,-1.0,16.0,-1255.0,94.0,,0.0,2023-06-06 10:45:50.476,2023-06-06 17:45:55.992975+00:00
2023-06-06 10:45:56.192336-07:00,23.654801,4.75,-1.87,4.33,0.58,21.11,862.01,62.38,30.0,-1.0,,,,,,,,,,,,,,,,,,,,,,,,2023-06-06 17:45:56.192336+00:00
2023-06-06 10:45:56.392073-07:00,23.854538,5.35,-1.94,4.97,0.3,20.86,862.0,62.66,35.0,-1.0,,,,,,,,,,,,,,,,,,,,,,,,2023-06-06 17:45:56.392073+00:00
2023-06-06 10:45:56.591631-07:00,24.054096,5.6,-2.44,5.04,0.02,21.1,862.0,62.42,38.0,-1.0,,,,,,,,,,,,,,,,,,,,,,,,2023-06-06 17:45:56.591631+00:00
2023-06-06 10:45:56.791588-07:00,24.254053,5.72,-2.4,5.19,0.03,21.1,861.98,62.41,34.0,-1.0,,,,,,,,,,,,,,,,,,,,,,,,2023-06-06 17:45:56.791588+00:00
2023-06-06 10:45:56.992985-07:00,24.45545,5.61,-2.66,4.93,0.23,21.05,862.0,61.98,32.0,-1.0,,,,,,,,,,,1.86556,15.176,16280.2,28.4456,11892.0,0.212075,-1.0,15.0,-1254.0,94.0,,0.0,2023-06-06 10:45:51.500,2023-06-06 17:45:56.992985+00:00
2023-06-06 10:45:57.191753-07:00,24.654218,5.01,-2.03,4.58,0.11,21.46,862.01,60.38,34.0,-1.0,,,,,,,,,,,,,,,,,,,,,,,,2023-06-06 17:45:57.191753+00:00
2023-06-06 10:45:57.392007-07:00,24.854472,3.68,-0.32,3.65,0.23,22.76,862.0,56.28,37.0,-1.0,,,,,,,,,,,,,,,,,,,,,,,,2023-06-06 17:45:57.392007+00:00
2023-06-06 10:45:57.592008-07:00,25.054473,4.53,-0.35,4.5,0.29,22.15,862.01,57.86,34.0,-1.0,,,,,,,,,,,,,,,,,,,,,,,,2023-06-06 17:45:57.592008+00:00
2023-06-06 10:45:57.791592-07:00,25.254057,3.87,-0.28,3.86,0.13,21.92,862.05,58.77,30.0,-1.0,,,,,,,,,,,,,,,,,,,,,,,,2023-06-06 17:45:57.791592+00:00
2023-06-06 10:45:57.993017-07:00,25.455482,2.91,-0.18,2.85,0.53,22.48,862.05,56.63,37.0,-1.0,,,,,,,,,,,1.87259,15.042,16278.2,28.4528,11904.0,0.121566,-1.0,17.0,-1254.0,94.0,,0.0,2023-06-06 10:45:52.524,2023-06-06 17:45:57.993017+00:00
2023-06-06 10:45:58.191452-07:00,25.653917,5.31,-0.83,5.24,-0.17,21.92,862.01,58.66,40.0,-1.0,,,,,,,,,,,,,,,,,,,,,,,,2023-06-06 17:45:58.191452+00:00
2023-06-06 10:45:58.391567-07:00,25.854032,3.95,-0.76,3.87,0.22,22.14,862.02,58.5,31.0,-1.0,,,,,,,,,,,,,,,,,,,,,,,,2023-06-06 17:45:58.391567+00:00
2023-06-06 10:45:58.591779-07:00,26.054244,4.76,-0.83,4.69,-0.01,22.29,862.02,57.42,31.0,-1.0,,,,,,,,,,,,,,,,,,,,,,,,2023-06-06 17:45:58.591779+00:00
2023-06-06 10:45:58.792090-07:00,26.254555,3.88,-0.9,3.77,0.01,22.68,862.02,56.68,39.0,-1.0,,,,,,,,,,,,,,,,,,,,,,,,2023-06-06 17:45:58.792090+00:00
2023-06-06 10:45:58.993341-07:00,26.455806,5.01,-1.71,4.71,-0.04,21.9,862.02,59.48,37.0,-1.0,,,,,,,,,,,1.86849,15.903,16406.3,28.4598,11939.0,0.0561107,-1.0,14.0,-1274.0,94.0,,0.0,2023-06-06 10:45:53.548,2023-06-06 17:45:58.993341+00:00
2023-06-06 10:45:59.191395-07:00,26.65386,5.24,-1.94,4.87,-0.07,21.87,862.03,58.77,30.0,-1.0,,,,,,,,,,,,,,,,,,,,,,,,2023-06-06 17:45:59.191395+00:00
2023-06-06 10:45:59.391810-07:00,26.854275,4.55,-1.57,4.27,0.17,22.18,862.02,58.48,33.0,-1.0,,,,,,,,,,,,,,,,,,,,,,,,2023-06-06 17:45:59.391810+00:00
2023-06-06 10:45:59.591561-07:00,27.054026,5.26,-1.6,5.0,0.25,21.25,862.02,61.84,40.0,-1.0,,,,,,,,,,,,,,,,,,,,,,,,2023-06-06 17:45:59.591561+00:00
2023-06-06 10:45:59.791433-07:00,27.253898,4.88,-1.54,4.61,0.46,21.54,861.96,60.78,34.0,-1.0,,,,,,,,,,,,,,,,,,,,,,,,2023-06-06 17:45:59.791433+00:00
2023-06-06 10:45:59.993037-07:00,27.455502,6.44,-1.44,6.27,-0.27,20.52,861.98,64.7,31.0,-1.0,,,,,,,,,,,1.86919,15.4819,16547.7,28.4673,11935.0,0.114068,-1.0,15.0,-1295.0,94.0,,0.0,2023-06-06 10:45:54.572,2023-06-06 17:45:59.993037+00:00
2023-06-06 10:46:00.192041-07:00,27.654506,6.68,-2.02,6.35,-0.39,19.95,861.97,66.96,35.0,-1.0,,,,,,,,,,,,,,,,,,,,,,,,2023-06-06 17:46:00.192041+00:00
2023-06-06 10:46:00.392200-07:00,27.854665,6.31,-1.34,6.17,-0.22,20.54,861.96,63.77,39.0,-1.0,,,,,,,,,,,,,,,,,,,,,,,,2023-06-06 17:46:00.392200+00:00
2023-06-06 10:46:00.591913-07:00,28.054378,5.32,-0.6,5.29,0.12,20.71,861.99,63.85,33.0,-1.0,,,,,,,,,,,,,,,,,,,,,,,,2023-06-06 17:46:00.591913+00:00
2023-06-06 10:46:00.791479-07:00,28.253944,5.14,-1.48,4.91,0.4,20.79,861.99,63.55,31.0,-1.0,,,,,,,,,,,,,,,,,,,,,,,,2023-06-06 17:46:00.791479+00:00
2023-06-06 10:46:00.993391-07:00,28.455856,5.71,-1.57,5.49,-0.06,20.17,861.99,66.16,37.0,-1.0,,,,,,,,,,,1.87074,14.7578,16515.0,28.4743,11936.0,0.172869,-1.0,18.0,-1279.0,94.0,,0.0,2023-06-06 10:45:55.596,2023-06-06 17:46:00.993391+00:00
2023-06-06 10:46:01.191818-07:00,28.654283,5.55,-1.78,5.25,0.11,20.24,862.0,65.83,37.0,-1.0,,,,,,,,,,,,,,,,,,,,,,,,2023-06-06 17:46:01.191818+00:00
2023-06-06 10:46:01.391394-07:00,28.853859,5.71,-1.58,5.48,-0.03,20.38,862.0,65.2,33.0,-1.0,,,,,,,,,,,,,,,,,,,,,,,,2023-06-06 17:46:01.391394+00:00
2023-06-06 10:46:01.591436-07:00,29.053901,5.13,-1.55,4.89,0.09,20.77,862.0,63.69,30.0,-1.0,,,,,,,,,,,,,,,,,,,,,,,,2023-06-06 17:46:01.591436+00:00
2023-06-06 10:46:01.791972-07:00,29.254437,5.16,-1.57,4.91,0.1,21.05,862.02,62.62,40.0,-1.0,,,,,,,,,,,,,,,,,,,,,,,,2023-06-06 17:46:01.791972+00:00
2023-06-06 10:46:01.993329-07:00,29.455794,5.62,-1.74,5.35,0.04,20.86,862.0,62.52,36.0,-1.0,,,,,,,,,,,1.8677,14.8086,16317.8,28.4813,11935.0,0.167702,-1.0,18.0,-1277.0,94.0,,0.0,2023-06-06 10:45:56.620,2023-06-06 17:46:01.993329+00:00
2023-06-06 10:46:02.192015-07:00,29.65448,5.53,-1.34,5.37,-0.05,21.31,861.97,60.75,31.0,-1.0,,,,,,,,,,,,,,,,,,,,,,,,2023-06-06 17:46:02.192015+00:00
2023-06-06 10:46:02.391824-07:00,29.854289,6.23,-1.51,6.04,-0.13,20.79,861.96,62.79,32.0,-1.0,,,,,,,,,,,,,,,,,,,,,,,,2023-06-06 17:46:02.391824+00:00
2023-06-06 10:46:02.591956-07:00,30.054421,6.21,-0.95,6.14,-0.13,20.75,861.98,63.1,39.0,-1.0,,,,,,,,,,,,,,,,,,,,,,,,2023-06-06 17:46:02.591956+00:00
2023-06-06 10:46:02.791872-07:00,30.254337,5.62,-0.94,5.54,-0.12,21.13,861.97,61.55,35.0,-1.0,,,,,,,,,,,,,,,,,,,,,,,,2023-06-06 17:46:02.791872+00:00
2023-06-06 10:46:02.993316-07:00,30.455781,3.83,-0.86,3.72,0.34,21.83,862.01,58.92,30.0,-1.0,,,,,,,,,,,1.8722,14.7619,16179.4,28.4887,11935.0,0.131532,-1.0,18.0,-1277.0,94.0,,0.0,2023-06-06 10:45:57.644,2023-06-06 17:46:02.993316+00:00
2023-06-06 10:46:03.192389-07:00,30.654854,5.05,-1.8,4.71,0.33,20.53,862.0,63.76,34.0,-1.0,,,,,,,,,,,,,,,,,,,,,,,,2023-06-06 17:46:03.192389+00:00
2023-06-06 10:46:03.391745-07:00,30.85421,5.55,-1.91,5.21,0.15,20.51,862.0,63.97,41.0,-1.0,,,,,,,,,,,,,,,,,,,,,,,,2023-06-06 17:46:03.391745+00:00
2023-06-06 10:46:03.591972-07:00,31.054437,5.38,-1.46,5.16,0.37,20.57,861.97,63.78,32.0,-1.0,,,,,,,,,,,,,,,,,,,,,,,,2023-06-06 17:46:03.591972+00:00
2023-06-06 10:46:03.792093-07:00,31.254558,5.3,-1.64,5.03,0.28,20.44,861.97,64.25,31.0,-1.0,,,,,,,,,,,,,,,,,,,,,,,,2023-06-06 17:46:03.792093+00:00
2023-06-06 10:46:03.993388-07:00,31.455853,5.05,-1.61,4.77,0.42,20.5,862.0,63.94,38.0,-1.0,,,,,,,,,,,1.87014,14.0747,16186.1,28.4961,11915.0,0.0626786,-1.0,21.0,-1245.0,94.0,,0.0,2023-06-06 10:45:58.668,2023-06-06 17:46:03.993388+00:00
2023-06-06 10:46:04.192288-07:00,31.654753,5.28,-1.61,5.02,0.26,20.41,862.0,64.37,38.0,-1.0,,,,,,,,,,,,,,,,,,,,,,,,2023-06-06 17:46:04.192288+00:00
2023-06-06 10:46:04.391821-07:00,31.854286,5.28,-1.65,5.01,0.23,20.38,861.99,64.41,32.0,-1.0,,,,,,,,,,,,,,,,,,,,,,,,2023-06-06 17:46:04.391821+00:00
2023-06-06 10:46:04.592213-07:00,32.054678,5.72,-1.82,5.43,0.02,20.47,861.99,64.11,32.0,-1.0,,,,,,,,,,,,,,,,,,,,,,,,2023-06-06 17:46:04.592213+00:00
2023-06-06 10:46:04.791897-07:00,32.254362,5.39,-1.57,5.15,0.01,20.34,861.98,64.72,38.0,-1.0,,,,,,,,,,,,,,,,,,,,,,,,2023-06-06 17:46:04.791897+00:00
2023-06-06 10:46:04.993141-07:00,32.455606,5.24,-1.7,4.95,0.17,20.37,862.0,64.52,38.0,-1.0,,,,,,,,,,,1.87081,14.5853,16131.7,28.5034,11923.0,0.0916968,-1.0,20.0,-1250.0,94.0,,0.0,2023-06-06 10:45:59.692,2023-06-06 17:46:04.993141+00:00
2023-06-06 10:46:05.192119-07:00,32.654584,5.53,-1.25,5.38,0.04,20.37,862.01,64.36,31.0,-1.0,,,,,,,,,,,,,,,,,,,,,,,,2023-06-06 17:46:05.192119+00:00
2023-06-06 10:46:05.391585-07:00,32.85405,5.0,-0.9,4.92,0.08,20.95,862.0,62.27,32.0,-1.0,,,,,,,,,,,,,,,,,,,,,,,,2023-06-06 17:46:05.391585+00:00
2023-06-06 10:46:05.592341-07:00,33.054806,4.51,-0.55,4.47,0.1,21.58,862.01,59.88,40.0,-1.0,,,,,,,,,,,,,,,,,,,,,,,,2023-06-06 17:46:05.592341+00:00
2023-06-06 10:46:05.791712-07:00,33.254177,3.54,0.28,3.49,0.53,21.58,862.02,59.82,35.0,-1.0,,,,,,,,,,,,,,,,,,,,,,,,2023-06-06 17:46:05.791712+00:00
2023-06-06 10:46:05.993358-07:00,33.455823,5.23,-1.41,5.04,0.02,20.62,862.03,63.46,30.0,-1.0,,,,,,,,,,,1.87177,13.737,16068.7,28.5102,11914.0,0.140242,-1.0,20.0,-1259.0,94.0,,0.0,2023-06-06 10:46:00.716,2023-06-06 17:46:05.993358+00:00
2023-06-06 10:46:06.192313-07:00,33.654778,5.06,-0.57,5.02,-0.18,20.76,862.04,62.84,33.0,-1.0,,,,,,,,,,,,,,,,,,,,,,,,2023-06-06 17:46:06.192313+00:00
2023-06-06 10:46:06.391721-07:00,33.854186,4.63,-1.99,4.16,-0.46,21.58,862.01,59.95,38.0,-1.0,,,,,,,,,,,,,,,,,,,,,,,,2023-06-06 17:46:06.391721+00:00
2023-06-06 10:46:06.592072-07:00,34.054537,3.69,-1.82,3.21,-0.09,21.8,862.04,59.03,34.0,-1.0,,,,,,,,,,,,,,,,,,,,,,,,2023-06-06 17:46:06.592072+00:00
2023-06-06 10:46:06.792083-07:00,34.254548,3.82,-1.7,3.41,-0.04,21.71,862.05,59.36,30.0,-1.0,,,,,,,,,,,,,,,,,,,,,,,,2023-06-06 17:46:06.792083+00:00
2023-06-06 10:46:06.992877-07:00,34.455342,2.58,-0.7,2.41,0.57,22.46,862.06,56.71,35.0,-1.0,,,,,,,,,,,1.87512,12.548,16131.0,28.5178,11898.0,-0.0406373,-1.0,18.0,-1258.0,94.0,,0.0,2023-06-06 10:46:01.740,2023-06-06 17:46:06.992877+00:00
2023-06-06 10:46:07.192249-07:00,34.654714,4.95,-1.55,4.69,0.14,20.91,862.03,62.41,39.0,-1.0,,,,,,,,,,,,,,,,,,,,,,,,2023-06-06 17:46:07.192249+00:00
2023-06-06 10:46:07.392222-07:00,34.854687,5.55,-1.23,5.41,0.12,20.66,862.0,63.3,32.0,-1.0,,,,,,,,,,,,,,,,,,,,,,,,2023-06-06 17:46:07.392222+00:00
2023-06-06 10:46:07.591541-07:00,35.054006,5.37,-0.97,5.28,-0.03,20.58,862.01,63.53,30.0,-1.0,,,,,,,,,,,,,,,,,,,,,,,,2023-06-06 17:46:07.591541+00:00
2023-06-06 10:46:07.791744-07:00,35.254209,5.9,-1.15,5.78,-0.0,21.03,862.0,61.75,38.0,-1.0,,,,,,,,,,,,,,,,,,,,,,,,2023-06-06 17:46:07.791744+00:00
2023-06-06 10:46:07.993229-07:00,35.455694,5.02,-0.32,5.01,0.19,20.94,862.0,62.1,37.0,-1.0,,,,,,,,,,,1.86939,13.4497,16253.0,28.5251,11879.0,0.0274895,-1.0,17.0,-1235.0,94.0,,0.0,2023-06-06 10:46:02.764,2023-06-06 17:46:07.993229+00:00
2023-06-06 10:46:08.191596-07:00,35.654061,5.06,0.14,5.05,-0.29,21.38,862.01,60.5,32.0,-1.0,,,,,,,,,,,,,,,,,,,,,,,,2023-06-06 17:46:08.191596+00:00
2023-06-06 10:46:08.391744-07:00,35.854209,5.69,-1.11,5.58,-0.15,20.85,862.0,62.57,32.0,-1.0,,,,,,,,,,,,,,,,,,,,,,,,2023-06-06 17:46:08.391744+00:00
2023-06-06 10:46:08.591587-07:00,36.054052,5.05,-0.22,5.05,0.17,21.66,862.0,59.55,39.0,-1.0,,,,,,,,,,,,,,,,,,,,,,,,2023-06-06 17:46:08.591587+00:00
2023-06-06 10:46:08.791556-07:00,36.254021,4.52,0.38,4.5,0.08,20.87,862.03,62.42,37.0,-1.0,,,,,,,,,,,,,,,,,,,,,,,,2023-06-06 17:46:08.791556+00:00
2023-06-06 10:46:08.993117-07:00,36.455582,5.7,-0.96,5.61,-0.18,21.07,861.99,61.72,31.0,-1.0,,,,,,,,,,,1.86253,14.2951,16213.6,28.5322,11877.0,0.0174608,-1.0,16.0,-1237.0,94.0,,0.0,2023-06-06 10:46:03.788,2023-06-06 17:46:08.993117+00:00
2023-06-06 10:46:09.191580-07:00,36.654045,5.08,-1.04,4.97,-0.2,21.47,862.0,60.3,33.0,-1.0,,,,,,,,,,,,,,,,,,,,,,,,2023-06-06 17:46:09.191580+00:00
2023-06-06 10:46:09.391790-07:00,36.854255,4.9,-1.53,4.65,0.06,21.27,862.02,60.92,40.0,-1.0,,,,,,,,,,,,,,,,,,,,,,,,2023-06-06 17:46:09.391790+00:00
2023-06-06 10:46:09.592015-07:00,37.05448,5.48,-1.56,5.25,-0.2,21.76,862.02,59.11,36.0,-1.0,,,,,,,,,,,,,,,,,,,,,,,,2023-06-06 17:46:09.592015+00:00
2023-06-06 10:46:09.791962-07:00,37.254427,3.87,0.8,3.76,0.49,21.69,862.0,59.31,31.0,-1.0,,,,,,,,,,,,,,,,,,,,,,,,2023-06-06 17:46:09.791962+00:00
2023-06-06 10:46:09.993542-07:00,37.456007,4.57,0.75,4.5,0.18,22.06,862.02,58.05,34.0,-1.0,,,,,,,,,,,1.8603,13.7681,16276.3,28.5397,11870.0,0.170128,-1.0,19.0,-1264.0,94.0,,0.0,2023-06-06 10:46:04.812,2023-06-06 17:46:09.993542+00:00
2023-06-06 10:46:10.191601-07:00,37.654066,4.27,1.06,4.12,0.33,21.13,862.04,61.31,40.0,-1.0,,,,,,,,,,,,,,,,,,,,,,,,2023-06-06 17:46:10.191601+00:00
2023-06-06 10:46:10.391899-07:00,37.854364,4.7,-0.31,4.69,0.18,21.3,862.02,60.87,34.0,-1.0,,,,,,,,,,,,,,,,,,,,,,,,2023-06-06 17:46:10.391899+00:00
2023-06-06 10:46:10.592112-07:00,38.054577,5.46,0.04,5.45,-0.11,20.87,862.01,62.34,31.0,-1.0,,,,,,,,,,,,,,,,,,,,,,,,2023-06-06 17:46:10.592112+00:00
2023-06-06 10:46:10.791931-07:00,38.254396,5.96,0.71,5.92,-0.12,19.86,862.01,66.45,37.0,-1.0,,,,,,,,,,,,,,,,,,,,,,,,2023-06-06 17:46:10.791931+00:00
2023-06-06 10:46:10.993736-07:00,38.456201,5.18,0.95,5.09,0.24,21.06,862.0,61.65,38.0,-1.0,,,,,,,,,,,1.85567,13.6712,16397.7,28.5471,11873.0,0.373574,-1.0,18.0,-1268.0,94.0,,0.0,2023-06-06 10:46:05.836,2023-06-06 17:46:10.993736+00:00
2023-06-06 10:46:11.191962-07:00,38.654427,4.44,0.0,4.44,0.24,21.48,861.99,60.0,32.0,-1.0,,,,,,,,,,,,,,,,,,,,,,,,2023-06-06 17:46:11.191962+00:00
2023-06-06 10:46:11.391800-07:00,38.854265,5.47,-0.15,5.46,-0.15,21.43,862.01,60.3,31.0,-1.0,,,,,,,,,,,,,,,,,,,,,,,,2023-06-06 17:46:11.391800+00:00
2023-06-06 10:46:11.591699-07:00,39.054164,5.19,0.67,5.14,0.12,21.31,862.0,60.76,38.0,-1.0,,,,,,,,,,,,,,,,,,,,,,,,2023-06-06 17:46:11.591699+00:00
2023-06-06 10:46:11.792146-07:00,39.254611,6.12,-0.1,6.12,-0.09,20.44,862.0,64.1,37.0,-1.0,,,,,,,,,,,,,,,,,,,,,,,,2023-06-06 17:46:11.792146+00:00
2023-06-06 10:46:11.992621-07:00,39.455086,5.2,-0.37,5.19,0.03,20.69,862.01,63.1,31.0,-1.0,,,,,,,,,,,1.8687,13.3973,16298.1,28.5543,11885.0,0.434224,-1.0,20.0,-1281.0,93.0,,0.0,2023-06-06 10:46:06.860,2023-06-06 17:46:11.992621+00:00
2023-06-06 10:46:12.192294-07:00,39.654759,4.48,-0.35,4.46,0.08,21.06,862.03,61.71,32.0,-1.0,,,,,,,,,,,,,,,,,,,,,,,,2023-06-06 17:46:12.192294+00:00
2023-06-06 10:46:12.392238-07:00,39.854703,4.48,-0.44,4.46,-0.05,21.17,862.04,61.22,39.0,-1.0,,,,,,,,,,,,,,,,,,,,,,,,2023-06-06 17:46:12.392238+00:00
2023-06-06 10:46:12.591449-07:00,40.053914,3.0,-0.64,2.92,0.28,22.09,862.04,57.82,34.0,-1.0,,,,,,,,,,,,,,,,,,,,,,,,2023-06-06 17:46:12.591449+00:00
2023-06-06 10:46:12.791521-07:00,40.253986,4.57,-0.75,4.51,-0.02,21.49,862.03,59.97,31.0,-1.0,,,,,,,,,,,,,,,,,,,,,,,,2023-06-06 17:46:12.791521+00:00
2023-06-06 10:46:12.992790-07:00,40.455255,5.63,0.1,5.63,-0.04,20.46,862.01,63.97,34.0,-1.0,,,,,,,,,,,1.86238,13.3343,16226.1,28.5612,11885.0,0.474676,-1.0,20.0,-1281.0,93.0,,0.0,2023-06-06 10:46:07.884,2023-06-06 17:46:12.992790+00:00
2023-06-06 10:46:13.191827-07:00,40.654292,6.45,-0.41,6.43,-0.3,20.19,862.0,65.09,39.0,-1.0,,,,,,,,,,,,,,,,,,,,,,,,2023-06-06 17:46:13.191827+00:00
2023-06-06 10:46:13.392102-07:00,40.854567,5.59,0.33,5.58,0.17,20.6,862.02,63.41,33.0,-1.0,,,,,,,,,,,,,,,,,,,,,,,,2023-06-06 17:46:13.392102+00:00
2023-06-06 10:46:13.591920-07:00,41.054385,7.15,-0.1,7.14,-0.38,19.75,861.99,66.81,30.0,-1.0,,,,,,,,,,,,,,,,,,,,,,,,2023-06-06 17:46:13.591920+00:00
2023-06-06 10:46:13.791936-07:00,41.254401,6.31,0.23,6.3,-0.23,21.0,861.99,61.99,36.0,-1.0,,,,,,,,,,,,,,,,,,,,,,,,2023-06-06 17:46:13.791936+00:00
2023-06-06 10:46:13.993622-07:00,41.456087,4.75,1.71,4.43,0.14,21.54,862.0,59.8,39.0,-1.0,,,,,,,,,,,1.87544,12.1452,16179.9,28.5678,11918.0,0.319477,-1.0,17.0,-1276.0,93.0,,0.0,2023-06-06 10:46:08.908,2023-06-06 17:46:13.993622+00:00
2023-06-06 10:46:14.191906-07:00,41.654371,5.47,-0.13,5.47,-0.16,20.68,862.01,63.02,32.0,-1.0,,,,,,,,,,,,,,,,,,,,,,,,2023-06-06 17:46:14.191906+00:00
2023-06-06 10:46:14.391948-07:00,41.854413,4.97,1.16,4.81,0.45,21.43,861.99,60.26,32.0,-1.0,,,,,,,,,,,,,,,,,,,,,,,,2023-06-06 17:46:14.391948+00:00
2023-06-06 10:46:14.591426-07:00,42.053891,5.2,0.24,5.19,0.07,20.89,861.99,62.29,37.0,-1.0,,,,,,,,,,,,,,,,,,,,,,,,2023-06-06 17:46:14.591426+00:00
2023-06-06 10:46:14.792165-07:00,42.25463,5.61,-0.56,5.58,-0.17,20.83,861.98,62.5,37.0,-1.0,,,,,,,,,,,,,,,,,,,,,,,,2023-06-06 17:46:14.792165+00:00
2023-06-06 10:46:14.993564-07:00,42.456029,6.13,-0.05,6.12,-0.41,20.26,861.99,64.83,31.0,-1.0,,,,,,,,,,,1.85981,12.8829,16059.3,28.575,11920.0,0.331311,-1.0,17.0,-1261.0,93.0,,0.0,2023-06-06 10:46:09.932,2023-06-06 17:46:14.993564+00:00
2023-06-06 10:46:15.191991-07:00,42.654456,5.32,0.34,5.31,-0.01,20.28,862.0,64.52,32.0,-1.0,,,,,,,,,,,,,,,,,,,,,,,,2023-06-06 17:46:15.191991+00:00
2023-06-06 10:46:15.391713-07:00,42.854178,5.86,0.32,5.85,-0.12,20.35,861.98,64.32,39.0,-1.0,,,,,,,,,,,,,,,,,,,,,,,,2023-06-06 17:46:15.391713+00:00
2023-06-06 10:46:15.591760-07:00,43.054225,4.27,0.87,4.17,0.29,21.03,861.96,61.81,36.0,-1.0,,,,,,,,,,,,,,,,,,,,,,,,2023-06-06 17:46:15.591760+00:00
2023-06-06 10:46:15.792105-07:00,43.25457,5.42,-0.95,5.34,-0.07,20.04,862.02,65.56,31.0,-1.0,,,,,,,,,,,,,,,,,,,,,,,,2023-06-06 17:46:15.792105+00:00
2023-06-06 10:46:15.993547-07:00,43.456012,5.72,-1.17,5.6,-0.08,19.93,862.0,66.07,33.0,-1.0,,,,,,,,,,,1.86447,11.8022,15974.6,28.5822,11926.0,0.364251,-1.0,20.0,-1292.0,93.0,,0.0,2023-06-06 10:46:10.956,2023-06-06 17:46:15.993547+00:00
2023-06-06 10:46:16.191789-07:00,43.654254,5.03,-1.23,4.87,0.02,19.9,862.01,66.09,40.0,-1.0,,,,,,,,,,,,,,,,,,,,,,,,2023-06-06 17:46:16.191789+00:00
2023-06-06 10:46:16.391826-07:00,43.854291,5.39,-0.88,5.32,-0.09,19.97,862.01,65.85,34.0,-1.0,,,,,,,,,,,,,,,,,,,,,,,,2023-06-06 17:46:16.391826+00:00
2023-06-06 10:46:16.591414-07:00,44.053879,5.7,-1.24,5.56,0.05,20.29,862.02,64.63,30.0,-1.0,,,,,,,,,,,,,,,,,,,,,,,,2023-06-06 17:46:16.591414+00:00
2023-06-06 10:46:16.791574-07:00,44.254039,5.66,-1.07,5.55,-0.08,20.45,862.01,63.91,35.0,-1.0,,,,,,,,,,,,,,,,,,,,,,,,2023-06-06 17:46:16.791574+00:00
2023-06-06 10:46:16.992969-07:00,44.455434,5.49,-1.37,5.32,0.02,20.54,861.98,63.53,38.0,-1.0,,,,,,,,,,,1.87221,11.6421,15888.7,28.5886,11929.0,0.232657,-1.0,15.0,-1315.0,93.0,,0.0,2023-06-06 10:46:11.980,2023-06-06 17:46:16.992969+00:00
2023-06-06 10:46:17.191523-07:00,44.653988,5.53,-0.81,5.47,-0.14,20.18,862.0,65.0,32.0,-1.0,,,,,,,,,,,,,,,,,,,,,,,,2023-06-06 17:46:17.191523+00:00
2023-06-06 10:46:17.391502-07:00,44.853967,5.51,-0.74,5.46,-0.15,19.82,862.0,66.46,31.0,-1.0,,,,,,,,,,,,,,,,,,,,,,,,2023-06-06 17:46:17.391502+00:00
2023-06-06 10:46:17.591602-07:00,45.054067,5.17,-1.01,5.07,0.03,19.76,862.03,66.79,38.0,-1.0,,,,,,,,,,,,,,,,,,,,,,,,2023-06-06 17:46:17.591602+00:00
2023-06-06 10:46:17.791475-07:00,45.25394,5.24,-0.89,5.16,0.0,19.94,862.03,65.99,38.0,-1.0,,,,,,,,,,,,,,,,,,,,,,,,2023-06-06 17:46:17.791475+00:00
2023-06-06 10:46:17.993540-07:00,45.456005,4.59,-1.38,4.38,0.1,20.47,862.01,63.9,31.0,-1.0,,,,,,,,,,,1.86559,11.671,15785.8,28.5954,11925.0,0.229112,-1.0,21.0,-1286.0,93.0,,0.0,2023-06-06 10:46:13.004,2023-06-06 17:46:17.993540+00:00
2023-06-06 10:46:18.191475-07:00,45.65394,4.37,-1.18,4.2,0.11,20.77,862.03,62.76,31.0,-1.0,,,,,,,,,,,,,,,,,,,,,,,,2023-06-06 17:46:18.191475+00:00
2023-06-06 10:46:18.391547-07:00,45.854012,3.98,-0.91,3.87,0.2,20.98,862.03,61.88,39.0,-1.0,,,,,,,,,,,,,,,,,,,,,,,,2023-06-06 17:46:18.391547+00:00
2023-06-06 10:46:18.591828-07:00,46.054293,4.59,-0.86,4.51,-0.05,20.23,862.03,64.85,36.0,-1.0,,,,,,,,,,,,,,,,,,,,,,,,2023-06-06 17:46:18.591828+00:00
2023-06-06 10:46:18.791716-07:00,46.254181,4.45,-1.23,4.27,0.18,19.86,862.02,66.24,30.0,-1.0,,,,,,,,,,,,,,,,,,,,,,,,2023-06-06 17:46:18.791716+00:00
2023-06-06 10:46:18.993541-07:00,46.456006,4.57,-1.03,4.45,0.05,19.78,862.02,66.57,33.0,-1.0,,,,,,,,,,,1.88095,11.2794,15713.7,28.6023,11927.0,0.022781,-1.0,19.0,-1302.0,93.0,,0.0,2023-06-06 10:46:14.028,2023-06-06 17:46:18.993541+00:00
2023-06-06 10:46:19.192044-07:00,46.654509,4.49,-1.15,4.34,0.06,19.83,862.03,65.63,39.0,-1.0,,,,,,,,,,,,,,,,,,,,,,,,2023-06-06 17:46:19.192044+00:00
2023-06-06 10:46:19.391821-07:00,46.854286,4.31,-1.38,4.07,0.18,20.86,862.02,61.58,35.0,-1.0,,,,,,,,,,,,,,,,,,,,,,,,2023-06-06 17:46:19.391821+00:00
2023-06-06 10:46:19.592058-07:00,47.054523,4.36,-1.37,4.14,0.15,20.06,862.02,64.66,30.0,-1.0,,,,,,,,,,,,,,,,,,,,,,,,2023-06-06 17:46:19.592058+00:00
2023-06-06 10:46:19.791685-07:00,47.25415,4.25,-1.39,4.01,0.24,20.44,862.02,63.14,34.0,-1.0,,,,,,,,,,,,,,,,,,,,,,,,2023-06-06 17:46:19.791685+00:00
2023-06-06 10:46:19.992752-07:00,47.455217,4.28,-1.04,4.15,0.17,20.59,862.03,62.61,39.0,-1.0,,,,,,,,,,,1.86344,11.8668,15621.4,28.6093,11925.0,0.000806352,-1.0,20.0,-1285.0,93.0,,0.0,2023-06-06 10:46:15.052,2023-06-06 17:46:19.992752+00:00
2023-06-06 10:46:20.191845-07:00,47.65431,4.43,-1.33,4.23,-0.07,20.79,862.03,61.84,33.0,-1.0,,,,,,,,,,,,,,,,,,,,,,,,2023-06-06 17:46:20.191845+00:00
2023-06-06 10:46:20.392425-07:00,47.85489,4.15,-1.39,3.91,-0.02,21.05,862.02,60.86,30.0,-1.0,,,,,,,,,,,,,,,,,,,,,,,,2023-06-06 17:46:20.392425+00:00
2023-06-06 10:46:20.591552-07:00,48.054017,4.14,-1.42,3.88,0.22,20.31,862.05,63.66,37.0,-1.0,,,,,,,,,,,,,,,,,,,,,,,,2023-06-06 17:46:20.591552+00:00
2023-06-06 10:46:20.791916-07:00,48.254381,4.08,-1.09,3.92,0.23,19.98,862.03,64.87,38.0,-1.0,,,,,,,,,,,,,,,,,,,,,,,,2023-06-06 17:46:20.791916+00:00
2023-06-06 10:46:20.992892-07:00,48.455357,4.17,-0.67,4.11,0.16,20.02,862.01,64.73,32.0,-1.0,,,,,,,,,,,1.8658,12.4359,15636.8,28.6161,11917.0,-0.00377721,-1.0,19.0,-1297.0,93.0,,0.0,2023-06-06 10:46:16.076,2023-06-06 17:46:20.992892+00:00
2023-06-06 10:46:21.192148-07:00,48.654613,4.21,-0.94,4.1,0.14,20.03,862.04,64.78,31.0,-1.0,,,,,,,,,,,,,,,,,,,,,,,,2023-06-06 17:46:21.192148+00:00
2023-06-06 10:46:21.391797-07:00,48.854262,4.16,-0.63,4.11,0.16,20.05,862.02,64.59,39.0,-1.0,,,,,,,,,,,,,,,,,,,,,,,,2023-06-06 17:46:21.391797+00:00
2023-06-06 10:46:21.592243-07:00,49.054708,3.96,-0.42,3.93,0.15,20.1,862.04,64.4,37.0,-1.0,,,,,,,,,,,,,,,,,,,,,,,,2023-06-06 17:46:21.592243+00:00
2023-06-06 10:46:21.792310-07:00,49.254775,3.68,-0.27,3.66,0.3,20.23,862.03,63.88,31.0,-1.0,,,,,,,,,,,,,,,,,,,,,,,,2023-06-06 17:46:21.792310+00:00
2023-06-06 10:46:21.993168-07:00,49.455633,3.61,-1.58,3.23,-0.23,21.2,862.04,60.27,33.0,-1.0,,,,,,,,,,,1.8729,10.4084,15598.7,28.6228,11902.0,-0.125086,-1.0,19.0,-1254.0,93.0,,0.0,2023-06-06 10:46:17.100,2023-06-06 17:46:21.993168+00:00
2023-06-06 10:46:22.192337-07:00,49.654802,3.57,-1.07,3.4,0.14,21.67,862.03,58.48,39.0,-1.0,,,,,,,,,,,,,,,,,,,,,,,,2023-06-06 17:46:22.192337+00:00
2023-06-06 10:46:22.392241-07:00,49.854706,3.84,-1.03,3.7,-0.19,21.81,862.04,57.93,35.0,-1.0,,,,,,,,,,,,,,,,,,,,,,,,2023-06-06 17:46:22.392241+00:00
2023-06-06 10:46:22.592130-07:00,50.054595,3.27,-1.42,2.94,-0.11,21.85,862.04,57.76,30.0,-1.0,,,,,,,,,,,,,,,,,,,,,,,,2023-06-06 17:46:22.592130+00:00
2023-06-06 10:46:22.791676-07:00,50.254141,3.23,-1.25,2.98,0.08,21.66,862.04,58.49,33.0,-1.0,,,,,,,,,,,,,,,,,,,,,,,,2023-06-06 17:46:22.791676+00:00
2023-06-06 10:46:22.993147-07:00,50.455612,3.12,-1.45,2.77,0.04,21.83,862.06,57.86,40.0,-1.0,,,,,,,,,,,1.85711,10.7988,15681.5,28.6296,11872.0,-0.00524708,-1.0,17.0,-1294.0,93.0,,0.0,2023-06-06 10:46:18.124,2023-06-06 17:46:22.993147+00:00
2023-06-06 10:46:23.192302-07:00,50.654767,3.32,-1.72,2.84,-0.1,21.43,862.07,59.29,34.0,-1.0,,,,,,,,,,,,,,,,,,,,,,,,2023-06-06 17:46:23.192302+00:00
2023-06-06 10:46:23.392298-07:00,50.854763,2.65,-1.15,2.34,0.45,21.73,862.05,58.2,30.0,-1.0,,,,,,,,,,,,,,,,,,,,,,,,2023-06-06 17:46:23.392298+00:00
2023-06-06 10:46:23.592076-07:00,51.054541,3.85,-0.82,3.76,-0.11,20.96,862.05,60.97,35.0,-1.0,,,,,,,,,,,,,,,,,,,,,,,,2023-06-06 17:46:23.592076+00:00
2023-06-06 10:46:23.792094-07:00,51.254559,3.42,-1.08,3.25,0.01,21.03,862.04,60.8,39.0,-1.0,,,,,,,,,,,,,,,,,,,,,,,,2023-06-06 17:46:23.792094+00:00
2023-06-06 10:46:23.993267-07:00,51.455732,3.59,-1.62,3.2,-0.25,21.45,862.05,59.28,32.0,-1.0,,,,,,,,,,,1.87629,9.63987,15919.6,28.6364,11868.0,-0.141928,-1.0,21.0,-1281.0,93.0,,0.0,2023-06-06 10:46:19.148,2023-06-06 17:46:23.993267+00:00
2023-06-06 10:46:24.192267-07:00,51.654732,3.19,-1.41,2.84,0.37,21.79,862.05,58.03,31.0,-1.0,,,,,,,,,,,,,,,,,,,,,,,,2023-06-06 17:46:24.192267+00:00
2023-06-06 10:46:24.392303-07:00,51.854768,3.94,-1.35,3.69,0.24,20.61,862.03,62.27,38.0,-1.0,,,,,,,,,,,,,,,,,,,,,,,,2023-06-06 17:46:24.392303+00:00
2023-06-06 10:46:24.591387-07:00,52.053852,3.71,-1.26,3.49,0.19,20.8,862.03,61.62,38.0,-1.0,,,,,,,,,,,,,,,,,,,,,,,,2023-06-06 17:46:24.591387+00:00
2023-06-06 10:46:24.792019-07:00,52.254484,3.58,-1.26,3.34,0.21,21.48,862.04,59.11,31.0,-1.0,,,,,,,,,,,,,,,,,,,,,,,,2023-06-06 17:46:24.792019+00:00
2023-06-06 10:46:24.993307-07:00,52.455772,3.95,-1.41,3.68,0.3,21.38,862.03,59.4,32.0,-1.0,,,,,,,,,,,1.86204,10.4128,16026.6,28.6433,11874.0,-0.0615353,-1.0,20.0,-1270.0,93.0,,0.0,2023-06-06 10:46:20.172,2023-06-06 17:46:24.993307+00:00
2023-06-06 10:46:25.191489-07:00,52.653954,4.36,-1.16,4.2,0.1,20.81,862.02,61.52,39.0,-1.0,,,,,,,,,,,,,,,,,,,,,,,,2023-06-06 17:46:25.191489+00:00
2023-06-06 10:46:25.391681-07:00,52.854146,4.34,-0.39,4.32,-0.07,20.43,862.01,62.98,36.0,-1.0,,,,,,,,,,,,,,,,,,,,,,,,2023-06-06 17:46:25.391681+00:00
2023-06-06 10:46:25.592198-07:00,53.054663,4.38,-0.12,4.37,0.15,20.68,862.03,62.07,30.0,-1.0,,,,,,,,,,,,,,,,,,,,,,,,2023-06-06 17:46:25.592198+00:00
2023-06-06 10:46:25.791936-07:00,53.254401,4.04,0.11,4.04,0.13,21.09,862.03,60.53,33.0,-1.0,,,,,,,,,,,,,,,,,,,,,,,,2023-06-06 17:46:25.791936+00:00
2023-06-06 10:46:25.993442-07:00,53.455907,3.08,-0.13,3.07,0.19,21.09,862.04,60.68,40.0,-1.0,,,,,,,,,,,1.87481,10.5586,15996.5,28.6482,11866.0,-0.11019,-1.0,19.0,-1263.0,93.0,,0.0,2023-06-06 10:46:21.196,2023-06-06 17:46:25.993442+00:00
2023-06-06 10:46:26.192299-07:00,53.654764,2.73,-0.58,2.64,0.39,21.35,862.04,59.52,34.0,-1.0,,,,,,,,,,,,,,,,,,,,,,,,2023-06-06 17:46:26.192299+00:00
2023-06-06 10:46:26.391897-07:00,53.854362,3.79,-1.11,3.62,-0.05,21.84,862.03,58.52,30.0,-1.0,,,,,,,,,,,,,,,,,,,,,,,,2023-06-06 17:46:26.391897+00:00
2023-06-06 10:46:26.592111-07:00,54.054576,3.6,-0.95,3.47,-0.06,21.72,862.04,58.2,36.0,-1.0,,,,,,,,,,,,,,,,,,,,,,,,2023-06-06 17:46:26.592111+00:00
2023-06-06 10:46:26.791914-07:00,54.254379,4.53,-0.22,4.52,0.18,21.1,862.02,60.44,39.0,-1.0,,,,,,,,,,,,,,,,,,,,,,,,2023-06-06 17:46:26.791914+00:00
2023-06-06 10:46:26.992837-07:00,54.455302,3.84,-0.29,3.83,0.14,21.32,862.03,59.58,33.0,-1.0,,,,,,,,,,,1.86609,9.17364,15968.7,28.6483,11886.0,-0.0622373,-1.0,16.0,-1239.0,93.0,,0.0,2023-06-06 10:46:22.220,2023-06-06 17:46:26.992837+00:00
2023-06-06 10:46:27.192188-07:00,54.654653,4.65,-0.36,4.63,-0.05,21.05,862.01,60.67,31.0,-1.0,,,,,,,,,,,,,,,,,,,,,,,,2023-06-06 17:46:27.192188+00:00
2023-06-06 10:46:27.391858-07:00,54.854323,4.55,-0.01,4.55,0.14,21.02,862.02,60.72,38.0,-1.0,,,,,,,,,,,,,,,,,,,,,,,,2023-06-06 17:46:27.391858+00:00
2023-06-06 10:46:27.591442-07:00,55.053907,3.9,0.44,3.87,0.24,21.41,862.01,59.23,39.0,-1.0,,,,,,,,,,,,,,,,,,,,,,,,2023-06-06 17:46:27.591442+00:00
2023-06-06 10:46:27.791625-07:00,55.25409,3.31,0.72,3.19,0.5,21.66,862.03,58.41,32.0,-1.0,,,,,,,,,,,,,,,,,,,,,,,,2023-06-06 17:46:27.791625+00:00
2023-06-06 10:46:27.992865-07:00,55.45533,3.29,-0.81,3.18,0.18,21.97,862.03,57.94,32.0,-1.0,,,,,,,,,,,1.86462,9.18894,16008.1,28.6551,11922.0,-0.0562192,-1.0,17.0,-1290.0,93.0,,0.0,2023-06-06 10:46:23.244,2023-06-06 17:46:27.992865+00:00
2023-06-06 10:46:28.191959-07:00,55.654424,2.6,-0.99,2.35,0.53,22.32,862.05,56.1,39.0,-1.0,,,,,,,,,,,,,,,,,,,,,,,,2023-06-06 17:46:28.191959+00:00
2023-06-06 10:46:28.391760-07:00,55.854225,2.82,-0.78,2.69,0.31,22.06,862.04,57.67,36.0,-1.0,,,,,,,,,,,,,,,,,,,,,,,,2023-06-06 17:46:28.391760+00:00
2023-06-06 10:46:28.591530-07:00,56.053995,3.0,-0.58,2.94,0.11,21.5,862.06,59.61,30.0,-1.0,,,,,,,,,,,,,,,,,,,,,,,,2023-06-06 17:46:28.591530+00:00
2023-06-06 10:46:28.792083-07:00,56.254548,2.61,-0.83,2.46,0.28,21.4,862.05,60.04,33.0,-1.0,,,,,,,,,,,,,,,,,,,,,,,,2023-06-06 17:46:28.792083+00:00
2023-06-06 10:46:28.992987-07:00,56.455452,2.42,-0.91,2.16,0.58,22.41,862.06,56.4,39.0,-1.0,,,,,,,,,,,1.87343,9.19661,16195.7,28.6617,11926.0,-0.115701,-1.0,17.0,-1274.0,93.0,,0.0,2023-06-06 10:46:24.268,2023-06-06 17:46:28.992987+00:00
2023-06-06 10:46:29.191967-07:00,56.654432,3.59,-0.74,3.49,0.45,21.46,862.05,59.76,34.0,-1.0,,,,,,,,,,,,,,,,,,,,,,,,2023-06-06 17:46:29.191967+00:00
2023-06-06 10:46:29.391443-07:00,56.853908,3.93,-0.27,3.91,0.18,21.34,862.02,60.29,30.0,-1.0,,,,,,,,,,,,,,,,,,,,,,,,2023-06-06 17:46:29.391443+00:00
2023-06-06 10:46:29.591484-07:00,57.053949,3.3,1.08,3.06,0.54,21.8,862.02,58.48,34.0,-1.0,,,,,,,,,,,,,,,,,,,,,,,,2023-06-06 17:46:29.591484+00:00
2023-06-06 10:46:29.792242-07:00,57.254707,4.65,-0.19,4.64,0.1,21.61,862.03,59.15,40.0,-1.0,,,,,,,,,,,,,,,,,,,,,,,,2023-06-06 17:46:29.792242+00:00
2023-06-06 10:46:29.993321-07:00,57.455786,5.64,-0.26,5.63,-0.28,20.19,862.02,64.62,33.0,-1.0,,,,,,,,,,,1.85802,9.65313,16219.8,28.6681,11923.0,-0.0482472,-1.0,17.0,-1301.0,93.0,,0.0,2023-06-06 10:46:25.292,2023-06-06 17:46:29.993321+00:00
2023-06-06 10:46:30.191957-07:00,57.654422,5.1,-0.22,5.09,-0.26,20.01,862.03,65.37,30.0,-1.0,,,,,,,,,,,,,,,,,,,,,,,,2023-06-06 17:46:30.191957+00:00
2023-06-06 10:46:30.391886-07:00,57.854351,4.31,0.06,4.31,-0.05,20.56,862.03,63.08,36.0,-1.0,,,,,,,,,,,,,,,,,,,,,,,,2023-06-06 17:46:30.391886+00:00
2023-06-06 10:46:30.591413-07:00,58.053878,4.2,-0.12,4.2,-0.0,20.86,862.04,61.95,39.0,-1.0,,,,,,,,,,,,,,,,,,,,,,,,2023-06-06 17:46:30.591413+00:00
2023-06-06 10:46:30.791448-07:00,58.253913,4.71,-0.12,4.7,-0.15,20.48,862.03,63.55,32.0,-1.0,,,,,,,,,,,,,,,,,,,,,,,,2023-06-06 17:46:30.791448+00:00
2023-06-06 10:46:30.992857-07:00,58.455322,3.19,0.93,3.02,0.42,21.34,862.05,60.2,31.0,-1.0,,,,,,,,,,,1.87381,8.68519,16089.9,28.675,11938.0,-0.128607,-1.0,18.0,-1293.0,93.0,,0.0,2023-06-06 10:46:26.316,2023-06-06 17:46:30.992857+00:00
2023-06-06 10:46:31.191956-07:00,58.654421,4.15,0.65,4.09,0.08,20.53,862.04,63.17,38.0,-1.0,,,,,,,,,,,,,,,,,,,,,,,,2023-06-06 17:46:31.191956+00:00
2023-06-06 10:46:31.392163-07:00,58.854628,5.04,-0.27,5.03,-0.17,20.34,862.02,64.05,38.0,-1.0,,,,,,,,,,,,,,,,,,,,,,,,2023-06-06 17:46:31.392163+00:00
2023-06-06 10:46:31.592289-07:00,59.054754,4.76,0.17,4.76,-0.13,20.82,862.03,62.09,31.0,-1.0,,,,,,,,,,,,,,,,,,,,,,,,2023-06-06 17:46:31.592289+00:00
2023-06-06 10:46:31.791890-07:00,59.254355,4.36,0.38,4.34,0.02,20.73,862.01,62.45,31.0,-1.0,,,,,,,,,,,,,,,,,,,,,,,,2023-06-06 17:46:31.791890+00:00
2023-06-06 10:46:31.993152-07:00,59.455617,3.94,-0.75,3.87,-0.05,21.0,862.03,61.41,38.0,-1.0,,,,,,,,,,,1.86553,8.3135,15912.2,28.6817,11938.0,-0.103275,-1.0,18.0,-1293.0,93.0,,0.0,2023-06-06 10:46:27.340,2023-06-06 17:46:31.993152+00:00
2023-06-06 10:46:32.192102-07:00,59.654567,3.46,-0.65,3.4,0.04,21.25,862.05,60.55,37.0,-1.0,,,,,,,,,,,,,,,,,,,,,,,,2023-06-06 17:46:32.192102+00:00
2023-06-06 10:46:32.391944-07:00,59.854409,3.93,-0.5,3.9,-0.0,20.79,862.04,62.3,31.0,-1.0,,,,,,,,,,,,,,,,,,,,,,,,2023-06-06 17:46:32.391944+00:00
2023-06-06 10:46:32.591623-07:00,60.054088,3.36,-0.39,3.34,0.19,20.95,862.04,61.6,33.0,-1.0,,,,,,,,,,,,,,,,,,,,,,,,2023-06-06 17:46:32.591623+00:00
2023-06-06 10:46:32.791548-07:00,60.254013,2.57,-0.5,2.52,0.19,21.35,862.05,60.05,40.0,-1.0,,,,,,,,,,,,,,,,,,,,,,,,2023-06-06 17:46:32.791548+00:00
2023-06-06 10:46:32.996675-07:00,60.45914,3.24,0.04,3.24,0.15,21.24,862.06,60.53,35.0,-1.0,,,,,,,,,,,1.85855,8.55118,15931.4,28.6882,11900.0,-0.0643803,-1.0,19.0,-1274.0,93.0,,0.0,2023-06-06 10:46:28.364,2023-06-06 17:46:32.996675+00:00
2023-06-06 10:46:33.191932-07:00,60.654397,4.0,0.0,4.0,0.03,21.12,862.04,60.95,30.0,-1.0,,,,,,,,,,,,,,,,,,,,,,,,2023-06-06 17:46:33.191932+00:00
2023-06-06 10:46:33.391922-07:00,60.854387,3.19,0.11,3.18,0.18,21.37,862.05,59.98,34.0,-1.0,,,,,,,,,,,,,,,,,,,,,,,,2023-06-06 17:46:33.391922+00:00
2023-06-06 10:46:33.591884-07:00,61.054349,2.77,-0.03,2.77,0.19,21.62,862.04,59.11,40.0,-1.0,,,,,,,,,,,,,,,,,,,,,,,,2023-06-06 17:46:33.591884+00:00
2023-06-06 10:46:33.792147-07:00,61.254612,3.74,-1.08,3.58,-0.1,21.78,862.05,58.5,33.0,-1.0,,,,,,,,,,,,,,,,,,,,,,,,2023-06-06 17:46:33.792147+00:00
2023-06-06 10:46:33.993372-07:00,61.455837,3.77,-0.4,3.74,0.13,21.5,862.04,59.56,31.0,-1.0,,,,,,,,,,,1.8667,8.78241,16032.9,28.6948,11907.0,-0.0815042,-1.0,21.0,-1274.0,93.0,,0.0,2023-06-06 10:46:29.388,2023-06-06 17:46:33.993372+00:00
2023-06-06 10:46:34.191394-07:00,61.653859,4.8,-0.26,4.8,0.01,21.01,862.04,61.25,36.0,-1.0,,,,,,,,,,,,,,,,,,,,,,,,2023-06-06 17:46:34.191394+00:00
2023-06-06 10:46:34.391945-07:00,61.85441,4.37,-0.21,4.36,0.2,20.97,862.04,61.45,39.0,-1.0,,,,,,,,,,,,,,,,,,,,,,,,2023-06-06 17:46:34.391945+00:00
2023-06-06 10:46:34.592031-07:00,62.054496,3.52,-1.21,3.3,0.05,21.64,862.04,59.05,32.0,-1.0,,,,,,,,,,,,,,,,,,,,,,,,2023-06-06 17:46:34.592031+00:00
2023-06-06 10:46:34.792338-07:00,62.254803,2.39,-0.74,2.2,0.55,22.09,862.04,57.39,31.0,-1.0,,,,,,,,,,,,,,,,,,,,,,,,2023-06-06 17:46:34.792338+00:00
2023-06-06 10:46:34.993424-07:00,62.455889,3.35,-0.85,3.24,0.11,21.89,862.05,58.16,37.0,-1.0,,,,,,,,,,,1.86575,7.94711,16117.7,28.7012,11877.0,-0.103774,-1.0,17.0,-1269.0,93.0,,0.0,2023-06-06 10:46:30.412,2023-06-06 17:46:34.993424+00:00
2023-06-06 10:46:35.191744-07:00,62.654209,4.52,-0.88,4.43,-0.09,21.24,862.03,60.52,38.0,-1.0,,,,,,,,,,,,,,,,,,,,,,,,2023-06-06 17:46:35.191744+00:00
2023-06-06 10:46:35.392188-07:00,62.854653,4.59,-0.09,4.59,-0.02,21.16,862.03,60.89,30.0,-1.0,,,,,,,,,,,,,,,,,,,,,,,,2023-06-06 17:46:35.392188+00:00
2023-06-06 10:46:35.592363-07:00,63.054828,4.8,-0.07,4.8,0.11,21.23,862.01,60.56,31.0,-1.0,,,,,,,,,,,,,,,,,,,,,,,,2023-06-06 17:46:35.592363+00:00
2023-06-06 10:46:35.791447-07:00,63.253912,4.45,0.02,4.44,0.19,20.92,862.04,61.71,38.0,-1.0,,,,,,,,,,,,,,,,,,,,,,,,2023-06-06 17:46:35.791447+00:00
2023-06-06 10:46:35.993147-07:00,63.455612,4.84,-0.1,4.84,-0.01,20.94,862.02,61.5,36.0,-1.0,,,,,,,,,,,1.8773,7.7323,16197.9,28.708,11875.0,-0.220106,-1.0,17.0,-1248.0,93.0,,0.0,2023-06-06 10:46:31.436,2023-06-06 17:46:35.993147+00:00
2023-06-06 10:46:36.191848-07:00,63.654313,4.22,-0.04,4.22,0.23,21.19,862.03,60.63,31.0,-1.0,,,,,,,,,,,,,,,,,,,,,,,,2023-06-06 17:46:36.191848+00:00
2023-06-06 10:46:36.391691-07:00,63.854156,2.8,0.58,2.71,0.41,21.76,862.02,58.57,33.0,-1.0,,,,,,,,,,,,,,,,,,,,,,,,2023-06-06 17:46:36.391691+00:00
2023-06-06 10:46:36.591672-07:00,64.054137,1.96,0.21,1.9,0.43,22.23,862.04,56.79,40.0,-1.0,,,,,,,,,,,,,,,,,,,,,,,,2023-06-06 17:46:36.591672+00:00
2023-06-06 10:46:36.791863-07:00,64.254328,2.96,1.01,2.73,0.54,21.89,862.04,58.05,35.0,-1.0,,,,,,,,,,,,,,,,,,,,,,,,2023-06-06 17:46:36.791863+00:00
2023-06-06 10:46:36.992817-07:00,64.455282,2.8,1.13,2.49,0.62,21.8,862.04,58.34,30.0,-1.0,,,,,,,,,,,1.87178,8.50637,16239.2,28.7144,11881.0,-0.284269,-1.0,15.0,-1224.0,93.0,,0.0,2023-06-06 10:46:32.460,2023-06-06 17:46:36.992817+00:00
2023-06-06 10:46:37.192291-07:00,64.654756,2.63,-0.81,2.45,0.48,22.53,862.03,55.87,34.0,-1.0,,,,,,,,,,,,,,,,,,,,,,,,2023-06-06 17:46:37.192291+00:00
2023-06-06 10:46:37.391839-07:00,64.854304,3.31,-0.77,3.21,0.1,22.76,862.03,55.12,40.0,-1.0,,,,,,,,,,,,,,,,,,,,,,,,2023-06-06 17:46:37.391839+00:00
2023-06-06 10:46:37.591788-07:00,65.054253,2.51,-0.99,2.28,0.36,23.0,862.03,54.3,33.0,-1.0,,,,,,,,,,,,,,,,,,,,,,,,2023-06-06 17:46:37.591788+00:00
2023-06-06 10:46:37.791806-07:00,65.254271,2.35,-1.35,1.92,-0.05,23.18,862.08,53.72,30.0,-1.0,,,,,,,,,,,,,,,,,,,,,,,,2023-06-06 17:46:37.791806+00:00
2023-06-06 10:46:37.993218-07:00,65.455683,2.25,-1.21,1.9,-0.02,23.57,862.06,52.43,36.0,-1.0,,,,,,,,,,,1.87271,7.22067,16484.3,28.7212,11925.0,-0.341022,-1.0,17.0,-1241.0,93.0,,0.0,2023-06-06 10:46:33.484,2023-06-06 17:46:37.993218+00:00
2023-06-06 10:46:38.191995-07:00,65.65446,2.19,-1.2,1.83,0.03,23.63,862.07,52.19,40.0,-1.0,,,,,,,,,,,,,,,,,,,,,,,,2023-06-06 17:46:38.191995+00:00
2023-06-06 10:46:38.391703-07:00,65.854168,1.75,-0.9,1.47,0.32,23.3,862.06,53.34,33.0,-1.0,,,,,,,,,,,,,,,,,,,,,,,,2023-06-06 17:46:38.391703+00:00
2023-06-06 10:46:38.592130-07:00,66.054595,2.32,-1.21,1.97,0.21,23.34,862.06,53.14,31.0,-1.0,,,,,,,,,,,,,,,,,,,,,,,,2023-06-06 17:46:38.592130+00:00
2023-06-06 10:46:38.791979-07:00,66.254444,2.99,-1.21,2.73,-0.04,22.44,862.05,56.12,38.0,-1.0,,,,,,,,,,,,,,,,,,,,,,,,2023-06-06 17:46:38.791979+00:00
2023-06-06 10:46:38.993510-07:00,66.455975,3.09,-0.64,3.02,0.1,21.97,862.05,57.76,39.0,-1.0,,,,,,,,,,,1.8556,7.43599,16691.0,28.7276,11925.0,-0.204616,-1.0,16.0,-1301.0,93.0,,0.0,2023-06-06 10:46:34.508,2023-06-06 17:46:38.993510+00:00
2023-06-06 10:46:39.192268-07:00,66.654733,2.49,-0.39,2.44,0.22,22.17,862.07,57.04,31.0,-1.0,,,,,,,,,,,,,,,,,,,,,,,,2023-06-06 17:46:39.192268+00:00
2023-06-06 10:46:39.391437-07:00,66.853902,2.16,-1.06,1.87,0.22,22.79,862.06,54.94,31.0,-1.0,,,,,,,,,,,,,,,,,,,,,,,,2023-06-06 17:46:39.391437+00:00
2023-06-06 10:46:39.591785-07:00,67.05425,2.65,-1.27,2.32,-0.14,21.97,862.07,57.77,38.0,-1.0,,,,,,,,,,,,,,,,,,,,,,,,2023-06-06 17:46:39.591785+00:00
2023-06-06 10:46:39.791954-07:00,67.254419,1.94,-1.08,1.59,0.24,22.6,862.07,55.62,38.0,-1.0,,,,,,,,,,,,,,,,,,,,,,,,2023-06-06 17:46:39.791954+00:00
2023-06-06 10:46:40.031533-07:00,67.493998,1.79,-0.91,1.47,0.45,22.8,862.07,54.98,32.0,-1.0,,,,,,,,,,,1.85518,7.4135,16827.8,28.7345,11926.0,-0.0641327,-1.0,16.0,-1306.0,93.0,,0.0,2023-06-06 10:46:35.532,2023-06-06 17:46:40.031533+00:00
2023-06-06 10:46:40.191726-07:00,67.654191,2.51,-0.94,2.29,0.43,22.4,862.07,56.99,32.0,-1.0,,,,,,,,,,,,,,,,,,,,,,,,2023-06-06 17:46:40.191726+00:00
2023-06-06 10:46:40.392328-07:00,67.854793,2.69,-0.93,2.52,0.23,22.14,862.05,57.85,39.0,-1.0,,,,,,,,,,,,,,,,,,,,,,,,2023-06-06 17:46:40.392328+00:00
2023-06-06 10:46:40.592255-07:00,68.05472,2.86,-0.31,2.84,0.14,21.96,862.06,58.54,36.0,-1.0,,,,,,,,,,,,,,,,,,,,,,,,2023-06-06 17:46:40.592255+00:00
2023-06-06 10:46:40.792300-07:00,68.254765,2.63,-0.78,2.51,0.13,22.23,862.06,57.6,30.0,-1.0,,,,,,,,,,,,,,,,,,,,,,,,2023-06-06 17:46:40.792300+00:00
2023-06-06 10:46:41.023117-07:00,68.485582,2.19,-1.01,1.93,0.21,22.3,862.06,57.28,33.0,-1.0,,,,,,,,,,,1.85735,6.37986,16904.7,28.7408,11926.0,0.119265,-1.0,16.0,-1306.0,93.0,,0.0,2023-06-06 10:46:36.556,2023-06-06 17:46:41.023117+00:00
2023-06-06 10:46:41.191489-07:00,68.653954,2.11,-1.13,1.77,0.21,23.16,862.06,54.39,40.0,-1.0,,,,,,,,,,,,,,,,,,,,,,,,2023-06-06 17:46:41.191489+00:00
2023-06-06 10:46:41.391757-07:00,68.854222,2.09,-1.11,1.77,-0.01,23.63,862.07,52.81,35.0,-1.0,,,,,,,,,,,,,,,,,,,,,,,,2023-06-06 17:46:41.391757+00:00
2023-06-06 10:46:41.592240-07:00,69.054705,1.84,-1.0,1.54,0.03,23.2,862.07,54.25,30.0,-1.0,,,,,,,,,,,,,,,,,,,,,,,,2023-06-06 17:46:41.592240+00:00
2023-06-06 10:46:41.792335-07:00,69.2548,2.2,-1.25,1.81,-0.0,22.73,862.06,55.77,35.0,-1.0,,,,,,,,,,,,,,,,,,,,,,,,2023-06-06 17:46:41.792335+00:00
2023-06-06 10:46:42.047125-07:00,69.50959,2.27,-1.26,1.88,-0.06,22.98,862.07,55.03,40.0,-1.0,,,,,,,,,,,1.85993,6.66095,17098.1,28.7477,11908.0,0.153717,-1.0,17.0,-1264.0,93.0,,0.0,2023-06-06 10:46:37.580,2023-06-06 17:46:42.047125+00:00
2023-06-06 10:46:42.191772-07:00,69.654237,2.39,-1.44,1.9,-0.05,22.36,862.07,57.07,33.0,-1.0,,,,,,,,,,,,,,,,,,,,,,,,2023-06-06 17:46:42.191772+00:00
2023-06-06 10:46:42.391966-07:00,69.854431,3.39,-1.93,2.78,-0.16,21.58,862.07,59.85,31.0,-1.0,,,,,,,,,,,,,,,,,,,,,,,,2023-06-06 17:46:42.391966+00:00
2023-06-06 10:46:42.591926-07:00,70.054391,3.83,-1.83,3.36,-0.24,21.47,862.05,60.19,36.0,-1.0,,,,,,,,,,,,,,,,,,,,,,,,2023-06-06 17:46:42.591926+00:00
2023-06-06 10:46:42.791503-07:00,70.253968,3.99,-1.8,3.55,-0.27,21.34,862.05,60.69,39.0,-1.0,,,,,,,,,,,,,,,,,,,,,,,,2023-06-06 17:46:42.791503+00:00
2023-06-06 10:46:43.086938-07:00,70.549403,4.15,-1.88,3.7,-0.2,21.42,862.06,60.44,32.0,-1.0,,,,,,,,,,,,,,,,,,,,,,,,2023-06-06 17:46:43.086938+00:00
2023-06-06 10:46:43.192237-07:00,70.654702,4.18,-1.88,3.72,-0.34,21.67,862.05,59.52,31.0,-1.0,,,,,,,,,,,,,,,,,,,,,,,,2023-06-06 17:46:43.192237+00:00
2023-06-06 10:46:43.391803-07:00,70.854268,3.75,-2.27,2.99,0.02,21.7,862.05,59.36,38.0,-1.0,,,,,,,,,,,,,,,,,,,,,,,,2023-06-06 17:46:43.391803+00:00
2023-06-06 10:46:43.592264-07:00,71.054729,4.21,-2.01,3.7,-0.24,21.61,862.03,59.76,38.0,-1.0,,,,,,,,,,,,,,,,,,,,,,,,2023-06-06 17:46:43.592264+00:00
2023-06-06 10:46:43.792109-07:00,71.254574,4.39,-1.95,3.93,-0.22,21.4,862.03,60.54,31.0,-1.0,,,,,,,,,,,,,,,,,,,,,,,,2023-06-06 17:46:43.792109+00:00
2023-06-06 10:46:44.094691-07:00,71.557156,4.44,-2.42,3.72,-0.06,21.49,862.03,60.33,31.0,-1.0,,,,,,,,,,,,,,,,,,,,,,,,2023-06-06 17:46:44.094691+00:00
2023-06-06 10:46:44.191558-07:00,71.654023,4.37,-2.65,3.47,0.01,21.35,862.04,60.71,38.0,-1.0,,,,,,,,,,,,,,,,,,,,,,,,2023-06-06 17:46:44.191558+00:00
2023-06-06 10:46:44.391833-07:00,71.854298,4.8,-2.67,3.99,-0.02,21.25,862.03,61.87,37.0,-1.0,,,,,,,,,,,,,,,,,,,,,,,,2023-06-06 17:46:44.391833+00:00
2023-06-06 10:46:44.591745-07:00,72.05421,5.04,-2.18,4.55,0.1,21.3,862.01,61.62,31.0,-1.0,,,,,,,,,,,,,,,,,,,,,,,,2023-06-06 17:46:44.591745+00:00
2023-06-06 10:46:44.791441-07:00,72.253906,5.24,-2.14,4.78,-0.14,21.62,862.0,60.41,33.0,-1.0,,,,,,,,,,,,,,,,,,,,,,,,2023-06-06 17:46:44.791441+00:00
