Timestamp,Seconds,S,Um,Vm,Wm,T,P,H,MD,Sts,Vx,Vy,Vz,Lat,Lon,Alt,Yaw,Roll,Pitch,CH4,C2H6,H20,T_a,Batt,R,C2C1,Power,Current,SOC,Lat_a,Lon_a,TS,Timestamp_UTC,Rho,Rho_err,Sc,V,U,W,WD,V_err,U_err,Sc_avg,WD_avg,V_avg,U_avg,W_avg,U_err_avg,V_err_avg,Nx,Ny,cross_wind,cross_wind_err,CH4_sub,CH4_res,CH4_adj,CH4_adj_err,BG_Samples_CH4,C2H6_sub,C2H6_res,C2H6_adj,C2H6_adj_err,BG_Samples_C2H6,x_dist,y_dist,s_dist,z_dist,velocity_s,velocity_z,x_src_dist,y_src_dist,s_src_dist,collecting,group,transect_num
2023-08-31 10:28:38.976370-07:00,1.665706,2.01,-1.02,1.69,0.36,24.07,863.11,77.29,23.0,0.0,0.0079516,-0.000961003,-0.0405075,34.0613482,-106.883428,1397.1838599999999,-43.2502473,0.15904287,-0.547747733,1.84566,24.0121,19045.7,29.0409,,-0.708667,-1.0,,,,,,,2023-08-31 17:28:38.976370+00:00,1.0116329542116838,0.013554195647317078,1.9660394584684275,0.5310910813104522,-1.8929483393921036,0.31949249999999996,105.67214932220676,0.28712145036230813,0.05729123437182912,1.8947934416796617,107.33012551303275,0.5502332488008731,-1.8078670047658005,0.26326024,0.05798837276350337,0.28712164468659146,0.11998347596942895,0.992775888856238,0.3293441353343015,0.28298946289484184,,,,,,,,,,,2.44955107033119,-0.1844820047088604,2.4564881551153626,1.4202900000000227,2.4564881551153626,1.4202900000000227,100.34248447094718,103.86443828430593,144.4175741726632,False,,
2023-08-31 10:28:39.976223-07:00,2.665559,1.81,-0.9,1.55,0.31,23.84,863.11,78.64,23.0,0.0,0.013363,-0.00759348,-0.0719249,34.0613479,-106.883427,1397.0650899999998,-43.2056232,0.16463635,-0.554106346,1.84353,23.5033,19015.5,29.0509,,-0.698121,-1.0,,,,,,,2023-08-31 17:28:39.976223+00:00,1.0124164000498221,0.01356734299288158,1.7773695459941714,0.5060469707979313,-1.7038071975354971,0.23807509999999998,106.54192115151326,0.28711206769659536,0.0569034701567802,1.9183585295433125,106.38354424851582,0.5376734055928318,-1.8368938055900965,0.27991047999999996,0.057828097111256235,0.2871154370839655,0.4940520186135961,0.8694323452137209,-0.4400504426469738,0.217492690619578,,,,,,,,,,,2.416148056214221,-0.0922410003769046,2.417908152039339,1.3015199999999822,-0.038580003076023495,-0.11877000000004045,100.30908145683021,103.95667928863789,144.46073165893114,False,,
2023-08-31 10:28:40.976328-07:00,3.665664,1.77,-0.65,1.63,0.22,24.35,863.12,76.32,30.0,0.0,0.00216601,-0.00169544,-0.0270235,34.0613476,-106.883427,1397.14053,-43.1517642,0.160340161,-0.557826573,1.84448,23.6982,18990.7,29.0608,,-0.697072,-1.0,,,,,,,2023-08-31 17:28:40.976328+00:00,1.010692538835223,0.013538264713427575,1.7521412806731862,0.7429058172954927,-1.5868490835828053,0.1929765,115.08730776829296,0.28710730087786984,0.0630023330049263,1.820551670282534,110.4893377794441,0.6362168636375973,-1.7039803053694236,0.2651841,0.06013186174916826,0.2871077048564154,0.6163762895626124,0.7874517570397735,-0.5493029709816125,0.17948962294680504,,,,,,,,,,,2.382745115878533,-0.092241001794212,2.384529867637435,1.3769600000000537,-0.03337828440190416,0.07544000000007145,100.27567851649452,103.95667928722058,144.43753968539272,False,,
2023-08-31 10:28:41.976593-07:00,4.665929,2.01,-0.87,1.79,0.23,24.57,863.12,75.38,22.0,0.0,0.00245507,-0.0018077,-0.0013302,34.0613474,-106.883427,1397.15457,-43.0995817,0.157417027,-0.565104009,1.84556,23.0779,18881.3,29.0713,,-0.664588,-1.0,,,,,,,2023-08-31 17:28:41.976593+00:00,1.009945688242237,0.01352574332304137,1.9872867500715485,0.7107481589524773,-1.8558409634329127,0.2286698,110.95579169873844,0.2871056226558869,0.06210732332523752,2.0142940619350593,114.42988345688669,0.8385760956769035,-1.8277366469379168,0.22930843000000004,0.06628512327599943,0.2871085849859806,0.5929228720027321,0.8052592550576688,-0.40843569985312134,0.1876261337101513,,,,,,,,,,,2.360476475607271,-0.09224100221489749,2.3622780518780875,1.3910000000000764,-0.022251815759347426,0.014040000000022701,100.25340987622326,103.9566792867999,144.4220805837826,False,,
2023-08-31 10:28:44.176461-07:00,6.865797,1.36,-0.44,1.27,0.18,24.27,863.12,75.89,24.0,0.0,0.000121587,0.00171224,-0.00389088,34.061347,-106.883426,1397.1338099999998,-42.9958197,0.161065515,-0.523694704,1.84041,23.3682,19085.3,29.0974,,-0.561314,-1.0,,,,,,,2023-08-31 17:28:44.176461+00:00,1.0109643948069358,0.013542823809233323,1.3447555492515122,0.6305388325853247,-1.1877660829661167,0.17610911999999998,117.9620946225842,0.28707493425217406,0.05988658261961631,1.3879994873113533,110.41724261008531,0.47920152595347404,-1.2983601018965196,0.237837218,0.056501671205864315,0.28707397540689483,0.9974882503350034,-0.07083212861134051,-1.3290418104626234,0.05623663877160752,,,,,,,,,,,2.31593917562385,0.0,2.31593917562385,1.370239999999967,-0.046338876254237604,-0.020760000000109358,100.20887257623984,104.04892028901479,144.45759224184386,False,,
2023-08-31 10:28:44.976585-07:00,7.665921,0.88,-0.72,0.09,0.5,25.59,863.12,70.99,23.0,0.0,0.00665554,-0.0033645,-0.0256703,34.0613468,-106.883426,1397.07754,-42.9616081,0.156945166,-0.509649717,1.83838,23.23,19158.9,29.107,,-0.477428,-1.0,,,,,,,2023-08-31 17:28:44.976585+00:00,1.0064973900498053,0.013467996861293813,0.722207829523539,-0.4281874228905307,-0.5815837686038591,0.4743297,413.63787348612715,0.2870519780616732,0.05524852413921031,0.8604565130069528,288.8281828026726,-0.09027550891516796,-0.7779538609433764,0.26418786,0.0538065959889085,0.2870572204669884,0.45114938806321575,0.8924484464943541,-0.4315396459938492,0.22889295133227358,,,,,,,,,,,2.293670509949914,0.0,2.293670509949914,1.313970000000154,-0.022268665673935928,-0.05626999999981308,100.1866039105659,104.04892028901479,144.4421455685368,False,,
2023-08-31 10:28:46.175837-07:00,8.865173,0.7,-0.61,0.31,0.14,25.71,863.12,70.59,29.0,0.0,0.00373323,-0.00224158,-0.0314018,34.0613466,-106.883426,1397.0510499999998,-42.911451,0.150553634,-0.466146023,1.83661,23.1006,19131.0,29.1175,,-0.297547,-1.0,,,,,,,2023-08-31 17:28:46.175837+00:00,1.006093255382048,0.013461236202193996,0.6812865405169057,-0.19052448896311663,-0.6541037909956161,0.1085982,433.76044607072026,0.2870442214398712,0.051912226452965345,0.6281669698649782,369.3379925230798,0.022794955407046014,-0.5541539276084888,0.0652997,0.053597675288027814,0.28704694527719493,0.5147729939822715,0.8573265216161974,-0.26572075661253763,0.2114595370483567,,,,,,,,,,,2.2714018545636354,0.0,2.2714018545636354,1.2874799999999595,-0.022268655386278535,-0.026490000000194414,100.16433525517962,104.04892028901479,144.42670068384783,False,,
2023-08-31 10:28:47.176275-07:00,9.865611,1.06,-0.26,1.0,0.22,25.09,863.13,73.13,25.0,0.0,-0.00407681,-0.000732721,-0.0806251,34.0613464,-106.883426,1396.93069,-42.8569692,0.145211631,-0.510683411,1.83396,23.9619,19308.7,29.1279,,-0.302736,-1.0,,,,,,,2023-08-31 17:28:47.176275+00:00,1.0081964657864844,0.013496280225950529,1.0362924044447692,0.5554768782025274,-0.8748413486411667,0.1393749,122.41333599212513,0.28704551103651027,0.05818323666647635,1.2845547687293362,126.80843085507782,0.770595721758625,-0.9811618575396203,0.08934156,0.06541029942056314,0.2870539411501223,0.17689464028448357,-0.9842297934113878,-0.9320055418805177,0.2780790642264987,,,,,,,,,,,2.249133166267812,0.0,2.249133166267812,1.167120000000068,-0.022268688295823402,-0.12035999999989144,100.1420665668838,104.04892028901479,144.411257558391,False,,
2023-08-31 10:28:49.176010-07:00,11.865346,1.62,-0.95,1.28,0.31,26.01,863.14,70.29,29.0,0.0,-0.0011325,-0.00178168,-0.101362,34.0613459,-106.883425,1396.77065,-42.7756695,0.149904443,-0.50978131,1.83211,23.045,19319.1,29.1483,,-0.0340851,-1.0,,,,,,,2023-08-31 17:28:49.176010+00:00,1.00510762671762,0.013444442621662481,1.5948052753718573,0.2925885879840091,-1.5677358784359787,0.208638,100.57156537896225,0.2870397702522464,0.053264859084219775,1.7420864971685375,106.05776866012067,0.47403178455729966,-1.6726917808381032,0.19678398,0.05659965792022568,0.2870479379869698,0.8439395060706437,-0.5364383562845203,-1.66593950666347,0.0919144921928725,,,,,,,,,,,2.1934614979904485,0.09224099946992802,2.1954001332672166,1.0070800000000872,-0.0537330330005954,-0.16003999999998086,100.08639489860644,104.14116128848471,144.43914953472267,False,,
2023-08-31 10:28:49.976408-07:00,12.665744,3.0,-1.31,2.69,0.19,23.44,863.12,81.96,30.0,0.0,-0.00117915,0.00475253,-0.0706377,34.0613457,-106.883425,1396.79336,-42.7503124,0.154338879,-0.439532454,1.83267,23.0115,19470.5,29.1589,,0.00555837,-1.0,,,,,,,2023-08-31 17:28:49.976408+00:00,1.0137935544134287,0.013590309826653124,2.9948492564994966,1.0908359027488335,-2.789121564656106,0.1193623,111.36065434903313,0.28711056806925533,0.0746472716257319,3.070370332024981,111.41413577422318,1.1429774615138337,-2.8426304012001133,0.19412186000000003,0.07771121456844003,0.2871202275836374,0.9705725936708807,0.2408087216339548,-2.4837402199769207,0.07507437740270877,,,,,,,,,,,2.1711928608362108,0.09224100001597282,2.1731513617394613,1.0297900000000482,-0.022248771527755284,0.022709999999960928,100.0641262614522,104.14116128903076,144.4237197938613,False,,
2023-08-31 10:28:50.175752-07:00,12.865088,3.56,-1.53,3.21,0.27,23.23,863.11,83.32,25.0,0.0,-5.88795e-07,7.94986e-05,-0.0592626,34.0613456,-106.883425,1396.82119,-42.7408099,0.150992297,-0.43894432,1.83267,23.0115,19470.5,29.1589,,0.00555837,-1.0,,,,,,,2023-08-31 17:28:50.175752+00:00,1.0145001236615043,0.013602338306143269,3.556010915978041,1.3192193032131374,-3.302252877140821,0.21073740000000002,111.77624910512179,0.2871510830003014,0.08351431035598429,3.434128753630302,113.29674113605184,1.3541055022260768,-3.153998577856089,0.18650988000000002,0.08501440864854357,0.28714640955586107,0.9999725740674821,0.007406153715261508,-3.143883363007763,0.08500974697270004,,,,,,,,,,,2.1600585488403707,0.09224100052720687,2.1620271359528838,1.0576200000000426,-0.011124225786577568,0.02782999999999447,100.05299194945636,104.141161289542,144.41600559762196,False,,
2023-08-31 10:28:51.975762-07:00,14.665098,2.74,-1.17,2.46,0.3,23.69,863.11,79.94,22.0,0.0,0.00123094,-0.0016488,-0.00249262,34.061345,-106.883424,1396.8239999999998,-42.6470796,0.143825036,-0.513616294,1.83261,22.7575,19379.1,29.1791,,0.321513,-1.0,,,,,,,2023-08-31 17:28:51.975762+00:00,1.012927997071812,0.013575931367255127,2.722302275979243,1.0151289206011418,-2.52595387059244,0.29750738,111.89418017461188,0.28708214952092187,0.07224563089601,2.7446523406903123,121.24094569093464,1.4285770115930405,-2.3250517731649354,0.24992865000000003,0.08866876618868205,0.2870962084447474,0.8013184304060358,0.5982380572076698,-1.008477701498337,0.11746861041047509,,,,,,,,,,,2.093252615291383,0.1844820012682516,2.1013662508511346,1.0604299999999967,-0.06066088510174916,0.002809999999954016,99.98618601590736,104.23340229028304,144.436281962032,False,,
2023-08-31 10:28:52.976091-07:00,15.665427,2.84,-1.07,2.62,0.24,23.95,863.08,78.92,29.0,0.0,0.00104639,-0.0012067,-0.00268303,34.0613448,-106.883424,1396.725,-42.5917781,0.153293098,-0.479708093,1.83445,22.2988,18864.0,29.1896,,0.348782,-1.0,,,,,,,2023-08-31 17:28:52.976091+00:00,1.0120063806555037,0.013560932927352515,2.8286102304824836,1.20347787539506,-2.5598196888501272,0.23731697,115.18017209869103,0.28708770608843687,0.07917960724540658,2.8713235003092037,116.59228896051381,1.2935457344984087,-2.545154038070763,0.2087884826,0.0833956164249796,0.28709375421048644,0.7555082970149636,0.6551390792355082,-1.0754326314952936,0.13209750252510058,,,,,,,,,,,2.0709839380833217,0.18448199884073693,2.0791844746667807,0.961430000000064,-0.022181776184353907,-0.0989999999999327,99.9639173386993,104.23340228785553,144.42086733640755,False,,
2023-08-31 10:28:53.976298-07:00,16.665634,2.99,-1.46,2.59,0.38,23.16,863.11,81.66,25.0,0.0,0.00076201,-0.000915591,-0.000666202,34.0613444,-106.883424,1396.69741,-42.5490795,0.159477834,-0.463076072,1.83664,22.3854,18737.8,29.1988,,0.451406,-1.0,,,,,,,2023-08-31 17:28:53.976298+00:00,1.014739788231233,0.01360636593686984,2.9721552677651024,0.919849747048471,-2.826231303088746,0.379333798,108.02844577809361,0.2870801950265036,0.06903491852178688,3.115157173036772,112.05499791216243,1.172864375990881,-2.8821062613339636,0.2786717274,0.07824585108984806,0.2871003633364451,0.7686267627610032,0.6396975063008614,-1.4649855890318602,0.12625239749323336,,,,,,,,,,,2.0264466405796417,0.18448199891361627,2.0348266744466663,0.9338400000001457,-0.044357800220114374,-0.02758999999991829,99.91938004119562,104.2334022879284,144.39004349446677,False,,
2023-08-31 10:28:54.175695-07:00,16.865031,3.23,-1.37,2.9,0.37,22.99,863.09,82.78,21.0,0.0,0.000431523,0.000134316,0.000696299,34.0613444,-106.883424,1396.67581,-42.5435369,0.156444768,-0.459589094,1.83664,22.3854,18737.8,29.1988,,0.451406,-1.0,,,,,,,2023-08-31 17:28:54.175695+00:00,1.0152987753948548,0.01361607743883528,3.20697083017967,1.210423413511339,-2.9697705409083106,0.370696299,112.17489817880053,0.2871067499329371,0.07942895715050532,3.114080030610373,112.9242674684682,1.2149368045256748,-2.862990020357162,0.2941478308,0.0798482028604656,0.28710092563096296,0.29719647055119736,-0.9548163477297146,-2.0109120516930643,0.26183752291866197,,,,,,,,,,,2.0264466337184035,0.18448199828898845,2.0348266675570543,0.9122400000001107,-6.889611992022537e-09,-0.021600000000034925,99.9193800343344,104.23340228730378,144.3900434892678,False,,
2023-08-31 10:28:55.175816-07:00,17.865152,3.19,-1.33,2.88,0.34,23.23,863.1,81.41,27.0,0.0,0.000636968,-0.000397532,0.00118754,34.061344,-106.883424,1396.6289299999999,-42.4968019,0.15417171,-0.456835693,1.83817,21.8861,18776.6,29.2092,,0.472036,-1.0,,,,,,,2023-08-31 17:28:55.175816+00:00,1.014488369654209,0.013602298386668961,3.1715294127596194,1.224589557168755,-2.925573316885531,0.34118754,112.71326182562044,0.2871001691278877,0.08002552674355463,2.8876916245256767,112.09588424260292,1.0870772580989232,-2.674895036519584,0.38933611999999995,0.07499428563736776,0.2870765702935998,0.5294500500150581,0.848341113314127,-0.4940109794762153,0.20767078791488233,,,,,,,,,,,1.9819093293414183,0.18448199780404037,1.9904768768424115,0.8653600000000097,-0.044349790714642845,-0.04688000000010106,99.87484272995741,104.23340228681883,144.35922680112807,False,,
2023-08-31 10:28:55.976181-07:00,18.665517,3.11,-1.61,2.63,0.4,22.95,863.1,82.97,27.0,0.0,0.00178255,-0.0014665,-0.00178953,34.0613438,-106.883424,1396.58096,-42.4633464,0.155064224,-0.463648173,1.84384,21.4464,18401.5,29.2192,,0.408315,-1.0,,,,,,,2023-08-31 17:28:55.976181+00:00,1.015447696717712,0.013618423406693803,3.0815480563088284,0.8517685191420885,-2.9614909780614243,0.39821047000000004,106.04601643100239,0.2870732301407502,0.06690837129083141,2.9806070625688954,108.77592728618181,0.9597938307979961,-2.8194349264400955,0.36598984999999995,0.07060669944035118,0.28707228424707576,0.6353245075268468,0.7722452784807231,-1.0500598519958666,0.1735551639024389,,,,,,,,,,,1.95964067163398,0.18448199685220887,1.9683051514144485,0.8173900000001595,-0.022171725427962974,-0.04796999999985019,99.85257407224996,104.233402285867,144.34382113877112,False,,
2023-08-31 10:28:57.976225-07:00,20.665561,2.9,-0.23,2.88,0.26,22.83,863.11,82.71,21.0,0.0,-4.44548e-05,-0.000145113,-0.00192385,34.0613434,-106.883424,1396.50283,-42.3721781,0.151695705,-0.471644723,1.84762,21.7605,17851.7,29.2382,,0.339963,-1.0,,,,,,,2023-08-31 17:28:57.976225+00:00,1.015871162412314,0.013625386133124544,2.8891028322421812,1.9725419594389613,-2.110922403482064,0.25807615,133.05910331743428,0.2870871163983981,0.11134136397421397,2.6185641930891825,132.600096948288,1.735116097188022,-1.9319803863970655,0.25982822599999994,0.10109645582407567,0.2870590075124556,0.9561400856112992,-0.29290977567711446,-2.355476358850135,0.09564797001521642,,,,,,,,,,,1.9151033590289543,0.1844819954635747,1.9239684203266452,0.7392600000000584,-0.04433673108780334,-0.07813000000010106,99.80803675964495,104.23340228447836,144.31301519132825,False,,
2023-08-31 10:28:58.976251-07:00,21.665587,2.12,0.19,2.08,0.39,23.42,863.11,78.93,26.0,0.0,0.000304339,-0.000580691,0.000772191,34.0613431,-106.883424,1396.4919699999998,-42.3301594,0.150425035,-0.475172209,1.84662,21.81,17750.1,29.2478,,0.218175,-1.0,,,,,,,2023-08-31 17:28:58.976251+00:00,1.0138501758465004,0.013591418407810854,2.0880131511321753,1.6650612429131046,-1.2599087175861527,0.390772191,142.88615077729037,0.28700758811998256,0.09802799686533566,2.0397239434703844,142.50169139534447,1.6143096845362301,-1.2185627428599417,0.33993209799999996,0.09624598981067473,0.287003407333141,0.885726484189686,0.46420749154335916,-0.3299386447651619,0.09760169319495901,,,,,,,,,,,1.8817003909653718,0.18448199580256994,1.8907220758574044,0.7283999999999651,-0.033246344469240796,-0.01086000000009335,99.77463379158137,104.23340228481736,144.2899154484219,False,,
2023-08-31 10:28:59.175821-07:00,21.865157,1.98,-0.3,1.92,0.37,23.48,863.12,78.73,29.0,0.0,-6.57624e-05,0.000116143,0.0013675,34.061343,-106.883424,1396.4866,-42.3221531,0.148632234,-0.475392277,1.84662,21.81,17750.1,29.2478,,0.218175,-1.0,,,,,,,2023-08-31 17:28:59.175821+00:00,1.0136568462511506,0.01358801355854829,1.943420193870988,1.2177185920773346,-1.5146100093604105,0.3713675,128.79864161452227,0.28699409505562473,0.07988123506435797,2.0139452195432725,141.41226887730423,1.5714483249333804,-1.2360513524421513,0.31840327600000007,0.09442603354872366,0.28700050488636525,0.8701891425957812,0.4927178260509956,-0.3013178641733375,0.09983592652588956,,,,,,,,,,,1.8705660670813904,0.18448199586496197,1.879641193982155,0.723030000000108,-0.011080881875249471,-0.0053699999998571,99.76349946769737,104.23340228487974,144.2822164298942,False,,
2023-08-31 10:28:59.976465-07:00,22.665801,1.73,-0.29,1.69,0.25,23.91,863.12,76.78,29.0,0.0,-0.000358022,0.000221202,0.000835028,34.0613428,-106.883424,1396.50686,-42.2899389,0.150618634,-0.475765282,1.84608,20.797,17703.1,29.2576,,0.135446,-1.0,,,,,,,2023-08-31 17:28:59.976465+00:00,1.012189558686726,0.013563378544173851,1.7151194731154065,1.0552614972743222,-1.3520569438562953,0.250835028,127.97153900647817,0.28697226209301585,0.07390278047420952,1.783648033530978,127.22778096981924,1.0689622166732462,-1.3912261961689878,0.2713370892,0.07504105345477503,0.28697478066168214,0.5256145914330095,0.8507228110687467,0.17814175320428027,0.20872420036761843,,,,,,,,,,,1.848297429059392,0.18448199688620254,1.8574813574953262,0.7432900000001155,-0.022159836486828732,0.020260000000007494,99.74123082967537,104.233402285901,144.26681974561254,False,,
2023-08-31 10:29:00.175942-07:00,22.865278,1.74,-0.5,1.64,0.26,23.69,863.11,77.78,23.0,0.0,-0.00062832,0.000873499,0.00166012,34.0613427,-106.883424,1396.51711,-42.281846,0.150469174,-0.479093407,1.84608,20.797,17703.1,29.2576,,0.135446,-1.0,,,,,,,2023-08-31 17:29:00.175942+00:00,1.012927997071812,0.013575931367255127,1.7155129197602312,0.8778290859326582,-1.473906602792357,0.26166012,120.77717610210559,0.28696747000112055,0.0678420415417676,1.675872398898472,125.88007339004874,0.9610726100344916,-1.3523174921429388,0.2525506832,0.07085028536736585,0.2869661994042425,0.8117983545678122,0.583937866147583,-0.5366024258584788,0.10841983478529572,,,,,,,,,,,1.8371631103840433,0.18448199740029297,1.8464024213374435,0.7535400000001573,-0.01107893615788269,0.010250000000041837,99.73009651100003,104.23340228641509,144.2591220765433,False,,
2023-08-31 10:29:01.175724-07:00,23.86506,1.4,0.26,1.37,0.06,24.29,863.11,74.98,23.0,0.0,-0.000760452,0.000954142,-0.0039746,34.0613424,-106.883424,1396.49868,-42.2372969,0.145350119,-0.490401884,1.84846,21.1172,17694.1,29.2674,,0.0672334,-1.0,,,,,,,2023-08-31 17:29:01.175724+00:00,1.010884704985196,0.013541644211603402,1.3956641584233958,1.1900298749698293,-0.7291826518691857,0.056025399999999996,148.50240098786742,0.2869424090037353,0.0788708357408167,1.6355836607869108,140.2530584369676,1.2407325517443148,-1.0181038093250474,0.10840116200000001,0.08140822047080619,0.28695718134947235,0.7820115768390505,0.6232639037275476,-0.022865151634121283,0.1220829110606816,,,,,,,,,,,1.8037601395297373,0.18448199752037928,1.813169668940402,0.735110000000077,-0.03323275239704149,-0.018430000000080327,99.69669354014573,104.23340228653517,144.23603175026832,False,,
2023-08-31 10:29:02.175803-07:00,24.865139,2.02,0.24,2.01,0.14,23.95,863.11,76.68,29.0,0.0,-0.000313576,0.000165785,-0.0027262,34.061342,-106.883424,1396.4991699999998,-42.1942363,0.15393329,-0.481354119,1.84827,21.1062,17737.2,29.2766,,-0.041165,-1.0,,,,,,,2023-08-31 17:29:02.175803+00:00,1.012041557222473,0.013561051889135839,2.0245943986024915,1.6505138913449862,-1.1725128456992766,0.1372738,144.6102957956475,0.28697859298955924,0.09747211036538642,1.902882075309023,134.01375730470164,1.321379420238002,-1.3249801438446034,0.1986467234,0.08484554368111163,0.28696722090128884,0.4673903676808399,0.8840510416255214,0.5488838962425919,0.22504272942234918,,,,,,,,,,,1.7592228532134198,0.18448199840527463,1.7688693154113928,0.7355999999999767,-0.044300353529009184,0.0004899999998997373,99.6521562538294,104.23340228742006,144.2052509392386,False,,
2023-08-31 10:29:02.976447-07:00,25.665783,1.69,-0.88,1.42,0.29,24.3,863.11,75.85,30.0,0.0,-0.000700743,0.00037831,0.000318455,34.0613416,-106.883424,1396.49172,-42.1603543,0.150343953,-0.486060341,1.84348,19.9702,17825.7,29.286,,-0.127104,-1.0,,,,,,,2023-08-31 17:29:02.976447+00:00,1.0108507199556116,0.013541074254921494,1.6713468034057484,0.46231770410039763,-1.606132770890984,0.290318455,106.05821327255944,0.28692926016256093,0.056831451789366876,1.9194772998193996,113.8184894269142,0.7053640304810382,-1.6775738922009054,0.1956878694,0.06622924894567997,0.286945315262772,0.47506022472591974,0.8799532844892157,-0.17626123484095713,0.22268903575728335,,,,,,,,,,,1.7146855626313429,0.18448199906056154,1.724581162680883,0.7281500000001415,-0.0442881527305099,-0.0074499999998351996,99.60761896324733,104.23340228807535,144.1744773116075,False,,
2023-08-31 10:29:03.175710-07:00,25.865046,2.24,-1.3,1.81,0.17,23.79,863.12,78.29,24.0,0.0,-0.000751399,0.000342324,-0.00181419,34.0613415,-106.883424,1396.49661,-42.1545386,0.153149457,-0.483563817,1.84348,19.9702,17825.7,29.286,,-0.127104,-1.0,,,,,,,2023-08-31 17:29:03.175710+00:00,1.012598606800966,0.013570244266526633,2.229281464576572,0.46969054886238315,-2.1792399217649305,0.16818581000000002,102.16287617075619,0.28695508192680896,0.05699006662745073,1.9084073032489495,111.05017977182024,0.6293249483244756,-1.7109062572391056,0.2171633676,0.06378731616825542,0.28694167837203255,0.4145846820681724,0.910010736966566,-0.13662306668971924,0.2378748093425809,,,,,,,,,,,1.703551242336433,0.1844819994196517,1.71351114480644,0.7330400000000736,-0.01107001787444295,0.004889999999932115,99.59648464295242,104.23340228843443,144.16678502989677,False,,
2023-08-31 10:29:04.175900-07:00,26.865236,2.15,-0.61,2.01,0.46,23.79,863.12,78.32,21.0,0.0,-0.000603432,0.000886111,-0.000208637,34.0613411,-106.883424,1396.47048,-42.122852,0.151922661,-0.482254882,1.84332,20.5956,17972.7,29.2964,,-0.221478,-1.0,,,,,,,2023-08-31 17:29:04.175900+00:00,1.012598606800966,0.013570244266526633,2.1014973762002107,1.082579246050973,-1.8011977676524245,0.459791363,121.00725500297048,0.28696573882952386,0.07501139886233751,2.1218083697018857,118.08606113023237,0.9922102402448372,-1.8704498486648204,0.37169609060000003,0.07201707340725784,0.286964877108934,0.8265461380885237,0.5628689737505053,-0.9875287392308172,0.1033756543099305,,,,,,,,,,,1.6590139483959645,0.18448199953475108,1.6692396140532695,0.7069100000001072,-0.044271530753170474,-0.026129999999966458,99.55194734901195,104.23340228854954,144.1360203891694,False,,
2023-08-31 10:29:04.976644-07:00,27.66598,2.42,-1.15,2.09,0.41,23.5,863.12,79.62,22.0,0.0,0.000253005,-5.5312e-05,0.00148043,34.0613408,-106.883424,1396.46365,-42.0839219,0.150429095,-0.472414533,1.84141,19.8578,18166.9,29.3063,,-0.256982,-1.0,,,,,,,2023-08-31 17:29:04.976644+00:00,1.0135885059952092,0.013586865721109514,2.385240673132193,0.7803161912652782,-2.2539919499442247,0.41148042999999995,109.09549428932027,0.2869659883151366,0.06503457358375514,2.2829297276653002,110.2120157795271,0.7940197206094812,-2.1374901350670497,0.3597258436,0.06576849857408198,0.28696094134792177,0.2135758491945916,0.9769264847678197,0.3191826237493394,0.27388775100406965,,,,,,,,,,,1.6256109812563653,0.18448199999028567,1.6360454366250647,0.7000800000000709,-0.03319417742820474,-0.006830000000036307,99.51854438187236,104.23340228900507,144.11295163387732,False,,
2023-08-31 10:29:06.176490-07:00,28.865826,1.88,-1.12,1.5,0.12,24.17,863.1,75.66,27.0,0.0,-0.000353779,-7.14722e-05,-0.0037092,34.0613404,-106.883424,1396.42617,-42.0388054,0.154333176,-0.493676974,1.84129,19.6387,18115.8,29.3161,,-0.292786,-1.0,,,,,,,2023-08-31 17:29:06.176490+00:00,1.0112809868092107,0.013548447935912393,1.8723374043677774,0.36397590119192486,-1.8366188769437692,0.1162908,101.20947293014504,0.28690856724987474,0.055179917436601375,2.009144300572402,104.13747154302276,0.4827762502185319,-1.9433576854862888,0.1976975364,0.05780227355295801,0.28692036390509557,0.19802431394360256,-0.9801971082834133,-0.8580479568275643,0.2756784935634409,,,,,,,,,,,1.5810736843440256,0.18448199977716623,1.59180011419995,0.6626000000001113,-0.0442453224251147,-0.037479999999959546,99.47400708496001,104.23340228879195,144.08219958841485,False,,
2023-08-31 10:29:07.175731-07:00,29.865067,2.64,-1.0,2.43,0.23,23.7,863.13,78.13,22.0,0.0,0.000217681,0.000400844,0.000358663,34.0613401,-106.883424,1396.43301,-42.0048145,0.154826614,-0.461767782,1.84529,18.8411,18036.4,29.3258,,-0.356286,-1.0,,,,,,,2023-08-31 17:29:07.175731+00:00,1.0129173453129898,0.013575437957324068,2.6276947814715035,1.1369130840206139,-2.369010026140731,0.23035866300000002,115.63684380654612,0.2869881320845174,0.077120504754498,2.3573232141802842,109.9866650398385,0.8190970029778069,-2.2013409163863766,0.2611222742,0.06728277758063714,0.28695411619054034,0.8787799092650903,-0.47722727402364556,-2.3253896006555874,0.08349098062319787,,,,,,,,,,,1.5476707215444956,0.1844820006280092,1.5586270467567835,0.6694400000001224,-0.033173067443166504,0.0068400000000110595,99.44060412216048,104.2334022896428,144.0591402898641,False,,
2023-08-31 10:29:08.175805-07:00,30.865141,2.95,-1.23,2.67,0.23,23.84,863.11,77.26,26.0,0.0,1.24481e-05,-0.00119852,-0.00464862,34.0613398,-106.883424,1396.43264,-41.9658761,0.150586205,-0.478092536,1.84326,19.5928,18047.0,29.3355,,-0.389003,-1.0,,,,,,,2023-08-31 17:29:08.175805+00:00,1.0124164000498221,0.01356734299288158,2.939208567209538,1.1615757483233686,-2.6999423665080244,0.22535138000000002,113.27845922062679,0.2870117262239859,0.07812965353340857,2.7230148817355935,113.2040698228894,1.0729757458139966,-2.5013327753795926,0.23513226400000004,0.07496988342373175,0.28698738318746964,0.99994606751453,0.01038566619081927,-2.490054304359159,0.07496180340885726,,,,,,,,,,,1.5142677555454047,0.18448200127035377,1.5254640094991532,0.669070000000147,-0.03316303725763037,-0.0003699999999753345,99.40720115616139,104.23340229028514,144.0360850436791,False,,
2023-08-31 10:29:09.176369-07:00,31.865705,2.97,-0.41,2.93,0.21,23.76,863.12,77.85,29.0,0.0,0.000911705,-0.000940253,-0.00473298,34.0613395,-106.883424,1396.4242199999999,-41.9324938,0.151255875,-0.495595581,1.84308,18.8153,18062.7,29.3455,,-0.446188,-1.0,,,,,,,2023-08-31 17:29:09.176369+00:00,1.0127009204926707,0.013571961804511605,2.957243917758917,1.9047981360805664,-2.262086569940706,0.20526702,130.09917553684392,0.2870432563474355,0.10866776946582635,2.8426528689740076,125.89163420834919,1.659685687483422,-2.2843167240339755,0.1986701944,0.09840615237510682,0.28702009444995186,0.7179215655681058,0.6961240016636691,-0.48461319649700085,0.14804589004229673,,,,,,,,,,,1.4808647890980844,0.18448200167990872,1.4923116740595244,0.6606500000000324,-0.03315233543962881,-0.008420000000114669,99.37379818971407,104.2334022906947,144.01303385368914,False,,
2023-08-31 10:29:10.175840-07:00,32.865176,2.99,0.14,2.98,0.18,23.88,863.12,77.22,22.0,0.0,0.00180275,-0.00192475,-0.004137,34.0613392,-106.883424,1396.4599899999998,-41.9122184,0.153528768,-0.451433751,1.84251,18.569,18090.6,29.3552,,-0.465021,-1.0,,,,,,,2023-08-31 17:29:10.175840+00:00,1.0122917897299224,0.013565094310662466,2.9806557476807374,2.309217984358178,-1.884627545935528,0.175863,140.78100240725328,0.28704827338970185,0.12682891793315193,3.018101049754866,141.76994158352517,2.3556061150785803,-1.878028544358451,0.10162201600000001,0.12899200259848587,0.28705525920921227,0.7298593617546484,0.6835973318109846,0.23958934032288615,0.15071735571303735,,,,,,,,,,,1.4474618313487981,0.1844820033673482,1.4591707791681023,0.6964199999999892,-0.033140894891422024,0.03576999999995678,99.34039523196479,104.23340229238214,143.98998672924637,False,,
2023-08-31 10:29:10.975953-07:00,33.665289,2.68,-0.42,2.62,0.35,23.8,863.12,77.57,21.0,0.0,0.00145899,-0.00114211,-0.00958321,34.061339,-106.883424,1396.4334999999999,-41.8875077,0.152119637,-0.467106497,1.84471,18.9408,18148.8,29.3647,,-0.52608,-1.0,,,,,,,2023-08-31 17:29:10.975953+00:00,1.0125645068310452,0.01356967185234623,2.6515979853152007,1.668914082059369,-2.060509078463758,0.34041678999999997,129.0058224939991,0.2869936168529535,0.09853206694595748,2.621277380043934,135.3648375861813,1.8466429678708973,-1.8306315223585021,0.21044601,0.10629079819720699,0.28699125606677006,0.6164059042071075,0.787428575337864,0.32568736253883945,0.18247246615834672,,,,,,,,,,,1.425193181631942,0.1844820030366743,1.4370835794812358,0.6699300000000221,-0.022087199686866565,-0.02648999999996704,99.31812658224793,104.23340229205147,143.97462422657702,False,,
2023-08-31 10:29:11.175801-07:00,33.865137,2.88,-0.16,2.87,0.08,23.5,863.14,79.0,24.0,0.0,0.00117271,-0.000794323,-0.00635925,34.0613389,-106.883424,1396.4252,-41.8838676,0.150346293,-0.487887429,1.84471,18.9408,18148.8,29.3647,,-0.52608,-1.0,,,,,,,2023-08-31 17:29:11.175801+00:00,1.013611992613663,0.013586945362334452,2.873065232373483,2.0290997236766994,-2.0340251082148515,0.07364075,134.93054517890505,0.2870283957797715,0.11418220107377257,2.5763184359911717,132.82089367019773,1.746383405368195,-1.8854974089220726,0.2177569,0.10193327909810283,0.28698566853949664,0.5608029196735074,0.8279493253126484,0.38852451025147117,0.19932359959626753,,,,,,,,,,,1.4140588590013574,0.18448200301433662,1.4260420983114077,0.6616300000000592,-0.01104148116982806,-0.008299999999962893,99.30699225961735,104.23340229202913,143.9669436538252,False,,
2023-08-31 10:29:12.976012-07:00,35.665348,1.42,0.93,1.07,0.08,23.47,863.11,79.24,31.0,0.0,3.69513e-05,0.000877204,-9.47444e-05,34.0613385,-106.883424,1396.3893099999998,-41.8231731,0.155646247,-0.49981002,1.84572,17.5661,17998.3,29.376,,-0.563789,-1.0,,,,,,,2023-08-31 17:29:12.976012+00:00,1.0136792753381318,0.013588547720251844,1.4185507314203587,1.4184035577491527,-0.020433427949835634,0.0799052556,179.17465787694357,0.2868307707469642,0.08814273643623931,1.3773423553656947,162.6695427259728,1.276069132584166,-0.3953328149824237,0.07738548331999999,0.08264807975600733,0.28683981726186597,0.9991139652740862,-0.04208662963806881,-0.44868798535569754,0.08250325094073266,,,,,,,,,,,1.3695215639416674,0.1844820028471967,1.3818910678760985,0.6257399999999507,-0.04415103043530921,-0.03589000000010856,99.26245496455766,104.23340229186198,143.93622587426688,False,,
2023-08-31 10:29:13.976139-07:00,36.665475,1.63,1.36,0.82,0.39,24.26,863.1,75.71,23.0,0.0,-0.000879036,0.00161237,-0.00189139,34.0613382,-106.883424,1396.4132299999999,-41.7839806,0.152759234,-0.487243287,1.84685,17.5543,17844.1,29.3857,,-0.600883,-1.0,,,,,,,2023-08-31 17:29:13.976139+00:00,1.01097496048591,0.013543314834416394,1.5893631121421898,1.5192561395459891,0.4668360361948564,0.38810861,197.08111196352039,0.28680794699736284,0.09224906089246876,1.2778878258965232,177.812894758125,1.1917371541789392,0.0617111650242505,0.3819549756,0.0800522735975212,0.28680923825286886,0.8779959427536338,0.4786680734163893,0.6246286801234552,0.09014761035193779,,,,,,,,,,,1.3361186039772732,0.18448200419195834,1.3487944742490825,0.6496600000000399,-0.033096593627016,0.023920000000089203,99.22905200459326,104.23340229320675,143.91319229086594,False,,
2023-08-31 10:29:14.976221-07:00,37.665557,0.42,-0.2,0.25,0.27,25.02,863.11,72.27,22.0,0.0,-0.000383237,0.000915655,-0.000902036,34.0613379,-106.883424,1396.4063999999998,-41.7543824,0.149488861,-0.487719923,1.84454,17.4602,17924.7,29.3956,,-0.60188,-1.0,,,,,,,2023-08-31 17:29:14.976221+00:00,1.0084097885461203,0.013500165543125994,0.3206876745319514,0.05422951975083386,-0.31606920727002924,0.269097964,99.73571898035323,0.2867831378312415,0.05256937767993322,0.9610895923445725,205.61004609604646,0.754231088053522,-0.3163847686858984,0.12101143920000001,0.07120285174899028,0.2868061530060587,0.9224626756694727,0.38608627532808937,-0.0006548687398245101,0.07415380785434715,,,,,,,,,,,1.3027156374831315,0.18448200464749281,1.3157133586696759,0.6428300000000036,-0.03308111557940663,-0.006830000000036307,99.19564903809912,104.23340229366228,143.8901627693922,False,,
2023-08-31 10:29:15.175664-07:00,37.865,0.51,-0.38,0.14,0.31,25.22,863.12,71.41,28.0,0.0,-0.000814301,0.00148123,-0.000133839,34.0613379,-106.883424,1396.3965099999998,-41.7544482,0.148088209,-0.481743294,1.84454,17.4602,17924.7,29.3956,,-0.60188,-1.0,,,,,,,2023-08-31 17:29:15.175664+00:00,1.007745518327844,0.013488885897316075,0.405186505357141,-0.14713501746472804,-0.37752799996713704,0.309866161,428.7075094309505,0.2867819571652542,0.05302490108776316,0.6826223610535446,198.33374926393736,0.4750619462147199,-0.2386133319587725,0.17968764120000003,0.06324924017070983,0.2867920302556085,0.876309697947582,0.481748184514501,0.01976105326580882,0.08239648899038879,,,,,,,,,,,1.3027156354635587,0.18448200436149423,1.315713356629953,0.6329399999999623,-2.0397228350788055e-09,-0.009890000000041255,99.19564903607954,104.23340229337629,143.89016276779273,False,,
2023-08-31 10:29:15.976173-07:00,38.665509,0.82,-0.16,0.8,0.13,24.25,863.11,75.67,29.0,0.0,-0.000971502,0.000878008,-0.00368096,34.0613377,-106.883424,1396.3800299999998,-41.7377325,0.147163565,-0.484287576,1.84683,16.7251,18061.8,29.4049,,-0.606965,-1.0,,,,,,,2023-08-31 17:29:15.976173+00:00,1.011020667958294,0.013543924527629788,0.817147307635938,0.4913224447930299,-0.6529410215473235,0.12631904,126.96058278942297,0.28679486449595437,0.057969024488497875,0.6822999606061962,118.04129408290046,0.3117738656430876,-0.581214155010289,0.22590843800000004,0.05560188539051362,0.2867890173784766,0.6705058986723624,0.741904198563108,-0.15840117940341455,0.15982193626574617,,,,,,,,,,,1.2804469892867307,0.18448200432028905,1.2936684669154939,0.6164599999999609,-0.02204488971445917,-0.016480000000001382,99.17338038990272,104.23340229333508,143.87481201240394,False,,
2023-08-31 10:29:17.175645-07:00,39.864981,1.77,-0.3,1.73,0.23,24.0,863.1,77.68,22.0,0.0,-0.000715836,0.00059214,-0.000844414,34.0613373,-106.883424,1396.3156999999999,-41.7078211,0.14937745,-0.480264452,1.84623,16.8825,18037.5,29.4148,,-0.587516,-1.0,,,,,,,2023-08-31 17:29:17.175645+00:00,1.011859542312349,0.013558154626515075,1.7567477177941684,1.0925194077021756,-1.3757048694284346,0.22915558600000002,128.45493246682142,0.2868545213363643,0.0757931303067623,1.568732158801255,117.08642382055078,0.7847921611671602,-1.2968236120626406,0.20610453199999998,0.06930578547557857,0.28683617567858505,0.6373913710697935,0.7705402261308417,-0.22187025079683287,0.17261579705496236,,,,,,,,,,,1.23590968978434,0.18448200333072232,1.2496024851350689,0.5521300000000338,-0.04406598178042498,-0.06432999999992717,99.12884309040032,104.23340229234552,143.84411592372885,False,,
2023-08-31 10:29:19.175738-07:00,41.865074,1.85,-0.71,1.69,0.23,24.39,863.11,75.92,29.0,0.0,-0.000284527,2.50329e-05,-0.00298479,34.0613367,-106.883424,1396.2253699999999,-41.6439168,0.14652443,-0.497129177,1.84442,15.4521,18316.3,29.4346,,-0.523355,-1.0,,,,,,,2023-08-31 17:29:19.175738+00:00,1.0105449574873855,0.013535946845322652,1.8333523026077172,0.7911489711919587,-1.653863347093382,0.22701521000000002,115.56478198122835,0.2868357969955945,0.06587001290766459,1.9271438936608098,115.72098601280614,0.8392991230827814,-1.728812558940342,0.2620130402,0.06770916517630206,0.2868460459963028,0.08764220570147582,0.9961520184087267,0.6845525695976428,0.2846432118415384,,,,,,,,,,,1.169103744052971,0.1844820020246514,1.1835696740917698,0.4618000000000393,-0.06603281104329906,-0.09032999999999447,99.06203714466896,104.23340229103944,143.79808537118095,False,,
2023-08-31 10:29:21.176152-07:00,43.865488,1.47,-1.1,0.95,0.17,23.37,863.13,80.8,24.0,0.0,0.000240252,0.000440577,-0.00323454,34.0613361,-106.883424,1396.18582,-41.5970167,0.148709387,-0.51068784,1.84315,15.2696,18491.1,29.4545,,-0.354218,-1.0,,,,,,,2023-08-31 17:29:21.176152+00:00,1.0140446309057096,0.013594370068574826,1.4531980090308256,-0.019394399493961153,-1.4530685843137012,0.16676546,449.2353070809761,0.286764757780547,0.05275278822317507,1.8760776508480586,438.370447288738,-0.40510058955508477,-1.8230144922315255,0.0765253966,0.05757395352506486,0.28676132336121524,0.8779481146034106,-0.4787557916770477,-1.4065678828880783,0.07930640472179165,,,,,,,,,,,1.1022978089876234,0.18448200218703437,1.117628770580756,0.4222500000000764,-0.06594090351101389,-0.03954999999996289,98.99523120960362,104.23340229120183,143.75207113444452,False,,
2023-08-31 10:29:22.175712-07:00,44.865048,2.05,-0.89,1.85,-0.13,22.94,863.11,83.01,31.0,0.0,-0.000359525,0.000213575,-0.0194173,34.0613359,-106.883424,1396.1248999999998,-41.5631023,0.18489779,-0.491935318,1.83827,14.8335,18990.3,29.464,,-0.128461,-1.0,,,,,,,2023-08-31 17:29:22.175712+00:00,1.0154937574750809,0.013619040047996663,2.05336324068523,0.7939651325342174,-1.8936525464079392,-0.1494173,112.74718788228813,0.2868344262704669,0.06605010597279783,2.1097405790153974,180.8653883898,0.6504523923794157,-1.9699764403639481,-0.145315746,0.06405072103309133,0.28683007844317354,0.5107279761595146,0.8597423651117853,-0.44690060225210604,0.21266970967920767,,,,,,,,,,,1.080029156540421,0.18448200086071506,1.0956717517664614,0.36132999999995263,-0.02195701881429457,-0.060920000000123764,98.97296255715641,104.2334022898755,143.73673667599147,False,,
2023-08-31 10:29:23.176472-07:00,45.865808,2.41,-2.13,1.13,0.11,22.7,863.12,84.46,24.0,0.0,-0.0032038,-0.000588067,0.01455,34.0613357,-106.883424,1396.20498,-41.5411793,0.155715568,-0.533863208,1.83598,13.957,19139.6,29.4733,,0.160379,-1.0,,,,,,,2023-08-31 17:29:23.176472+00:00,1.0163293233174882,0.01363293394461684,2.414434554857638,-0.5673333517198221,-2.3468334171212395,0.12455,436.4098120134662,0.2867613132807357,0.059951550082391614,2.021177058319439,239.4944824289712,0.1520095404550245,-1.934621229365931,0.142489174,0.05977898830633031,0.2867896531682799,0.18053686603918823,-0.9835682182750458,-0.49878220658876365,0.2774489989255276,,,,,,,,,,,1.0577605271889392,0.18448200361182784,1.0737275923322718,0.44141000000013264,-0.021944159434189592,0.08008000000018001,98.95069392780492,104.23340229262662,143.72140405065164,False,,
2023-08-31 10:29:23.976299-07:00,46.665635,1.31,-0.94,0.9,0.16,23.86,863.11,78.59,23.0,0.0,-0.00645053,-0.00538255,-0.0142449,34.0613354,-106.883424,1396.13601,-41.5590191,0.14270196,-0.524696276,1.84161,13.8907,18571.1,29.4834,,0.328929,-1.0,,,,,,,2023-08-31 17:29:23.976299+00:00,1.0123482261566839,0.01356619871323941,1.3076355619225637,0.04447523781817474,-1.306878998234173,0.1457551,91.94911721336666,0.2867514507189087,0.05286217835453808,1.5210850762393933,238.74583671537874,0.13510728311240813,-1.50472193153989,0.13584854200000002,0.054059090936522135,0.286763802262079,0.6406836040036391,-0.7678050010001942,-1.06778671776755,0.17050438983032373,,,,,,,,,,,1.0243575513971024,0.18448200227040035,1.0408371641452678,0.3724400000000969,-0.03289042818700394,-0.06897000000003572,98.91729095201309,104.23340229128519,143.69840848980238,False,,
2023-08-31 10:29:25.976638-07:00,48.665974,2.01,-1.75,0.99,0.02,22.73,863.11,84.23,28.0,0.0,0.00028475,0.000512405,-0.0171463,34.0613349,-106.883424,1396.1056199999998,-41.5112862,0.14065951,-0.531006571,1.84193,14.1424,18942.3,29.503,,0.494571,-1.0,,,,,,,2023-08-31 17:29:25.976638+00:00,1.0162145013207944,0.013631160534716327,2.01023667378391,-0.4179939042765645,-1.9662992093304195,0.0028537000000000007,437.99877038568724,0.28674363079755244,0.05686919520820175,1.8399704350182897,432.0230988510725,-0.6059446045217383,-1.7102983532205862,0.15335090999999998,0.06312463472542765,0.28672939425960536,0.8740989321046309,-0.48574793555252904,-1.200633623424795,0.08308574235130332,,,,,,,,,,,0.9686859411748995,0.18448200247999033,0.9860963755480131,0.342049999999972,-0.05474078859725473,-0.030390000000124928,98.86161934179088,104.23340229149478,143.6600916474083,False,,
2023-08-31 10:29:26.175973-07:00,48.865309,1.43,-1.26,0.67,0.1,22.87,863.12,84.44,27.0,0.0,-0.000262059,0.000497275,-0.0117034,34.0613348,-106.883424,1396.1018299999998,-41.5079102,0.141299248,-0.533497243,1.84193,14.1424,18942.3,29.503,,0.494571,-1.0,,,,,,,2023-08-31 17:29:26.175973+00:00,1.0157456601022865,0.013623117821745441,1.4271986906888192,-0.3327952258370767,-1.3878556986819375,0.0882966,436.5155930136154,0.28672550972139055,0.055448346796789026,1.618622120250442,368.03896873483103,-0.31650179771184817,-1.5679392304954758,0.13179152200000002,0.05693181857717663,0.2867329134650903,0.8846722364934703,0.46621350685886553,-1.5346697187666591,0.0766126533714264,,,,,,,,,,,0.9575516189709194,0.18448200258807265,0.9751608648180743,0.3382599999999911,-0.010935510729938813,-0.0037899999999808642,98.85048501958691,104.23340229160286,143.65242964144636,False,,
2023-08-31 10:29:27.176438-07:00,49.865774,1.14,-0.86,0.7,0.22,23.35,863.12,82.02,22.0,0.0,0.000324932,-0.00079164,-0.00490593,34.0613346,-106.883424,1396.06033,-41.478166,0.140220349,-0.532105105,1.84474,12.9585,18776.8,29.5124,,0.438303,-1.0,,,,,,,2023-08-31 17:29:27.176438+00:00,1.0141012826424243,0.013595479323717392,1.1085811731583992,-0.045953666710821926,-1.1076283122045425,0.21509407,447.6242553567869,0.28671826646247905,0.05298093805456965,1.8531724627940043,177.10785798503022,0.5771913882884455,-1.7014119240095027,0.205137682,0.06522374854878048,0.28680086819906914,0.9251043371439759,0.37971300398775526,-1.3548164742467992,0.06946784932994934,,,,,,,,,,,0.9352829710462491,0.18448200182334007,0.9533036478089475,0.29676000000017666,-0.021857217009126795,-0.04149999999981446,98.82821637166224,104.23340229083813,143.63710698955123,False,,
2023-08-31 10:29:27.976186-07:00,50.665522,1.97,-1.3,1.48,0.06,23.45,863.11,80.82,21.0,0.0,0.00199641,0.003845,-0.00669946,34.0613345,-106.883424,1396.0266399999998,-41.4567214,0.146434487,-0.493171468,1.85087,12.1219,18416.2,29.5224,,0.189947,-1.0,,,,,,,2023-08-31 17:29:27.976186+00:00,1.0137476286270959,0.013589695846919518,1.9683819299809022,0.25236953710840826,-1.952136531858115,0.05330054,97.3662638435137,0.2867686664542308,0.05440564961723297,2.237790606046528,99.03115286429664,0.40746302463803447,-2.176641527366912,0.133351804,0.05958986731729423,0.28680825384230035,0.8874991265785991,-0.4608093969552094,-2.1195302450778404,0.07689025302153625,,,,,,,,,,,0.9241486453180421,0.18448200106677537,0.9423822618029131,0.2630699999999706,-0.010921386006034428,-0.033690000000206055,98.81708204593403,104.23340229008156,143.6294463438429,False,,
2023-08-31 10:29:28.175695-07:00,50.865031,1.62,-1.16,1.13,0.13,23.62,863.12,79.95,25.0,0.0,0.00261379,-0.00798364,-0.00392155,34.0613345,-106.883424,1396.02468,-41.436683,0.170912708,-0.500023365,1.85087,12.1219,18416.2,29.5224,,0.189947,-1.0,,,,,,,2023-08-31 17:29:28.175695+00:00,1.0131786578949316,0.013579982845891566,1.616430099023489,0.07148455850838538,-1.614848668737708,0.12607845,92.53465938401325,0.2867326927723014,0.05314896998334491,1.9939792123768143,94.60739698063011,0.17620633091077725,-1.9836916662087212,0.158004012,0.054120564272239456,0.2867668448063391,0.950363258656191,0.31114253421283605,-1.8304023917233245,0.0562146477381601,,,,,,,,,,,0.924148645034112,0.18448200101009615,0.9423822615133809,0.2611100000001443,-2.8953217601213055e-10,-0.001959999999826323,98.8170820456501,104.23340229002488,143.6294463436064,False,,
2023-08-31 10:29:28.976513-07:00,51.665849,2.57,-1.1,2.28,0.43,23.32,863.11,81.38,26.0,0.0,0.0055629,-0.0049363,-0.0118439,34.0613343,-106.883424,1396.00076,-41.4454427,0.165352524,-0.503978463,1.85094,11.6209,18556.2,29.5316,,-0.00808814,-1.0,,,,,,,2023-08-31 17:29:28.976513+00:00,1.0141921497986195,0.013597163493878501,2.5244418196883096,0.9760232867893349,-2.328129086763912,0.4181561,112.74492929159598,0.28686652008479613,0.07220258834652338,2.3237377971873148,110.59717283148879,0.8485639379387836,-2.131548638605799,0.40393416000000004,0.07037223782752543,0.2868362251626325,0.6637251526474061,0.7479765515998329,-0.7800565174225784,0.1634429670317026,,,,,,,,,,,0.901879999373087,0.18448200075374133,0.9205548011233785,0.23719000000005508,-0.021827460390002384,-0.023920000000089203,98.79481339998908,104.23340228976853,143.61412642090397,False,,
2023-08-31 10:29:29.175710-07:00,51.865046,2.6,-1.16,2.28,0.47,23.35,863.12,82.12,30.0,0.0,0.00280145,-0.000857638,-0.0181998,34.0613343,-106.883424,1395.9521699999998,-41.4291029,0.141484006,-0.54533011,1.85094,11.6209,18556.2,29.5316,,-0.00808814,-1.0,,,,,,,2023-08-31 17:29:29.175710+00:00,1.0141012826424243,0.013595479323717392,2.5552039048032316,0.9410658713440597,-2.3755971924787938,0.4518002,111.61043271786534,0.2868631900809366,0.07091113603812449,2.4963358843240355,115.0293382373736,1.0514070827123634,-2.2591978465569333,0.41098794000000005,0.0748396189648762,0.2868648584068322,0.292730270750104,0.9561950578132952,0.34401465893879324,0.26236150995489477,,,,,,,,,,,0.9018799925038377,0.18448199934861773,0.9205547941118908,0.18859999999995125,-7.011487723751486e-09,-0.04859000000010383,98.79481339311982,104.23340228836341,143.61412641515864,False,,
2023-08-31 10:29:30.976199-07:00,53.665535,2.29,-0.71,2.15,0.31,23.82,863.12,78.1,22.0,0.0,0.00330122,-0.00690167,-0.0275525,34.061334,-106.883424,1395.9552199999998,-41.412201,0.154697741,-0.524752734,1.8516,11.3552,18443.6,29.5522,,-0.343922,-1.0,,,,,,,2023-08-31 17:29:30.976199+00:00,1.012496313780782,0.013568527171669658,2.2578704091475106,1.1358894947101805,-1.9513415488609365,0.2824475,120.20398267390328,0.28684007437976855,0.07796287263075896,2.2319299583988657,116.71792896990738,1.0055992410332921,-1.9878471963085604,0.31286095999999997,0.07349932146547992,0.28682893685233574,0.9021127862002387,0.43150031399066485,-1.3593459845476086,0.08018657767631338,,,,,,,,,,,0.8684770302337241,0.1844820000898615,0.8878546955446847,0.19164999999998145,-0.032700098567206126,0.0030500000000301952,98.76141043084971,104.23340228910465,143.5911499468302,False,,
2023-08-31 10:29:31.976395-07:00,54.665731,3.25,0.65,3.18,0.16,23.97,863.09,77.5,24.0,0.0,0.00075346,-0.00120521,-0.0174188,34.0613339,-106.883424,1395.93398,-41.382142,0.15928648,-0.507594389,1.85427,10.0314,18331.4,29.5622,,-0.517256,-1.0,,,,,,,2023-08-31 17:29:31.976395+00:00,1.0119499843343844,0.013559829397568434,3.244330751140043,2.814504056313387,-1.613768552112851,0.1425812,150.1710835900334,0.2870240120377201,0.1504629238600801,3.0293535484703673,145.74953601034105,2.4955704936853738,-1.6737514416044443,0.25153687599999996,0.13600206247039262,0.28698689694325896,0.8479338708954535,0.5301020190380833,-0.09632358144201913,0.1267497767187245,,,,,,,,,,,0.8573427067149295,0.1844819996933254,0.8769664332049031,0.17041000000017448,-0.010888262339781574,-0.02123999999980697,98.75027610733092,104.23340228870812,143.58349203147887,False,,
2023-08-31 10:29:32.976626-07:00,55.665962,2.18,-1.13,1.86,0.15,23.67,863.11,78.88,30.0,0.0,0.000610287,-0.000513974,-0.00562655,34.0613336,-106.883424,1395.9181199999998,-41.3477945,0.149538211,-0.505701392,1.8558,10.5967,18274.1,29.5714,,-0.581508,-1.0,,,,,,,2023-08-31 17:29:32.976626+00:00,1.0129962490761966,0.01357707732145489,2.1756142662675857,0.6493030198063943,-2.076464067605636,0.14437345,107.36428036008184,0.28678489481486835,0.06229180538256076,2.5762789915878965,115.86952570094107,1.1149097008869002,-2.2893732507777256,0.19182978,0.07900184656922302,0.2868819373939996,0.6441710207186301,0.7648814915176849,-0.6219741088375076,0.17101003420886668,,,,,,,,,,,0.8239397413681901,0.1844819998877306,0.8443401599405637,0.154549999999972,-0.03262627326433942,-0.01586000000020249,98.71687314198418,104.23340228890252,143.56052102040724,False,,
2023-08-31 10:29:33.176484-07:00,55.86582,2.5,-1.19,2.19,0.17,23.63,863.13,79.27,25.0,0.0,0.000254022,8.91355e-05,-0.00362234,34.0613336,-106.883424,1395.89907,-41.3457353,0.14771958,-0.50051964,1.8558,10.5967,18274.1,29.5714,,-0.581508,-1.0,,,,,,,2023-08-31 17:29:33.176484+00:00,1.0131562570124706,0.013579449366378947,2.49222072823914,0.8580879399586845,-2.3398395768860505,0.16637766,110.13947122598998,0.2868317193649602,0.06830361799885558,2.951327889749357,116.64989963958104,1.398996495529191,-2.536526041995473,0.101901494,0.09110481917492848,0.2869510736142215,0.3311041630579163,-0.9435942100318954,-2.1599393252457775,0.2556877862670565,,,,,,,,,,,0.8239397389077996,0.1844819993368435,0.8443401574192548,0.13550000000009277,-2.5213088283848606e-09,-0.01904999999987922,98.71687313952378,104.23340228835163,143.5605210183154,False,,
2023-08-31 10:29:34.176017-07:00,56.865353,3.47,-1.64,3.04,0.27,23.0,863.09,81.47,22.0,0.0,0.000439642,-0.00113382,-0.00220736,34.0613334,-106.883424,1395.8813699999998,-41.3191456,0.151903788,-0.459393521,1.85915,10.83,18309.0,29.5817,,-0.630269,-1.0,,,,,,,2023-08-31 17:29:34.176017+00:00,1.0152644921338252,0.013615501076960202,3.453350779175808,1.1992241936643069,-3.238439892504468,0.26779264,110.32005641672316,0.28698558594826606,0.08019892619637146,3.1693257512186506,117.90946423901724,1.4477281961413013,-2.80428969346656,0.31405121840000005,0.09018079231077987,0.28697312787144375,0.932361999077336,0.3615260746841282,-2.0912216526319534,0.08690487351882273,,,,,,,,,,,0.8016710955508652,0.18448199926035827,0.8226239441523832,0.11779999999998836,-0.021716213266871676,-0.01770000000010441,98.69460449616685,104.23340228827514,143.54520928698457,False,,
2023-08-31 10:29:34.976395-07:00,57.665731,4.35,-0.88,4.26,0.12,23.23,863.07,80.28,22.0,0.0,0.00195019,-0.00123953,-0.00475033,34.0613333,-106.883424,1395.8944299999998,-41.3004386,0.154482226,-0.427669196,1.86279,9.81481,18166.3,29.592,,-0.667835,-1.0,,,,,,,2023-08-31 17:29:34.976395+00:00,1.0144531076323233,0.013602178630318198,4.347639163528278,2.6183176271255157,-3.4707894058454016,0.11524967,127.03041919184292,0.2873059465845603,0.14137989207583745,3.3934176493193604,125.22733207613794,1.9652356111424516,-2.762096189121867,0.34188516040000005,0.11232161087123445,0.28705815635565524,0.53641338158411,0.8439553803712019,0.17694581065331483,0.20699886284019883,,,,,,,,,,,0.7905367766337883,0.18448199985570815,0.8117770651362981,0.1308599999999842,-0.010846879016085054,0.013059999999995853,98.68347017724977,104.2334022888705,143.53755410671334,False,,
2023-08-31 10:29:35.976049-07:00,58.665385,2.79,-0.93,2.62,0.27,23.68,863.1,78.21,30.0,0.0,0.0123026,-0.00781288,-0.0216154,34.0613332,-106.883424,1395.8669699999998,-41.2878619,0.155832769,-0.514717866,1.86073,9.65313,18096.3,29.6018,,-0.696198,-1.0,,,,,,,2023-08-31 17:29:35.976049+00:00,1.012950385736329,0.013576464566252147,2.7656116306125655,1.3472119140957943,-2.4152904069485808,0.2483846,119.15210733658392,0.28689463101593016,0.08617174927133958,2.6283964691744117,125.62984412092241,1.5332576987389739,-2.1098372891400556,0.277670656,0.09417755681399445,0.2868847715576212,0.5360915323357333,0.8441598598357574,0.16324869874542625,0.2062196823124373,,,,,,,,,,,0.779402452012405,0.1844819992793023,0.8009380689298254,0.10339999999996508,-0.010838996206472662,-0.027460000000019136,98.6723358526284,104.23340228829409,143.52989937712366,False,,
2023-08-31 10:29:37.175964-07:00,59.8653,2.1,-0.03,2.09,0.11,24.58,863.11,74.04,21.0,0.0,0.00151152,-0.00319642,-0.00757149,34.0613331,-106.883424,1395.8518299999998,-41.2722184,0.153738185,-0.51574361,1.86542,8.6395,18139.1,29.6123,,-0.745244,-1.0,,,,,,,2023-08-31 17:29:37.175964+00:00,1.0099000660020714,0.013525135305604,2.0868304236428084,1.5478251606069269,-1.3996779948378715,0.10242851,137.8773744777205,0.28679984978632495,0.09408686439387114,2.2250150552777344,119.43065355712515,1.068618785059857,-1.9151608145545136,0.26893132799999997,0.0762275373064401,0.2867972604040985,0.9040192500242441,0.42749174914330595,-1.274516529656759,0.08141211630589133,,,,,,,,,,,0.7682681296788111,0.18448199905916576,0.7901072883204182,0.08825999999999112,-0.010830780609407231,-0.015139999999973952,98.6612015302948,104.23340228807395,143.52224510489273,False,,
2023-08-31 10:29:37.976588-07:00,60.665924,1.63,-0.62,1.5,0.19,24.15,863.12,75.94,21.0,0.0,0.0019341,0.000196835,-0.00149804,34.0613327,-106.883424,1395.84341,-41.2307787,0.151674127,-0.532704747,1.86765,8.57456,18241.4,29.6217,,-0.778371,-1.0,,,,,,,2023-08-31 17:29:37.976588+00:00,1.0113724530894008,0.01354966832632366,1.621437353838709,0.7196502699492121,-1.4529840265417582,0.18850196,116.34881156181032,0.2867104793954654,0.06434089403742262,1.7949159080127834,119.03800345270345,0.8787140274299245,-1.466408103617559,0.216530334,0.07200758381874636,0.2867322324441034,0.10124787257115864,-0.9948612306748185,-1.022669219552546,0.28379386255913774,,,,,,,,,,,0.7237308460797501,0.18448199968640186,0.7468734469611331,0.07984000000010383,-0.0432338413592851,-0.008419999999887295,98.61666424669573,104.23340228870119,143.49163257773512,False,,
2023-08-31 10:29:38.975902-07:00,61.665238,2.25,0.06,2.25,0.08,24.16,863.12,75.03,26.0,0.0,0.00112136,-0.000662302,-0.00516941,34.0613325,-106.883424,1395.8048299999998,-41.160792,0.149129614,-0.519538202,1.86542,8.43975,18342.1,29.6311,,-0.802151,-1.0,,,,,,,2023-08-31 17:29:38.975902+00:00,1.0113384356512691,0.013549097680485895,2.2495745505162374,1.7327754924445593,-1.4345991604325743,0.07483059,140.37796921086147,0.28680102004348607,0.10183649799892645,2.2054496034263265,136.14971897315874,1.5837577569852956,-1.4985294658572594,0.19476794400000003,0.09601787663748829,0.2867894609142546,0.5085472843222993,0.8610340641394012,0.6015962877706961,0.214065053941476,,,,,,,,,,,0.7014622001909945,0.18448199900610965,0.7253156735202136,0.04125999999996566,-0.02155777344091947,-0.03858000000013817,98.59439560080698,104.2334022880209,143.47632904568204,False,,
2023-08-31 10:29:39.976253-07:00,62.665589,2.37,0.13,2.36,0.1,24.49,863.13,73.54,26.0,0.0,0.00319629,-0.00378402,-0.00833473,34.0613325,-106.883424,1395.77505,-41.1162903,0.153956582,-0.441952253,1.86526,7.63015,18431.3,29.6407,,-0.821686,-1.0,,,,,,,2023-08-31 17:29:39.976253+00:00,1.0102288467818874,0.013530333279991216,2.3586282451601353,1.8596710506436,-1.450775924209286,0.09166527000000001,142.04131566179427,0.286811347191484,0.10746240209462482,2.5707372125773142,140.37417090338172,1.9991298376593658,-1.5899350823625917,0.2051121676,0.11416148897628034,0.2868611226827156,0.7639408075051627,0.6452863260819649,0.07539485760318132,0.13677208705529553,,,,,,,,,,,0.7014621969165126,0.18448199814493282,0.7253156701343818,0.011480000000119617,-3.3858318371216e-09,-0.02977999999984604,98.5943955975325,104.23340228715972,143.47632904280624,False,,
2023-08-31 10:29:41.176237-07:00,63.865573,3.4,-0.73,3.31,0.3,22.65,863.1,83.2,23.0,0.0,0.0034719,-0.00577711,-0.0172626,34.0613324,-106.883424,1395.74099,-41.0574071,0.140675115,-0.428623661,1.86552,7.84842,18370.7,29.6503,,-0.848527,-1.0,,,,,,,2023-08-31 17:29:41.176237+00:00,1.0164775625358842,0.013635743514165938,3.38331621141973,2.0106597133846438,-2.7210432013159105,0.28273739999999997,126.46179687068096,0.28702051216185537,0.11420702677149233,3.5763461732643385,126.11584625168871,2.1169675195137456,-2.8430809450043713,0.210216922,0.11921160227977008,0.2870699790436727,0.8571239298482083,0.515110249249191,-1.3464010458295375,0.1160700942228581,,,,,,,,,,,0.6903278721727119,0.18448199737766846,0.714553132002763,-0.0225799999998344,-0.01076253813161876,-0.034059999999954016,98.5832612727887,104.23340228639246,143.468677959253,False,,
2023-08-31 10:29:42.975869-07:00,65.665205,2.94,-0.37,2.9,0.31,22.5,863.12,83.01,29.0,0.0,0.00195213,-0.0108978,-0.019248,34.0613323,-106.883424,1395.6793499999999,-41.0393903,0.184475857,-0.382737166,1.8698,6.66031,18086.6,29.6608,,-0.874675,-1.0,,,,,,,2023-08-31 17:29:42.975869+00:00,1.017016845267982,0.013644500799611305,2.9148103336379405,1.933517706120909,-2.1811988816243835,0.290752,131.55529529426278,0.2869127914604331,0.11105646956993083,2.672235260283995,145.9943460561732,2.168397735066859,-1.4906906598968657,0.10038300600000001,0.12100332417575313,0.2868446756713731,0.9843321721592411,0.17632406203428438,-1.0849940785208436,0.11757999969730108,,,,,,,,,,,0.6791935453197624,0.18448199581284677,0.7038021588366431,-0.08421999999995933,-0.010750973166119948,-0.06164000000012493,98.57212694593575,104.23340228482763,143.46102732978173,False,,
2023-08-31 10:29:43.976293-07:00,66.665629,0.98,0.03,0.79,0.59,24.18,863.09,75.08,23.0,0.0,-0.0156788,-0.00910005,0.00696188,34.0613322,-106.883424,1395.78921,-40.908496,0.160192922,-0.688400486,1.87266,6.17059,17912.9,29.671,,-0.899762,-1.0,,,,,,,2023-08-31 17:29:43.976293+00:00,1.0112352582834976,0.013547837825694279,0.7934835497781836,0.6075930719180963,-0.5103398894126523,0.59696188,139.97185783508672,0.2865460262499284,0.06211309494497122,1.5434956706038923,195.10022620602146,0.8541199235888838,-1.1026692204106598,0.325882892,0.07673416181722298,0.28662027213580277,0.5019800094359239,-0.864879222855255,-1.2922284814051894,0.2152667212283048,,,,,,,,,,,0.6680592366414151,0.1844819992074551,0.6930633100182766,0.02564000000006672,-0.010738848818366509,0.10986000000002605,98.5609926372574,104.23340228822224,143.45337717258482,False,,
2023-08-31 10:29:44.975895-07:00,67.665231,3.72,0.52,3.68,0.25,22.72,863.09,81.97,21.0,0.0,0.00836336,0.00294781,-0.0195708,34.0613321,-106.883424,1395.76089,-40.8943483,0.136803794,-0.203825815,1.86986,5.82709,17996.8,29.6806,,-0.913408,-1.0,,,,,,,2023-08-31 17:29:44.975895+00:00,1.016225299440404,0.013631658032128395,3.714507143882746,3.1251526839722,-2.00773106361816,0.2304292,147.28158502579163,0.2871184636419934,0.16516805152337477,3.429526950756288,141.68741836163136,2.669904541090255,-2.136838364302117,0.142859876,0.14600673862917923,0.28714118267901545,0.33242257452179946,-0.9431305487302905,-3.228401845294207,0.2559198164229185,,,,,,,,,,,0.6569249133505778,0.1844819986061798,0.6823371231219907,-0.002679999999827487,-0.010726186896285905,-0.028319999999894208,98.54985831396657,104.23340228762096,143.44572745870096,False,,
2023-08-31 10:29:47.175811-07:00,69.865147,3.9,-0.46,3.87,0.19,22.75,863.06,81.9,21.0,0.0,-0.000574452,0.00751603,-0.00147746,34.0613315,-106.883424,1395.81033,-40.8861226,0.145530487,-0.406802468,1.88114,4.30513,17495.4,29.6997,,-0.950027,-1.0,,,,,,,2023-08-31 17:29:47.175811+00:00,1.0160869496025204,0.013629804770953012,3.9027324914320434,2.6321860314895056,-2.8814783697454494,0.18852254,132.41121752952307,0.28718229948835133,0.1418941528071526,3.7670448989118093,131.56988606677848,2.4938740019502634,-2.8206135100169565,0.18115451600000002,0.13580247743934126,0.2871409614611843,0.9970919435240945,0.07620797963037713,-2.6223579074917724,0.13502408168955563,,,,,,,,,,,0.5901189945563238,0.18448200134197165,0.6182831362371981,0.04676000000017666,-0.06405398688479258,0.04944000000000415,98.48305239517231,104.23340229035676,143.39983877987314,False,,
