Timestamp,Seconds,S,Um,Vm,Wm,T,P,H,MD,Sts,Vx,Vy,Vz,Lat,Lon,Alt,Yaw,Roll,Pitch,CH4,C2H6,H2O,T_a,Batt,R,C2C1,Power,Current,SOC,Lat_a,Lon_a,TS,Timestamp_UTC
2023-08-31 10:28:37.310664-07:00,0.0,1.53,-0.73,1.31,0.3,24.52,863.13,75.22,25.0,0.0,0.00635487,-0.00526631,-0.0238235,34.0613486,-106.883428,1396.43201,-43.3450465,0.150430663,-0.582274792,,,,,,,,,,,,,,2023-08-31 17:28:37.310664+00:00
2023-08-31 10:28:37.520900-07:00,0.210236,1.61,-0.98,1.24,0.29,24.11,863.11,77.1,21.0,0.0,0.00458002,-0.00255597,-0.0280004,34.0613485,-106.883428,1396.41724,-43.3375337,0.156063383,-0.539612292,,,,,,,,,,,,,,2023-08-31 17:28:37.520900+00:00
2023-08-31 10:28:37.731225-07:00,0.420561,1.91,-1.1,1.53,0.36,24.21,863.13,76.65,24.0,0.0,0.00467687,-0.00321938,-0.0234804,34.0613485,-106.883428,1396.43713,-43.3234332,0.162728644,-0.487351133,,,,,,,,,,,,,,2023-08-31 17:28:37.731225+00:00
2023-08-31 10:28:37.941351-07:00,0.630687,1.97,-0.96,1.7,0.29,24.1,863.11,77.15,29.0,0.0,0.00905334,-0.00560426,-0.0222523,34.0613484,-106.883428,1396.40149,-43.309514,0.156046515,-0.52221564,,,,,,,,,,,,,,2023-08-31 17:28:37.941351+00:00
2023-08-31 10:28:38.151520-07:00,0.840856,1.74,-0.71,1.56,0.31,24.52,863.1,75.46,24.0,0.0,0.00914338,-0.00620198,-0.0319329,34.0613483,-106.883428,1396.3949,-43.2973453,0.163106541,-0.574290054,,,,,,,,,,,,,,2023-08-31 17:28:38.151520+00:00
2023-08-31 10:28:38.361090-07:00,1.050426,1.5,-0.61,1.35,0.2,24.8,863.13,73.96,21.0,0.0,0.00748055,-0.00253287,-0.0370407,34.0613482,-106.883428,1396.36951,-43.2930879,0.159017405,-0.531770411,,,,,,,,,,,,,,2023-08-31 17:28:38.361090+00:00
2023-08-31 10:28:38.571221-07:00,1.260557,1.52,-0.61,1.38,0.2,24.87,863.11,73.62,27.0,0.0,0.00741203,-0.00479397,-0.0365751,34.0613482,-106.883428,1396.4054,-43.2775055,0.165282674,-0.524052717,,,,,,,,,,,,,,2023-08-31 17:28:38.571221+00:00
2023-08-31 10:28:38.775786-07:00,1.465122,2.06,-0.89,1.84,0.25,24.0,863.12,77.6,28.0,0.0,0.0137133,-0.00854017,-0.0249615,34.0613482,-106.883428,1396.38904,-43.2787778,0.160970063,-0.566921142,,,,,,,,,,,,,,2023-08-31 17:28:38.775786+00:00
2023-08-31 10:28:38.976370-07:00,1.665706,2.01,-1.02,1.69,0.36,24.07,863.11,77.29,23.0,0.0,0.0079516,-0.000961003,-0.0405075,34.0613482,-106.883428,1396.33386,-43.2502473,0.15904287,-0.547747733,1.84566,24.0121,19045.7,29.0409,,-0.708667,-1.0,,,,,,,2023-08-31 17:28:38.976370+00:00
2023-08-31 10:28:39.176481-07:00,1.865817,1.79,-0.89,1.52,0.34,24.0,863.11,77.67,22.0,0.0,0.0104683,-0.00378893,-0.0536808,34.0613481,-106.883428,1396.3269,-43.2462117,0.164743665,-0.504607826,,,,,,,,,,,,,,2023-08-31 17:28:39.176481+00:00
2023-08-31 10:28:39.375915-07:00,2.065251,2.27,-1.31,1.82,0.38,23.74,863.11,79.0,28.0,0.0,0.0123334,-0.00460797,-0.0579739,34.0613481,-106.883428,1396.31372,-43.2399998,0.163336989,-0.559874073,,,,,,,,,,,,,,2023-08-31 17:28:39.375915+00:00
2023-08-31 10:28:39.576267-07:00,2.265603,2.27,-1.28,1.84,0.37,23.69,863.12,79.37,27.0,0.0,0.0103535,-0.00301729,-0.060322,34.061348,-106.883428,1396.29065,-43.2256419,0.159636549,-0.576564888,,,,,,,,,,,,,,2023-08-31 17:28:39.576267+00:00
2023-08-31 10:28:39.776280-07:00,2.465616,1.98,-0.97,1.69,0.36,23.86,863.11,78.48,22.0,0.0,0.0113242,-0.00564282,-0.0578276,34.0613479,-106.883428,1396.29846,-43.2157854,0.163432233,-0.536996641,,,,,,,,,,,,,,2023-08-31 17:28:39.776280+00:00
2023-08-31 10:28:39.976223-07:00,2.665559,1.81,-0.9,1.55,0.31,23.84,863.11,78.64,23.0,0.0,0.013363,-0.00759348,-0.0719249,34.0613479,-106.883427,1396.21509,-43.2056232,0.16463635,-0.554106346,1.84353,23.5033,19015.5,29.0509,,-0.698121,-1.0,,,,,,,2023-08-31 17:28:39.976223+00:00
2023-08-31 10:28:40.176538-07:00,2.865874,1.76,-0.94,1.44,0.36,24.1,863.12,77.38,30.0,0.0,0.0135212,-0.00696552,-0.0739227,34.0613478,-106.883427,1396.24268,-43.1963556,0.162880978,-0.574514341,,,,,,,,,,,,,,2023-08-31 17:28:40.176538+00:00
2023-08-31 10:28:40.375938-07:00,3.065274,1.99,-0.79,1.79,0.32,24.06,863.12,77.49,25.0,0.0,0.0131813,-0.00430259,-0.0564504,34.0613478,-106.883427,1396.30493,-43.1902517,0.162774063,-0.543655731,,,,,,,,,,,,,,2023-08-31 17:28:40.375938+00:00
2023-08-31 10:28:40.576563-07:00,3.265899,2.01,-0.86,1.79,0.32,24.16,863.12,77.03,21.0,0.0,0.0154829,-0.00625383,-0.0417931,34.0613477,-106.883427,1396.28296,-43.1787331,0.161644071,-0.555718987,,,,,,,,,,,,,,2023-08-31 17:28:40.576563+00:00
2023-08-31 10:28:40.776348-07:00,3.465684,1.92,-0.9,1.67,0.29,24.26,863.11,76.63,25.0,0.0,0.00700158,-0.003706,-0.0394152,34.0613477,-106.883427,1396.28345,-43.1659755,0.162789783,-0.572234437,,,,,,,,,,,,,,2023-08-31 17:28:40.776348+00:00
2023-08-31 10:28:40.976328-07:00,3.665664,1.77,-0.65,1.63,0.22,24.35,863.12,76.32,30.0,0.0,0.00216601,-0.00169544,-0.0270235,34.0613476,-106.883427,1396.29053,-43.1517642,0.160340161,-0.557826573,1.84448,23.6982,18990.7,29.0608,,-0.697072,-1.0,,,,,,,2023-08-31 17:28:40.976328+00:00
2023-08-31 10:28:41.176572-07:00,3.865908,1.72,-0.79,1.5,0.33,24.51,863.11,75.49,24.0,0.0,0.00248721,-0.00250759,-0.022585,34.0613476,-106.883427,1396.28406,-43.1398966,0.157314543,-0.565679374,,,,,,,,,,,,,,2023-08-31 17:28:41.176572+00:00
2023-08-31 10:28:41.375828-07:00,4.065164,1.83,-0.85,1.59,0.31,24.55,863.11,74.48,21.0,0.0,0.00234423,-0.00215598,-0.0132627,34.0613476,-106.883427,1396.27295,-43.1301869,0.159064912,-0.573366171,,,,,,,,,,,,,,2023-08-31 17:28:41.375828+00:00
2023-08-31 10:28:41.576446-07:00,4.265782,1.95,-0.74,1.79,0.23,24.43,863.11,75.93,27.0,0.0,0.0018236,-0.00168201,-0.00985877,34.0613476,-106.883427,1396.28516,-43.1208685,0.161578006,-0.560901746,,,,,,,,,,,,,,2023-08-31 17:28:41.576446+00:00
2023-08-31 10:28:41.775971-07:00,4.465307,2.1,-0.69,1.96,0.27,24.3,863.11,76.54,28.0,0.0,0.0024259,-0.00222854,-0.00735376,34.0613475,-106.883427,1396.28101,-43.1117581,0.159338286,-0.559024528,,,,,,,,,,,,,,2023-08-31 17:28:41.775971+00:00
2023-08-31 10:28:41.976593-07:00,4.665929,2.01,-0.87,1.79,0.23,24.57,863.12,75.38,22.0,0.0,0.00245507,-0.0018077,-0.0013302,34.0613474,-106.883427,1396.30457,-43.0995817,0.157417027,-0.565104009,1.84556,23.0779,18881.3,29.0713,,-0.664588,-1.0,,,,,,,2023-08-31 17:28:41.976593+00:00
2023-08-31 10:28:42.176343-07:00,4.865679,1.82,-0.8,1.62,0.25,24.55,863.11,75.39,22.0,0.0,0.00178484,-0.00111164,-0.0025522,34.0613474,-106.883427,1396.29431,-43.0887454,0.158364661,-0.555424208,,,,,,,,,,,,,,2023-08-31 17:28:42.176343+00:00
2023-08-31 10:28:42.376519-07:00,5.065855,2.28,-0.71,2.16,0.19,24.19,863.1,77.04,29.0,0.0,0.00279458,-0.00222275,-0.00236292,34.0613474,-106.883427,1396.26953,-43.0779154,0.15664982,-0.551756332,,,,,,,,,,,,,,2023-08-31 17:28:42.376519+00:00
2023-08-31 10:28:42.576635-07:00,5.265971,2.01,-0.51,1.95,0.11,24.23,863.11,76.91,27.0,0.0,0.00187737,-0.0016001,-0.00217239,34.0613473,-106.883427,1396.28357,-43.0679239,0.156683945,-0.559895525,,,,,,,,,,,,,,2023-08-31 17:28:42.576635+00:00
2023-08-31 10:28:42.776280-07:00,5.465616,1.76,-0.7,1.6,0.22,24.48,863.12,75.78,21.0,0.0,0.00206426,-0.00136541,0.000297596,34.0613473,-106.883427,1396.27686,-43.0568941,0.157418756,-0.547671104,,,,,,,,,,,,,,2023-08-31 17:28:42.776280+00:00
2023-08-31 10:28:42.975752-07:00,5.665088,1.71,-0.54,1.62,0.13,24.63,863.12,75.12,23.0,0.0,0.00197962,-0.00185217,0.00124028,34.0613472,-106.883427,1396.2782,-43.0504741,0.15925999,-0.542885699,,,,,,,,,,,,,,2023-08-31 17:28:42.975752+00:00
2023-08-31 10:28:43.176524-07:00,5.86586,1.67,-0.41,1.61,0.02,24.78,863.12,74.44,29.0,0.0,0.00156126,-0.00119536,-0.00176941,34.0613472,-106.883427,1396.27588,-43.0429371,0.160183949,-0.55312238,,,,,,,,,,,,,,2023-08-31 17:28:43.176524+00:00
2023-08-31 10:28:43.376059-07:00,6.065395,1.83,-0.36,1.8,0.01,24.5,863.12,74.84,25.0,0.0,0.00213001,-0.00121344,0.00105543,34.0613472,-106.883426,1396.26868,-43.032508,0.159058292,-0.54287508,,,,,,,,,,,,,,2023-08-31 17:28:43.376059+00:00
2023-08-31 10:28:43.576228-07:00,6.265564,1.69,-0.72,1.51,0.23,24.51,863.12,75.63,21.0,0.0,0.00221985,-0.0026579,-0.00111623,34.0613471,-106.883426,1396.27966,-43.0227401,0.161638311,-0.526278812,,,,,,,,,,,,,,2023-08-31 17:28:43.576228+00:00
2023-08-31 10:28:43.775793-07:00,6.465129,1.56,-0.82,1.29,0.33,24.72,863.13,73.79,25.0,0.0,0.00393477,-0.00437657,0.00107731,34.0613471,-106.883426,1396.28284,-43.013319,0.155591642,-0.576114607,,,,,,,,,,,,,,2023-08-31 17:28:43.775793+00:00
2023-08-31 10:28:43.976361-07:00,6.665697,1.53,-0.69,1.34,0.23,24.6,863.12,75.3,29.0,0.0,0.00331782,-0.00183229,0.00454512,34.061347,-106.883426,1396.29688,-43.0029489,0.157743775,-0.595928635,,,,,,,,,,,,,,2023-08-31 17:28:43.976361+00:00
2023-08-31 10:28:44.176461-07:00,6.865797,1.36,-0.44,1.27,0.18,24.27,863.12,75.89,24.0,0.0,0.000121587,0.00171224,-0.00389088,34.061347,-106.883426,1396.28381,-42.9958197,0.161065515,-0.523694704,1.84041,23.3682,19085.3,29.0974,,-0.561314,-1.0,,,,,,,2023-08-31 17:28:44.176461+00:00
2023-08-31 10:28:44.376357-07:00,7.065693,1.23,-0.55,1.07,0.26,24.47,863.13,75.85,21.0,0.0,0.00455562,-0.00308194,-0.00474376,34.0613469,-106.883426,1396.27344,-42.9853824,0.159381997,-0.496531619,,,,,,,,,,,,,,2023-08-31 17:28:44.376357+00:00
2023-08-31 10:28:44.576604-07:00,7.26594,1.39,-0.62,1.23,0.21,24.58,863.12,75.48,27.0,0.0,0.00623572,-0.00350734,-0.0178017,34.0613469,-106.883426,1396.25525,-42.974418,0.157800745,-0.568707217,,,,,,,,,,,,,,2023-08-31 17:28:44.576604+00:00
2023-08-31 10:28:44.776151-07:00,7.465487,1.33,-0.93,0.93,0.22,24.91,863.11,73.88,30.0,0.0,0.00394472,0.00238056,-0.0233485,34.0613469,-106.883426,1396.23267,-42.9688386,0.154614115,-0.533582518,,,,,,,,,,,,,,2023-08-31 17:28:44.776151+00:00
2023-08-31 10:28:44.976585-07:00,7.665921,0.88,-0.72,0.09,0.5,25.59,863.12,70.99,23.0,0.0,0.00665554,-0.0033645,-0.0256703,34.0613468,-106.883426,1396.22754,-42.9616081,0.156945166,-0.509649717,1.83838,23.23,19158.9,29.107,,-0.477428,-1.0,,,,,,,2023-08-31 17:28:44.976585+00:00
2023-08-31 10:28:45.175752-07:00,7.865088,0.33,-0.24,0.05,0.22,25.99,863.12,69.19,23.0,0.0,0.00704183,-0.00264773,-0.0262701,34.0613468,-106.883426,1396.2583,-42.9507815,0.152704713,-0.528790614,,,,,,,,,,,,,,2023-08-31 17:28:45.175752+00:00
2023-08-31 10:28:45.375921-07:00,8.065257,0.72,-0.66,0.05,0.28,25.97,863.12,69.41,27.0,0.0,0.00791419,-0.00324883,-0.0159701,34.0613468,-106.883426,1396.24426,-42.9558992,0.147488842,-0.547500928,,,,,,,,,,,,,,2023-08-31 17:28:45.375921+00:00
2023-08-31 10:28:45.576019-07:00,8.265355,0.42,-0.38,0.03,0.19,26.4,863.12,67.83,26.0,0.0,-0.000252207,0.00148859,-0.0122805,34.0613467,-106.883426,1396.29346,-42.928049,0.152307623,-0.502759388,,,,,,,,,,,,,,2023-08-31 17:28:45.576019+00:00
2023-08-31 10:28:45.776097-07:00,8.465433,0.29,-0.27,0.04,0.09,26.17,863.12,68.74,22.0,0.0,0.00608652,-0.00155923,-0.0113676,34.0613467,-106.883426,1396.25,-42.9274438,0.156760006,-0.443937149,,,,,,,,,,,,,,2023-08-31 17:28:45.776097+00:00
2023-08-31 10:28:45.976363-07:00,8.665699,0.42,-0.4,0.1,0.09,26.31,863.12,68.1,23.0,0.0,0.00273176,0.00158274,-0.0238373,34.0613466,-106.883426,1396.2345,-42.914019,0.150139691,-0.446592759,,,,,,,,,,,,,,2023-08-31 17:28:45.976363+00:00
2023-08-31 10:28:46.175837-07:00,8.865173,0.7,-0.61,0.31,0.14,25.71,863.12,70.59,29.0,0.0,0.00373323,-0.00224158,-0.0314018,34.0613466,-106.883426,1396.20105,-42.911451,0.150553634,-0.466146023,1.83661,23.1006,19131.0,29.1175,,-0.297547,-1.0,,,,,,,2023-08-31 17:28:46.175837+00:00
2023-08-31 10:28:46.376363-07:00,9.065699,0.72,-0.53,0.47,0.11,25.28,863.12,72.48,25.0,0.0,0.00546367,-0.00550253,-0.0435959,34.0613465,-106.883426,1396.172,-42.9140141,0.149269325,-0.540223247,,,,,,,,,,,,,,2023-08-31 17:28:46.376363+00:00
2023-08-31 10:28:46.576170-07:00,9.265506,1.08,-0.15,1.07,0.06,24.86,863.12,74.14,21.0,0.0,0.00149079,-0.00132497,-0.0532989,34.0613465,-106.883426,1396.20447,-42.9017989,0.14866985,-0.559704911,,,,,,,,,,,,,,2023-08-31 17:28:46.576170+00:00
2023-08-31 10:28:46.776544-07:00,9.46588,1.61,0.26,1.59,0.09,24.49,863.13,75.97,24.0,0.0,0.00151197,-0.000713239,-0.0547661,34.0613464,-106.883426,1396.12476,-42.8857523,0.146445709,-0.492406085,,,,,,,,,,,,,,2023-08-31 17:28:46.776544+00:00
2023-08-31 10:28:46.975735-07:00,9.665071,1.32,0.02,1.31,0.13,24.8,863.13,74.56,30.0,0.0,0.00287052,-0.00741635,-0.0735743,34.0613464,-106.883426,1396.10474,-42.8688761,0.147796798,-0.51047268,,,,,,,,,,,,,,2023-08-31 17:28:46.975735+00:00
2023-08-31 10:28:47.176275-07:00,9.865611,1.06,-0.26,1.0,0.22,25.09,863.13,73.13,25.0,0.0,-0.00407681,-0.000732721,-0.0806251,34.0613464,-106.883426,1396.08069,-42.8569692,0.145211631,-0.510683411,1.83396,23.9619,19308.7,29.1279,,-0.302736,-1.0,,,,,,,2023-08-31 17:28:47.176275+00:00
2023-08-31 10:28:47.376236-07:00,10.065572,1.1,-0.42,1.01,0.18,25.06,863.14,74.33,22.0,0.0,-0.00146219,-0.00576486,-0.0713279,34.0613463,-106.883426,1396.1189,-42.8564493,0.146875801,-0.454720295,,,,,,,,,,,,,,2023-08-31 17:28:47.376236+00:00
2023-08-31 10:28:47.576206-07:00,10.265542,1.39,-0.56,1.27,0.16,25.05,863.14,73.44,26.0,0.0,0.00345807,-0.00896072,-0.0529988,34.0613463,-106.883426,1396.15076,-42.8624674,0.147963972,-0.529944218,,,,,,,,,,,,,,2023-08-31 17:28:47.576206+00:00
2023-08-31 10:28:47.776466-07:00,10.465802,1.62,-0.75,1.41,0.24,24.83,863.12,75.33,29.0,0.0,0.00033226,-0.00360587,-0.0509543,34.0613463,-106.883425,1396.10388,-42.846553,0.144879215,-0.583568219,,,,,,,,,,,,,,2023-08-31 17:28:47.776466+00:00
2023-08-31 10:28:47.975862-07:00,10.665198,1.68,-0.58,1.57,0.13,25.08,863.12,74.24,23.0,0.0,-0.00463481,-0.00125707,-0.0682354,34.0613463,-106.883425,1396.06311,-42.8267081,0.152215225,-0.505667667,,,,,,,,,,,,,,2023-08-31 17:28:47.975862+00:00
2023-08-31 10:28:48.176466-07:00,10.865802,1.74,-0.71,1.58,0.18,24.92,863.13,74.84,21.0,0.0,-0.00220623,-0.00484185,-0.0681126,34.0613463,-106.883426,1396.08801,-42.8134827,0.151497752,-0.496825328,,,,,,,,,,,,,,2023-08-31 17:28:48.176466+00:00
2023-08-31 10:28:48.376629-07:00,11.065965,1.72,-0.83,1.49,0.21,25.08,863.13,74.23,26.0,0.0,-0.00344255,-0.00323478,-0.064114,34.0613462,-106.883425,1396.07996,-42.8126691,0.147298798,-0.555254085,,,,,,,,,,,,,,2023-08-31 17:28:48.376629+00:00
2023-08-31 10:28:48.576304-07:00,11.26564,1.54,-0.63,1.39,0.19,25.48,863.11,72.57,29.0,0.0,-0.00478905,-0.00101936,-0.0739642,34.0613462,-106.883425,1396.03442,-42.8090799,0.148863027,-0.534615842,,,,,,,,,,,,,,2023-08-31 17:28:48.576304+00:00
2023-08-31 10:28:48.776259-07:00,11.465595,1.51,-0.65,1.35,0.17,25.6,863.14,71.99,23.0,0.0,-0.00445279,0.000661215,-0.0774852,34.0613461,-106.883425,1396.01465,-42.7931657,0.149652647,-0.50225212,,,,,,,,,,,,,,2023-08-31 17:28:48.776259+00:00
2023-08-31 10:28:48.975955-07:00,11.665291,1.59,-0.73,1.37,0.35,25.82,863.13,71.09,22.0,0.0,-1.24952e-05,-0.00388408,-0.094449,34.061346,-106.883425,1395.94995,-42.7913916,0.149869403,-0.519231044,,,,,,,,,,,,,,2023-08-31 17:28:48.975955+00:00
2023-08-31 10:28:49.176010-07:00,11.865346,1.62,-0.95,1.28,0.31,26.01,863.14,70.29,29.0,0.0,-0.0011325,-0.00178168,-0.101362,34.0613459,-106.883425,1395.92065,-42.7756695,0.149904443,-0.50978131,1.83211,23.045,19319.1,29.1483,,-0.0340851,-1.0,,,,,,,2023-08-31 17:28:49.176010+00:00
2023-08-31 10:28:49.376237-07:00,12.065573,1.92,-1.01,1.62,0.24,25.72,863.14,71.52,27.0,0.0,-0.000684734,0.000266952,-0.093365,34.0613459,-106.883425,1395.9624,-42.7658158,0.150805793,-0.463849723,,,,,,,,,,,,,,2023-08-31 17:28:49.376237+00:00
2023-08-31 10:28:49.576365-07:00,12.265701,2.19,-1.18,1.8,0.37,25.68,863.13,71.76,21.0,0.0,-0.000207853,-0.00197402,-0.0894189,34.0613458,-106.883425,1395.94214,-42.7583304,0.151979213,-0.476902014,,,,,,,,,,,,,,2023-08-31 17:28:49.576365+00:00
2023-08-31 10:28:49.776079-07:00,12.465415,2.96,-1.03,2.77,0.21,23.97,863.12,79.4,23.0,0.0,-0.000568595,0.0010809,-0.0713385,34.0613458,-106.883425,1395.96826,-42.7553948,0.152974396,-0.467927214,,,,,,,,,,,,,,2023-08-31 17:28:49.776079+00:00
2023-08-31 10:28:49.976408-07:00,12.665744,3.0,-1.31,2.69,0.19,23.44,863.12,81.96,30.0,0.0,-0.00117915,0.00475253,-0.0706377,34.0613457,-106.883425,1395.94336,-42.7503124,0.154338879,-0.439532454,1.83267,23.0115,19470.5,29.1589,,0.00555837,-1.0,,,,,,,2023-08-31 17:28:49.976408+00:00
2023-08-31 10:28:50.175752-07:00,12.865088,3.56,-1.53,3.21,0.27,23.23,863.11,83.32,25.0,0.0,-5.88795e-07,7.94986e-05,-0.0592626,34.0613456,-106.883425,1395.97119,-42.7408099,0.150992297,-0.43894432,1.83267,23.0115,19470.5,29.1589,,0.00555837,-1.0,,,,,,,2023-08-31 17:28:50.175752+00:00
2023-08-31 10:28:50.376431-07:00,13.065767,3.7,-1.51,3.37,0.26,23.68,863.1,80.78,21.0,0.0,-9.92992e-05,-0.000643625,-0.038733,34.0613456,-106.883425,1396.02087,-42.7240386,0.152290641,-0.451032998,,,,,,,,,,,,,,2023-08-31 17:28:50.376431+00:00
2023-08-31 10:28:50.576624-07:00,13.26596,3.98,-1.61,3.63,0.27,23.57,863.09,81.24,24.0,0.0,-0.000118312,-0.000782377,-0.0274788,34.0613455,-106.883425,1396.005,-42.7151266,0.153243511,-0.453240072,,,,,,,,,,,,,,2023-08-31 17:28:50.576624+00:00
2023-08-31 10:28:50.775770-07:00,13.465106,4.22,-1.24,4.03,0.03,23.03,863.09,84.01,29.0,0.0,0.000196875,-0.000436224,-0.0224787,34.0613455,-106.883425,1396.0072,-42.7173304,0.15135329,-0.44471955,,,,,,,,,,,,,,2023-08-31 17:28:50.775770+00:00
2023-08-31 10:28:50.975864-07:00,13.6652,3.69,-1.0,3.55,0.09,23.25,863.08,82.98,23.0,0.0,0.0017012,-0.00102253,-0.0131726,34.0613454,-106.883425,1396.00854,-42.6990682,0.148516518,-0.474794508,,,,,,,,,,,,,,2023-08-31 17:28:50.975864+00:00
2023-08-31 10:28:51.176005-07:00,13.865341,3.47,-1.15,3.27,0.16,23.18,863.1,82.49,21.0,0.0,0.00104852,-0.000623399,-0.00718042,34.0613453,-106.883425,1396.00781,-42.6924456,0.150439862,-0.478050487,,,,,,,,,,,,,,2023-08-31 17:28:51.176005+00:00
2023-08-31 10:28:51.375755-07:00,14.065091,3.78,-0.52,3.74,0.11,23.26,863.09,82.93,26.0,0.0,0.00154159,-0.00216464,-0.00506903,34.0613452,-106.883425,1395.99878,-42.6799945,0.148978288,-0.48006082,,,,,,,,,,,,,,2023-08-31 17:28:51.375755+00:00
2023-08-31 10:28:51.575912-07:00,14.265248,3.34,-0.49,3.3,0.19,23.03,863.12,83.28,29.0,0.0,0.00167407,-0.00208524,-0.00401617,34.0613452,-106.883425,1395.98901,-42.6639016,0.147390757,-0.50417644,,,,,,,,,,,,,,2023-08-31 17:28:51.575912+00:00
2023-08-31 10:28:51.776206-07:00,14.465542,2.75,-0.56,2.67,0.3,23.37,863.11,81.65,22.0,0.0,0.00139794,-0.00205617,-0.00107988,34.0613451,-106.883424,1395.98499,-42.6555828,0.144041178,-0.507552019,,,,,,,,,,,,,,2023-08-31 17:28:51.776206+00:00
2023-08-31 10:28:51.975762-07:00,14.665098,2.74,-1.17,2.46,0.3,23.69,863.11,79.94,22.0,0.0,0.00123094,-0.0016488,-0.00249262,34.061345,-106.883424,1395.974,-42.6470796,0.143825036,-0.513616294,1.83261,22.7575,19379.1,29.1791,,0.321513,-1.0,,,,,,,2023-08-31 17:28:51.975762+00:00
2023-08-31 10:28:52.175801-07:00,14.865137,2.29,-0.59,2.21,0.19,24.0,863.12,78.69,28.0,0.0,0.000791233,-0.00134702,-0.00121194,34.061345,-106.883424,1395.95288,-42.6358582,0.142695821,-0.509516843,,,,,,,,,,,,,,2023-08-31 17:28:52.175801+00:00
2023-08-31 10:28:52.376388-07:00,15.065724,2.67,-0.9,2.5,0.28,23.79,863.12,79.43,28.0,0.0,0.000725019,-0.00174003,-0.00155614,34.0613449,-106.883424,1395.93372,-42.6245838,0.144051624,-0.49941727,,,,,,,,,,,,,,2023-08-31 17:28:52.376388+00:00
2023-08-31 10:28:52.576077-07:00,15.265413,2.88,-0.73,2.78,0.19,23.71,863.1,79.89,22.0,0.0,0.00033999,-0.00100172,-0.00252428,34.0613449,-106.883424,1395.90918,-42.6142657,0.145914172,-0.487999171,,,,,,,,,,,,,,2023-08-31 17:28:52.576077+00:00
2023-08-31 10:28:52.776468-07:00,15.465804,3.29,-0.76,3.2,0.12,23.63,863.09,80.2,22.0,0.0,0.000944182,-0.00158288,-0.000394047,34.0613448,-106.883424,1395.89465,-42.6019812,0.147859507,-0.470269247,,,,,,,,,,,,,,2023-08-31 17:28:52.776468+00:00
2023-08-31 10:28:52.976091-07:00,15.665427,2.84,-1.07,2.62,0.24,23.95,863.08,78.92,29.0,0.0,0.00104639,-0.0012067,-0.00268303,34.0613448,-106.883424,1395.875,-42.5917781,0.153293098,-0.479708093,1.83445,22.2988,18864.0,29.1896,,0.348782,-1.0,,,,,,,2023-08-31 17:28:52.976091+00:00
2023-08-31 10:28:53.176444-07:00,15.86578,2.61,-1.06,2.38,0.24,23.94,863.1,78.83,27.0,0.0,0.000751085,-0.000647111,-0.000157832,34.0613447,-106.883424,1395.854,-42.5847569,0.155550198,-0.473121375,,,,,,,,,,,,,,2023-08-31 17:28:53.176444+00:00
2023-08-31 10:28:53.376314-07:00,16.06565,2.78,-1.37,2.4,0.26,23.51,863.1,80.96,22.0,0.0,0.000565432,-0.000478505,-0.000298398,34.0613446,-106.883424,1395.85583,-42.578877,0.159494203,-0.456153293,,,,,,,,,,,,,,2023-08-31 17:28:53.376314+00:00
2023-08-31 10:28:53.576478-07:00,16.265814,3.06,-1.36,2.73,0.07,23.42,863.11,81.4,24.0,0.0,0.0010606,-0.0013497,0.0029577,34.0613446,-106.883424,1395.8595,-42.5748412,0.160215989,-0.448036588,,,,,,,,,,,,,,2023-08-31 17:28:53.576478+00:00
2023-08-31 10:28:53.775938-07:00,16.465274,3.08,-1.28,2.78,0.33,23.14,863.1,82.93,30.0,0.0,0.000646466,-0.000644212,0.00241637,34.0613445,-106.883424,1395.85352,-42.5597397,0.15933569,-0.450308549,,,,,,,,,,,,,,2023-08-31 17:28:53.775938+00:00
2023-08-31 10:28:53.976298-07:00,16.665634,2.99,-1.46,2.59,0.38,23.16,863.11,81.66,25.0,0.0,0.00076201,-0.000915591,-0.000666202,34.0613444,-106.883424,1395.84741,-42.5490795,0.159477834,-0.463076072,1.83664,22.3854,18737.8,29.1988,,0.451406,-1.0,,,,,,,2023-08-31 17:28:53.976298+00:00
2023-08-31 10:28:54.175695-07:00,16.865031,3.23,-1.37,2.9,0.37,22.99,863.09,82.78,21.0,0.0,0.000431523,0.000134316,0.000696299,34.0613444,-106.883424,1395.82581,-42.5435369,0.156444768,-0.459589094,1.83664,22.3854,18737.8,29.1988,,0.451406,-1.0,,,,,,,2023-08-31 17:28:54.175695+00:00
2023-08-31 10:28:54.376474-07:00,17.06581,3.3,-1.18,3.07,0.24,23.18,863.1,81.92,26.0,0.0,0.000322268,-0.000500812,-0.00204553,34.0613443,-106.883424,1395.81628,-42.5365589,0.157985484,-0.450946178,,,,,,,,,,,,,,2023-08-31 17:28:54.376474+00:00
2023-08-31 10:28:54.576606-07:00,17.265942,3.05,-1.15,2.82,0.15,23.34,863.1,80.97,31.0,0.0,0.00180773,-0.00162983,0.000338217,34.0613442,-106.883424,1395.80798,-42.5271869,0.156801632,-0.451558779,,,,,,,,,,,,,,2023-08-31 17:28:54.576606+00:00
2023-08-31 10:28:54.775971-07:00,17.465307,2.81,-1.14,2.54,0.39,23.33,863.11,80.99,24.0,0.0,0.00149614,-0.00111444,0.00106778,34.0613442,-106.883424,1395.79382,-42.5174542,0.155158154,-0.449438954,,,,,,,,,,,,,,2023-08-31 17:28:54.775971+00:00
2023-08-31 10:28:54.975715-07:00,17.665051,3.15,-1.35,2.83,0.38,23.22,863.1,81.62,22.0,0.0,0.00185703,-0.00114075,-0.00133682,34.0613441,-106.883424,1395.78943,-42.5077307,0.154771863,-0.462893359,,,,,,,,,,,,,,2023-08-31 17:28:54.975715+00:00
2023-08-31 10:28:55.175816-07:00,17.865152,3.19,-1.33,2.88,0.34,23.23,863.1,81.41,27.0,0.0,0.000636968,-0.000397532,0.00118754,34.061344,-106.883424,1395.77893,-42.4968019,0.15417171,-0.456835693,1.83817,21.8861,18776.6,29.2092,,0.472036,-1.0,,,,,,,2023-08-31 17:28:55.175816+00:00
2023-08-31 10:28:55.376074-07:00,18.06541,2.64,-1.13,2.35,0.43,23.3,863.11,81.24,30.0,0.0,0.00136249,-0.000685583,-0.00106746,34.061344,-106.883424,1395.77271,-42.4943812,0.156197949,-0.454853115,,,,,,,,,,,,,,2023-08-31 17:28:55.376074+00:00
2023-08-31 10:28:55.576442-07:00,18.265778,2.78,-1.24,2.45,0.41,23.19,863.11,81.69,23.0,0.0,0.000400077,-0.000871059,-0.00317044,34.0613439,-106.883424,1395.7395,-42.4821555,0.155479553,-0.472957551,,,,,,,,,,,,,,2023-08-31 17:28:55.576442+00:00
2023-08-31 10:28:55.775847-07:00,18.465183,2.83,-1.44,2.39,0.44,23.02,863.11,82.53,22.0,0.0,-0.000512641,0.00082998,-0.00461661,34.0613439,-106.883424,1395.74133,-42.4742972,0.153190302,-0.47228849,,,,,,,,,,,,,,2023-08-31 17:28:55.775847+00:00
2023-08-31 10:28:55.976181-07:00,18.665517,3.11,-1.61,2.63,0.4,22.95,863.1,82.97,27.0,0.0,0.00178255,-0.0014665,-0.00178953,34.0613438,-106.883424,1395.73096,-42.4633464,0.155064224,-0.463648173,1.84384,21.4464,18401.5,29.2192,,0.408315,-1.0,,,,,,,2023-08-31 17:28:55.976181+00:00
2023-08-31 10:28:56.175945-07:00,18.865281,3.2,-1.39,2.87,0.3,22.98,863.11,82.91,28.0,0.0,0.000168434,-0.000495232,0.00124824,34.0613438,-106.883424,1395.72034,-42.4520312,0.157940598,-0.466187539,,,,,,,,,,,,,,2023-08-31 17:28:56.175945+00:00
2023-08-31 10:28:56.376299-07:00,19.065635,3.11,-1.48,2.72,0.29,22.94,863.1,82.11,22.0,0.0,-5.7324e-05,0.000156316,-0.00172241,34.0613438,-106.883424,1395.71057,-42.4447827,0.159445117,-0.456826675,,,,,,,,,,,,,,2023-08-31 17:28:56.376299+00:00
2023-08-31 10:28:56.575984-07:00,19.26532,2.55,-1.36,2.11,0.39,23.14,863.11,81.0,22.0,0.0,0.00106353,-0.000796469,0.000420366,34.0613437,-106.883424,1395.70923,-42.4371603,0.158471453,-0.45374168,,,,,,,,,,,,,,2023-08-31 17:28:56.575984+00:00
2023-08-31 10:28:56.776024-07:00,19.46536,2.55,-1.34,2.13,0.37,23.21,863.11,81.0,28.0,0.0,0.000353398,-0.000571184,0.00138824,34.0613436,-106.883424,1395.70789,-42.4285501,0.160451552,-0.462796666,,,,,,,,,,,,,,2023-08-31 17:28:56.776024+00:00
2023-08-31 10:28:56.975835-07:00,19.665171,2.44,-1.1,2.15,0.34,23.31,863.12,80.35,28.0,0.0,-6.68715e-05,0.000342236,-0.00112723,34.0613436,-106.883424,1395.69348,-42.4180737,0.160350178,-0.459215823,,,,,,,,,,,,,,2023-08-31 17:28:56.975835+00:00
2023-08-31 10:28:57.176282-07:00,19.865618,2.29,-1.01,2.0,0.48,23.46,863.12,79.64,22.0,0.0,0.000931859,-0.000208507,-0.00111107,34.0613435,-106.883424,1395.68726,-42.4092391,0.15427216,-0.449732127,,,,,,,,,,,,,,2023-08-31 17:28:57.176282+00:00
2023-08-31 10:28:57.376575-07:00,20.065911,2.54,-1.03,2.29,0.4,23.52,863.11,79.28,23.0,0.0,-0.000181721,-0.000225112,-0.00396434,34.0613435,-106.883424,1395.67993,-42.3995651,0.156016844,-0.461817836,,,,,,,,,,,,,,2023-08-31 17:28:57.376575+00:00
2023-08-31 10:28:57.576627-07:00,20.265963,2.93,-0.87,2.78,0.33,23.24,863.09,80.7,29.0,0.0,-0.000507043,0.0010272,-0.00099521,34.0613434,-106.883424,1395.66699,-42.3911801,0.155882256,-0.453844883,,,,,,,,,,,,,,2023-08-31 17:28:57.576627+00:00
2023-08-31 10:28:57.776091-07:00,20.465427,2.59,-0.35,2.56,0.23,22.87,863.11,82.51,26.0,0.0,0.000396638,0.000561179,-0.00366808,34.0613434,-106.883424,1395.65503,-42.3818656,0.151230418,-0.457580901,,,,,,,,,,,,,,2023-08-31 17:28:57.776091+00:00
2023-08-31 10:28:57.976225-07:00,20.665561,2.9,-0.23,2.88,0.26,22.83,863.11,82.71,21.0,0.0,-4.44548e-05,-0.000145113,-0.00192385,34.0613434,-106.883424,1395.65283,-42.3721781,0.151695705,-0.471644723,1.84762,21.7605,17851.7,29.2382,,0.339963,-1.0,,,,,,,2023-08-31 17:28:57.976225+00:00
2023-08-31 10:28:58.176580-07:00,20.865916,2.67,-0.01,2.67,0.19,23.2,863.1,80.88,24.0,0.0,0.000261992,-0.000408558,-0.00108653,34.0613433,-106.883424,1395.63916,-42.3631304,0.15276944,-0.470716266,,,,,,,,,,,,,,2023-08-31 17:28:58.176580+00:00
2023-08-31 10:28:58.376274-07:00,21.06561,2.06,0.17,2.03,0.3,23.34,863.11,80.39,30.0,0.0,0.000335741,-0.000634251,-0.0031852,34.0613432,-106.883424,1395.63367,-42.3546551,0.151014989,-0.484719761,,,,,,,,,,,,,,2023-08-31 17:28:58.376274+00:00
2023-08-31 10:28:58.576691-07:00,21.266027,2.11,0.4,2.05,0.35,23.38,863.1,80.16,24.0,0.0,0.000837915,0.000240011,0.00019532,34.0613432,-106.883424,1395.63684,-42.3472476,0.147131428,-0.488532852,,,,,,,,,,,,,,2023-08-31 17:28:58.576691+00:00
2023-08-31 10:28:58.776059-07:00,21.465395,2.45,0.5,2.38,0.3,23.24,863.11,79.85,21.0,0.0,0.000286297,0.000364263,-0.000338531,34.0613431,-106.883424,1395.63623,-42.3363308,0.148602977,-0.481688117,,,,,,,,,,,,,,2023-08-31 17:28:58.776059+00:00
2023-08-31 10:28:58.976251-07:00,21.665587,2.12,0.19,2.08,0.39,23.42,863.11,78.93,26.0,0.0,0.000304339,-0.000580691,0.000772191,34.0613431,-106.883424,1395.64197,-42.3301594,0.150425035,-0.475172209,1.84662,21.81,17750.1,29.2478,,0.218175,-1.0,,,,,,,2023-08-31 17:28:58.976251+00:00
2023-08-31 10:28:59.175821-07:00,21.865157,1.98,-0.3,1.92,0.37,23.48,863.12,78.73,29.0,0.0,-6.57624e-05,0.000116143,0.0013675,34.061343,-106.883424,1395.6366,-42.3221531,0.148632234,-0.475392277,1.84662,21.81,17750.1,29.2478,,0.218175,-1.0,,,,,,,2023-08-31 17:28:59.175821+00:00
2023-08-31 10:28:59.375787-07:00,22.065123,1.67,0.14,1.64,0.29,23.43,863.11,78.86,24.0,0.0,-0.00034226,0.000580711,-0.00233599,34.061343,-106.883424,1395.63745,-42.3134145,0.146067177,-0.479026918,,,,,,,,,,,,,,2023-08-31 17:28:59.375787+00:00
2023-08-31 10:28:59.575846-07:00,22.265182,1.97,0.19,1.95,0.24,23.41,863.12,79.1,22.0,0.0,0.000121044,0.000466603,0.00255121,34.0613429,-106.883424,1395.64856,-42.3064539,0.147160961,-0.475418158,,,,,,,,,,,,,,2023-08-31 17:28:59.575846+00:00
2023-08-31 10:28:59.776068-07:00,22.465404,1.76,-0.2,1.72,0.29,23.92,863.12,76.59,28.0,0.0,-0.000563954,0.000901473,0.00196376,34.0613429,-106.883424,1395.66455,-42.2981323,0.149416852,-0.477467659,,,,,,,,,,,,,,2023-08-31 17:28:59.776068+00:00
2023-08-31 10:28:59.976465-07:00,22.665801,1.73,-0.29,1.69,0.25,23.91,863.12,76.78,29.0,0.0,-0.000358022,0.000221202,0.000835028,34.0613428,-106.883424,1395.65686,-42.2899389,0.150618634,-0.475765282,1.84608,20.797,17703.1,29.2576,,0.135446,-1.0,,,,,,,2023-08-31 17:28:59.976465+00:00
2023-08-31 10:29:00.175942-07:00,22.865278,1.74,-0.5,1.64,0.26,23.69,863.11,77.78,23.0,0.0,-0.00062832,0.000873499,0.00166012,34.0613427,-106.883424,1395.66711,-42.281846,0.150469174,-0.479093407,1.84608,20.797,17703.1,29.2576,,0.135446,-1.0,,,,,,,2023-08-31 17:29:00.175942+00:00
2023-08-31 10:29:00.376250-07:00,23.065586,1.82,-0.75,1.63,0.31,23.78,863.11,77.37,22.0,0.0,-0.0008495,0.00106062,-0.000324672,34.0613427,-106.883424,1395.66284,-42.2713457,0.148990838,-0.485927361,,,,,,,,,,,,,,2023-08-31 17:29:00.376250+00:00
2023-08-31 10:29:00.576407-07:00,23.265743,1.43,-0.03,1.42,0.15,24.02,863.13,76.26,28.0,0.0,-0.000137719,0.000339378,-0.00138082,34.0613426,-106.883424,1395.65137,-42.2639878,0.151117593,-0.475465437,,,,,,,,,,,,,,2023-08-31 17:29:00.576407+00:00
2023-08-31 10:29:00.775873-07:00,23.465209,1.39,-0.25,1.36,0.14,23.98,863.11,76.4,27.0,0.0,-0.000369102,0.00114869,-0.00541832,34.0613426,-106.883424,1395.64502,-42.2520994,0.14837657,-0.484408176,,,,,,,,,,,,,,2023-08-31 17:29:00.775873+00:00
2023-08-31 10:29:00.975947-07:00,23.665283,1.64,-0.29,1.61,0.13,24.24,863.11,75.26,21.0,0.0,-0.000373326,0.000898232,-0.00232006,34.0613424,-106.883424,1395.64551,-42.243912,0.147526149,-0.484948101,,,,,,,,,,,,,,2023-08-31 17:29:00.975947+00:00
2023-08-31 10:29:01.175724-07:00,23.86506,1.4,0.26,1.37,0.06,24.29,863.11,74.98,23.0,0.0,-0.000760452,0.000954142,-0.0039746,34.0613424,-106.883424,1395.64868,-42.2372969,0.145350119,-0.490401884,1.84846,21.1172,17694.1,29.2674,,0.0672334,-1.0,,,,,,,2023-08-31 17:29:01.175724+00:00
2023-08-31 10:29:01.375927-07:00,24.065263,1.71,0.53,1.62,0.02,24.13,863.13,75.68,29.0,0.0,-0.000850675,0.000616819,0.00155073,34.0613423,-106.883424,1395.65466,-42.2271285,0.145354725,-0.484660742,,,,,,,,,,,,,,2023-08-31 17:29:01.375927+00:00
2023-08-31 10:29:01.576595-07:00,24.265931,2.06,0.15,2.05,0.2,23.58,863.12,78.41,26.0,0.0,-0.000665568,0.000544257,0.00216806,34.0613422,-106.883424,1395.65979,-42.2106701,0.145816213,-0.485771595,,,,,,,,,,,,,,2023-08-31 17:29:01.576595+00:00
2023-08-31 10:29:01.776548-07:00,24.465884,2.05,-0.02,2.05,0.15,23.66,863.11,77.95,21.0,0.0,-0.00111363,0.000951093,-0.00232367,34.0613421,-106.883424,1395.65332,-42.2040222,0.148924957,-0.489450212,,,,,,,,,,,,,,2023-08-31 17:29:01.776548+00:00
2023-08-31 10:29:01.975737-07:00,24.665073,2.04,0.22,2.02,0.2,23.94,863.11,76.63,23.0,0.0,-0.000468194,0.000299924,-0.000434822,34.061342,-106.883424,1395.65149,-42.1994689,0.15000382,-0.476956338,,,,,,,,,,,,,,2023-08-31 17:29:01.975737+00:00
2023-08-31 10:29:02.175803-07:00,24.865139,2.02,0.24,2.01,0.14,23.95,863.11,76.68,29.0,0.0,-0.000313576,0.000165785,-0.0027262,34.061342,-106.883424,1395.64917,-42.1942363,0.15393329,-0.481354119,1.84827,21.1062,17737.2,29.2766,,-0.041165,-1.0,,,,,,,2023-08-31 17:29:02.175803+00:00
2023-08-31 10:29:02.376588-07:00,25.065924,1.69,-0.62,1.55,0.31,24.19,863.12,75.41,25.0,0.0,-0.00119225,0.000624333,-0.0020665,34.0613419,-106.883424,1395.64417,-42.1816736,0.156122155,-0.477920922,,,,,,,,,,,,,,2023-08-31 17:29:02.376588+00:00
2023-08-31 10:29:02.576128-07:00,25.265464,1.75,-0.29,1.71,0.2,23.88,863.11,77.0,21.0,0.0,-0.000537622,0.000349532,0.000784809,34.0613418,-106.883424,1395.64771,-42.1752447,0.154928105,-0.480709498,,,,,,,,,,,,,,2023-08-31 17:29:02.576128+00:00
2023-08-31 10:29:02.775687-07:00,25.465023,1.9,0.13,1.89,0.07,24.04,863.11,77.07,24.0,0.0,-0.00089828,0.00100458,-0.00127311,34.0613417,-106.883424,1395.64819,-42.1679955,0.154037866,-0.495389601,,,,,,,,,,,,,,2023-08-31 17:29:02.775687+00:00
2023-08-31 10:29:02.976447-07:00,25.665783,1.69,-0.88,1.42,0.29,24.3,863.11,75.85,30.0,0.0,-0.000700743,0.00037831,0.000318455,34.0613416,-106.883424,1395.64172,-42.1603543,0.150343953,-0.486060341,1.84348,19.9702,17825.7,29.286,,-0.127104,-1.0,,,,,,,2023-08-31 17:29:02.976447+00:00
2023-08-31 10:29:03.175710-07:00,25.865046,2.24,-1.3,1.81,0.17,23.79,863.12,78.29,24.0,0.0,-0.000751399,0.000342324,-0.00181419,34.0613415,-106.883424,1395.64661,-42.1545386,0.153149457,-0.483563817,1.84348,19.9702,17825.7,29.286,,-0.127104,-1.0,,,,,,,2023-08-31 17:29:03.175710+00:00
2023-08-31 10:29:03.376605-07:00,26.065941,2.09,-1.51,1.41,0.25,23.89,863.12,77.7,21.0,0.0,8.20423e-05,0.000791118,0.000423383,34.0613414,-106.883424,1395.64233,-42.1510482,0.154743369,-0.48884988,,,,,,,,,,,,,,2023-08-31 17:29:03.376605+00:00
2023-08-31 10:29:03.576201-07:00,26.265537,1.71,-0.67,1.54,0.31,24.42,863.11,75.39,25.0,0.0,-0.000103749,0.000426973,-0.0018377,34.0613413,-106.883424,1395.63,-42.1435911,0.153531697,-0.481919871,,,,,,,,,,,,,,2023-08-31 17:29:03.576201+00:00
2023-08-31 10:29:03.775741-07:00,26.465077,1.71,-0.59,1.57,0.33,24.38,863.11,75.59,29.0,0.0,-0.000162033,0.000136799,-0.00457097,34.0613412,-106.883424,1395.61987,-42.1375307,0.155140014,-0.480832499,,,,,,,,,,,,,,2023-08-31 17:29:03.775741+00:00
2023-08-31 10:29:03.976073-07:00,26.665409,2.2,-0.58,2.1,0.28,24.13,863.13,76.7,23.0,0.0,0.000114181,0.000557668,0.0002103,34.0613412,-106.883424,1395.61621,-42.1326824,0.154152453,-0.48058607,,,,,,,,,,,,,,2023-08-31 17:29:03.976073+00:00
2023-08-31 10:29:04.175900-07:00,26.865236,2.15,-0.61,2.01,0.46,23.79,863.12,78.32,21.0,0.0,-0.000603432,0.000886111,-0.000208637,34.0613411,-106.883424,1395.62048,-42.122852,0.151922661,-0.482254882,1.84332,20.5956,17972.7,29.2964,,-0.221478,-1.0,,,,,,,2023-08-31 17:29:04.175900+00:00
2023-08-31 10:29:04.376591-07:00,27.065927,2.23,-0.76,2.05,0.41,23.7,863.13,78.73,26.0,0.0,-0.000113851,0.000244045,0.00198871,34.061341,-106.883424,1395.62,-42.1120195,0.150674463,-0.474003567,,,,,,,,,,,,,,2023-08-31 17:29:04.376591+00:00
2023-08-31 10:29:04.576432-07:00,27.265768,2.5,-1.07,2.22,0.38,23.64,863.12,78.03,30.0,0.0,-0.000377508,-6.50344e-06,0.00106105,34.0613409,-106.883424,1395.62158,-42.1009189,0.149974894,-0.473569461,,,,,,,,,,,,,,2023-08-31 17:29:04.576432+00:00
2023-08-31 10:29:04.776045-07:00,27.465381,2.51,-1.0,2.28,0.32,23.75,863.11,77.57,23.0,0.0,-0.000430438,-0.000122559,0.000270818,34.0613408,-106.883424,1395.61902,-42.0923365,0.152380441,-0.474777806,,,,,,,,,,,,,,2023-08-31 17:29:04.776045+00:00
2023-08-31 10:29:04.976644-07:00,27.66598,2.42,-1.15,2.09,0.41,23.5,863.12,79.62,22.0,0.0,0.000253005,-5.5312e-05,0.00148043,34.0613408,-106.883424,1395.61365,-42.0839219,0.150429095,-0.472414533,1.84141,19.8578,18166.9,29.3063,,-0.256982,-1.0,,,,,,,2023-08-31 17:29:04.976644+00:00
2023-08-31 10:29:05.176044-07:00,27.86538,2.18,-1.13,1.82,0.37,23.64,863.12,78.1,28.0,0.0,0.0001496,-0.000256219,-0.00219075,34.0613407,-106.883424,1395.60754,-42.0759865,0.151345121,-0.486176405,,,,,,,,,,,,,,2023-08-31 17:29:05.176044+00:00
2023-08-31 10:29:05.376050-07:00,28.065386,1.96,-0.92,1.7,0.32,24.17,863.12,75.61,29.0,0.0,0.000288274,-0.000306577,-0.00199233,34.0613407,-106.883424,1395.59534,-42.0730885,0.151468945,-0.491281517,,,,,,,,,,,,,,2023-08-31 17:29:05.376050+00:00
2023-08-31 10:29:05.575898-07:00,28.265234,2.03,-0.91,1.8,0.24,24.25,863.12,76.24,22.0,0.0,-0.000338201,0.00070868,-0.00355615,34.0613406,-106.883424,1395.58398,-42.061097,0.151581283,-0.488152749,,,,,,,,,,,,,,2023-08-31 17:29:05.575898+00:00
2023-08-31 10:29:05.776447-07:00,28.465783,2.02,-0.96,1.75,0.31,24.0,863.13,76.44,22.0,0.0,0.000355384,7.95649e-06,-0.00260215,34.0613405,-106.883424,1395.58228,-42.0521019,0.153079798,-0.487653006,,,,,,,,,,,,,,2023-08-31 17:29:05.776447+00:00
2023-08-31 10:29:05.975950-07:00,28.665286,1.87,-0.93,1.61,0.22,24.24,863.12,75.36,28.0,0.0,-5.63367e-05,1.29216e-05,-0.00239676,34.0613405,-106.883424,1395.57263,-42.0462137,0.152721805,-0.493564645,,,,,,,,,,,,,,2023-08-31 17:29:05.975950+00:00
2023-08-31 10:29:06.176490-07:00,28.865826,1.88,-1.12,1.5,0.12,24.17,863.1,75.66,27.0,0.0,-0.000353779,-7.14722e-05,-0.0037092,34.0613404,-106.883424,1395.57617,-42.0388054,0.154333176,-0.493676974,1.84129,19.6387,18115.8,29.3161,,-0.292786,-1.0,,,,,,,2023-08-31 17:29:06.176490+00:00
2023-08-31 10:29:06.376068-07:00,29.065404,2.25,-1.48,1.69,0.11,23.62,863.12,78.46,21.0,0.0,0.000547991,-0.000449582,0.000317042,34.0613403,-106.883424,1395.58118,-42.0309595,0.151867491,-0.484084638,,,,,,,,,,,,,,2023-08-31 17:29:06.376068+00:00
2023-08-31 10:29:06.575704-07:00,29.26504,2.09,-1.11,1.75,0.24,23.84,863.13,77.26,23.0,0.0,-0.000225086,-0.000243805,-0.00312125,34.0613403,-106.883424,1395.57336,-42.0217028,0.153807735,-0.48689328,,,,,,,,,,,,,,2023-08-31 17:29:06.575704+00:00
2023-08-31 10:29:06.775729-07:00,29.465065,1.94,-1.17,1.52,0.32,23.54,863.11,78.64,30.0,0.0,0.000208258,-0.000211479,-0.00245811,34.0613402,-106.883424,1395.56921,-42.0147114,0.153678986,-0.477313601,,,,,,,,,,,,,,2023-08-31 17:29:06.775729+00:00
2023-08-31 10:29:06.976501-07:00,29.665837,1.86,-0.8,1.66,0.28,24.0,863.12,76.58,27.0,0.0,0.00014437,-3.2839e-05,-0.000879172,34.0613402,-106.883424,1395.57959,-42.0054954,0.154903266,-0.465935774,,,,,,,,,,,,,,2023-08-31 17:29:06.976501+00:00
2023-08-31 10:29:07.175731-07:00,29.865067,2.64,-1.0,2.43,0.23,23.7,863.13,78.13,22.0,0.0,0.000217681,0.000400844,0.000358663,34.0613401,-106.883424,1395.58301,-42.0048145,0.154826614,-0.461767782,1.84529,18.8411,18036.4,29.3258,,-0.356286,-1.0,,,,,,,2023-08-31 17:29:07.175731+00:00
2023-08-31 10:29:07.376550-07:00,30.065886,2.8,-1.33,2.45,0.24,23.82,863.11,77.35,24.0,0.0,0.00062357,-0.000649705,0.00182822,34.0613401,-106.883424,1395.59399,-41.9927981,0.151884076,-0.467152229,,,,,,,,,,,,,,2023-08-31 17:29:07.376550+00:00
2023-08-31 10:29:07.575850-07:00,30.265186,2.62,-1.14,2.35,0.24,23.58,863.11,78.57,30.0,0.0,0.000339495,-0.000196622,-0.00323823,34.06134,-106.883424,1395.58899,-41.9852129,0.150900783,-0.472348043,,,,,,,,,,,,,,2023-08-31 17:29:07.575850+00:00
2023-08-31 10:29:07.775688-07:00,30.465024,2.67,-1.16,2.39,0.24,23.62,863.11,78.35,25.0,0.0,0.00107577,-0.000931501,-0.0011798,34.06134,-106.883424,1395.58594,-41.9837412,0.149642768,-0.46879281,,,,,,,,,,,,,,2023-08-31 17:29:07.775688+00:00
2023-08-31 10:29:07.976282-07:00,30.665618,2.64,-1.21,2.34,0.25,23.66,863.12,78.27,22.0,0.0,0.000651705,-0.00143076,-0.00311985,34.0613399,-106.883424,1395.58655,-41.9752944,0.151200536,-0.477752669,,,,,,,,,,,,,,2023-08-31 17:29:07.976282+00:00
2023-08-31 10:29:08.175805-07:00,30.865141,2.95,-1.23,2.67,0.23,23.84,863.11,77.26,26.0,0.0,1.24481e-05,-0.00119852,-0.00464862,34.0613398,-106.883424,1395.58264,-41.9658761,0.150586205,-0.478092536,1.84326,19.5928,18047.0,29.3355,,-0.389003,-1.0,,,,,,,2023-08-31 17:29:08.175805+00:00
2023-08-31 10:29:08.376491-07:00,31.065827,2.72,-1.1,2.48,0.25,23.88,863.12,77.21,30.0,0.0,0.00109725,-0.00158654,-0.00104359,34.0613398,-106.883424,1395.59167,-41.9606103,0.1476678,-0.476531037,,,,,,,,,,,,,,2023-08-31 17:29:08.376491+00:00
2023-08-31 10:29:08.576554-07:00,31.26589,2.69,-1.01,2.48,0.22,23.86,863.1,77.47,23.0,0.0,0.00112532,-0.00173849,-0.00434682,34.0613397,-106.883424,1395.59045,-41.9486779,0.1482901,-0.495238584,,,,,,,,,,,,,,2023-08-31 17:29:08.576554+00:00
2023-08-31 10:29:08.776167-07:00,31.465503,2.95,-0.95,2.78,0.22,23.94,863.12,76.96,22.0,0.0,3.60823e-05,-0.000700763,-0.00290562,34.0613396,-106.883424,1395.57812,-41.9408913,0.146963483,-0.491495502,,,,,,,,,,,,,,2023-08-31 17:29:08.776167+00:00
2023-08-31 10:29:08.976540-07:00,31.665876,2.72,-0.91,2.56,0.17,23.95,863.12,76.75,27.0,0.0,0.00118489,-0.0015527,-0.005509,34.0613396,-106.883424,1395.57007,-41.9383419,0.14960759,-0.47981882,,,,,,,,,,,,,,2023-08-31 17:29:08.976540+00:00
2023-08-31 10:29:09.176369-07:00,31.865705,2.97,-0.41,2.93,0.21,23.76,863.12,77.85,29.0,0.0,0.000911705,-0.000940253,-0.00473298,34.0613395,-106.883424,1395.57422,-41.9324938,0.151255875,-0.495595581,1.84308,18.8153,18062.7,29.3455,,-0.446188,-1.0,,,,,,,2023-08-31 17:29:09.176369+00:00
2023-08-31 10:29:09.375710-07:00,32.065046,2.69,-0.57,2.62,0.24,24.08,863.12,76.31,23.0,0.0,-0.000693571,0.000221604,-0.000795138,34.0613395,-106.883424,1395.57617,-41.9276989,0.152373272,-0.458344733,,,,,,,,,,,,,,2023-08-31 17:29:09.375710+00:00
2023-08-31 10:29:09.576572-07:00,32.265908,2.93,-0.11,2.92,0.17,24.32,863.1,75.23,22.0,0.0,0.000168114,-0.000731643,-0.00270629,34.0613394,-106.883424,1395.57336,-41.9265642,0.152530877,-0.438088947,,,,,,,,,,,,,,2023-08-31 17:29:09.576572+00:00
2023-08-31 10:29:09.776095-07:00,32.465431,3.34,0.21,3.33,-0.08,24.29,863.1,75.29,28.0,0.0,0.0013588,-0.00282021,-0.00159877,34.0613394,-106.883424,1395.58862,-41.9272426,0.156301288,-0.431894187,,,,,,,,,,,,,,2023-08-31 17:29:09.776095+00:00
2023-08-31 10:29:09.976457-07:00,32.665793,3.37,-0.07,3.37,0.02,23.86,863.11,77.34,28.0,0.0,0.00123484,-0.00160482,0.00111526,34.0613393,-106.883424,1395.61731,-41.9120676,0.153276136,-0.462345912,,,,,,,,,,,,,,2023-08-31 17:29:09.976457+00:00
2023-08-31 10:29:10.175840-07:00,32.865176,2.99,0.14,2.98,0.18,23.88,863.12,77.22,22.0,0.0,0.00180275,-0.00192475,-0.004137,34.0613392,-106.883424,1395.60999,-41.9122184,0.153528768,-0.451433751,1.84251,18.569,18090.6,29.3552,,-0.465021,-1.0,,,,,,,2023-08-31 17:29:10.175840+00:00
2023-08-31 10:29:10.375972-07:00,33.065308,2.93,0.17,2.92,0.17,23.75,863.12,77.81,23.0,0.0,0.00309542,-0.00246325,-0.00672341,34.0613391,-106.883424,1395.61365,-41.9076833,0.152071733,-0.463928807,,,,,,,,,,,,,,2023-08-31 17:29:10.375972+00:00
2023-08-31 10:29:10.575740-07:00,33.265076,2.5,0.43,2.45,0.24,23.65,863.13,78.36,30.0,0.0,0.000723291,-0.000679268,-0.010546,34.0613391,-106.883424,1395.60693,-41.8975333,0.152027216,-0.490876866,,,,,,,,,,,,,,2023-08-31 17:29:10.575740+00:00
2023-08-31 10:29:10.776209-07:00,33.465545,2.58,-0.02,2.57,0.14,23.46,863.14,79.22,27.0,0.0,0.0003828,-6.86632e-05,-0.0058701,34.061339,-106.883424,1395.6012,-41.8909161,0.151617436,-0.472399805,,,,,,,,,,,,,,2023-08-31 17:29:10.776209+00:00
2023-08-31 10:29:10.975953-07:00,33.665289,2.68,-0.42,2.62,0.35,23.8,863.12,77.57,21.0,0.0,0.00145899,-0.00114211,-0.00958321,34.061339,-106.883424,1395.5835,-41.8875077,0.152119637,-0.467106497,1.84471,18.9408,18148.8,29.3647,,-0.52608,-1.0,,,,,,,2023-08-31 17:29:10.975953+00:00
2023-08-31 10:29:11.175801-07:00,33.865137,2.88,-0.16,2.87,0.08,23.5,863.14,79.0,24.0,0.0,0.00117271,-0.000794323,-0.00635925,34.0613389,-106.883424,1395.5752,-41.8838676,0.150346293,-0.487887429,1.84471,18.9408,18148.8,29.3647,,-0.52608,-1.0,,,,,,,2023-08-31 17:29:11.175801+00:00
2023-08-31 10:29:11.375890-07:00,34.065226,2.54,-0.48,2.48,0.28,23.51,863.13,78.95,30.0,0.0,0.000125877,-0.000760221,-0.00541139,34.0613389,-106.883424,1395.56335,-41.8775234,0.152196209,-0.48956729,,,,,,,,,,,,,,2023-08-31 17:29:11.375890+00:00
2023-08-31 10:29:11.576004-07:00,34.26534,2.28,-0.11,2.26,0.27,23.33,863.13,79.98,25.0,0.0,0.000658925,-0.000727618,-0.00399155,34.0613389,-106.883424,1395.56201,-41.8691694,0.152157813,-0.48699499,,,,,,,,,,,,,,2023-08-31 17:29:11.576004+00:00
2023-08-31 10:29:11.776046-07:00,34.465382,1.77,0.19,1.74,0.27,23.35,863.13,79.82,21.0,0.0,0.00078035,-0.0013629,-0.00481999,34.0613388,-106.883424,1395.54224,-41.8625619,0.152113727,-0.497731376,,,,,,,,,,,,,,2023-08-31 17:29:11.776046+00:00
2023-08-31 10:29:11.976261-07:00,34.665597,1.64,0.43,1.58,0.12,23.77,863.13,77.72,25.0,0.0,0.000354737,-0.000592586,-0.00456309,34.0613387,-106.883424,1395.52295,-41.8499112,0.151185609,-0.517539382,,,,,,,,,,,,,,2023-08-31 17:29:11.976261+00:00
2023-08-31 10:29:12.176631-07:00,34.865967,1.52,0.02,1.51,0.17,23.3,863.14,80.04,30.0,0.0,0.000401385,-0.000123666,-0.00184064,34.0613387,-106.883424,1395.51941,-41.847432,0.151874613,-0.51009343,,,,,,,,,,,,,,2023-08-31 17:29:12.176631+00:00
2023-08-31 10:29:12.376096-07:00,35.065432,1.9,-0.4,1.84,0.23,22.71,863.14,82.96,25.0,0.0,1.80358e-05,0.000317163,-0.000119532,34.0613386,-106.883424,1395.52454,-41.8421398,0.152538305,-0.510746432,,,,,,,,,,,,,,2023-08-31 17:29:12.376096+00:00
2023-08-31 10:29:12.575721-07:00,35.265057,1.54,0.27,1.51,0.13,23.3,863.11,80.1,22.0,0.0,-9.60249e-05,0.000110901,0.000446821,34.0613386,-106.883424,1395.52905,-41.839736,0.154085626,-0.513047124,,,,,,,,,,,,,,2023-08-31 17:29:12.575721+00:00
2023-08-31 10:29:12.775881-07:00,35.465217,1.41,0.93,1.05,0.06,23.57,863.12,78.75,26.0,0.0,-0.000601476,0.000362191,0.00106235,34.0613386,-106.883424,1395.53308,-41.832337,0.153323208,-0.508546064,,,,,,,,,,,,,,2023-08-31 17:29:12.775881+00:00
2023-08-31 10:29:12.976012-07:00,35.665348,1.42,0.93,1.07,0.08,23.47,863.11,79.24,31.0,0.0,3.69513e-05,0.000877204,-9.47444e-05,34.0613385,-106.883424,1395.53931,-41.8231731,0.155646247,-0.49981002,1.84572,17.5661,17998.3,29.376,,-0.563789,-1.0,,,,,,,2023-08-31 17:29:12.976012+00:00
2023-08-31 10:29:13.176222-07:00,35.865558,1.26,0.25,1.23,0.0,23.92,863.11,77.05,24.0,0.0,0.000298497,0.000866381,0.00373406,34.0613385,-106.883424,1395.54797,-41.8115742,0.154948374,-0.492002768,,,,,,,,,,,,,,2023-08-31 17:29:13.176222+00:00
2023-08-31 10:29:13.376387-07:00,36.065723,1.28,0.4,1.21,0.11,24.26,863.11,75.56,22.0,0.0,-0.000383866,0.000828311,0.00177893,34.0613384,-106.883424,1395.55396,-41.8000114,0.155489278,-0.488816955,,,,,,,,,,,,,,2023-08-31 17:29:13.376387+00:00
2023-08-31 10:29:13.576061-07:00,36.265397,1.5,1.25,0.74,0.4,24.4,863.11,74.92,27.0,0.0,-0.000720384,0.00100484,0.000700538,34.0613383,-106.883424,1395.55847,-41.7918686,0.155348987,-0.487051074,,,,,,,,,,,,,,2023-08-31 17:29:13.576061+00:00
2023-08-31 10:29:13.776081-07:00,36.465417,1.48,1.18,0.8,0.41,24.04,863.12,76.55,30.0,0.0,-0.000770849,0.000949703,0.00140136,34.0613383,-106.883424,1395.55798,-41.7892532,0.15479327,-0.483415576,,,,,,,,,,,,,,2023-08-31 17:29:13.776081+00:00
2023-08-31 10:29:13.976139-07:00,36.665475,1.63,1.36,0.82,0.39,24.26,863.1,75.71,23.0,0.0,-0.000879036,0.00161237,-0.00189139,34.0613382,-106.883424,1395.56323,-41.7839806,0.152759234,-0.487243287,1.84685,17.5543,17844.1,29.3857,,-0.600883,-1.0,,,,,,,2023-08-31 17:29:13.976139+00:00
2023-08-31 10:29:14.176359-07:00,36.865695,0.96,0.13,0.84,0.44,24.52,863.12,74.3,22.0,0.0,-0.000914919,0.00104646,0.00182265,34.0613382,-106.883424,1395.56836,-41.7785553,0.151870567,-0.479367585,,,,,,,,,,,,,,2023-08-31 17:29:14.176359+00:00
2023-08-31 10:29:14.376203-07:00,37.065539,1.1,0.28,1.03,0.27,24.87,863.11,72.78,27.0,0.0,-0.00132523,0.001131,-0.00225828,34.0613381,-106.883424,1395.56274,-41.7728515,0.15067112,-0.483132113,,,,,,,,,,,,,,2023-08-31 17:29:14.376203+00:00
2023-08-31 10:29:14.575899-07:00,37.265235,1.64,0.57,1.54,-0.01,24.34,863.1,75.27,29.0,0.0,-0.000971714,0.00123407,-0.00143514,34.0613381,-106.883424,1395.55835,-41.7659488,0.1497729,-0.485127933,,,,,,,,,,,,,,2023-08-31 17:29:14.575899+00:00
2023-08-31 10:29:14.776428-07:00,37.465764,1.41,1.04,0.95,0.07,24.6,863.1,74.03,22.0,0.0,-0.000193623,0.000936886,-0.000693329,34.061338,-106.883424,1395.55884,-41.7619897,0.149886863,-0.484551615,,,,,,,,,,,,,,2023-08-31 17:29:14.776428+00:00
2023-08-31 10:29:14.976221-07:00,37.665557,0.42,-0.2,0.25,0.27,25.02,863.11,72.27,22.0,0.0,-0.000383237,0.000915655,-0.000902036,34.0613379,-106.883424,1395.5564,-41.7543824,0.149488861,-0.487719923,1.84454,17.4602,17924.7,29.3956,,-0.60188,-1.0,,,,,,,2023-08-31 17:29:14.976221+00:00
2023-08-31 10:29:15.175664-07:00,37.865,0.51,-0.38,0.14,0.31,25.22,863.12,71.41,28.0,0.0,-0.000814301,0.00148123,-0.000133839,34.0613379,-106.883424,1395.54651,-41.7544482,0.148088209,-0.481743294,1.84454,17.4602,17924.7,29.3956,,-0.60188,-1.0,,,,,,,2023-08-31 17:29:15.175664+00:00
2023-08-31 10:29:15.376017-07:00,38.065353,1.03,0.3,0.98,-0.03,24.45,863.11,74.76,28.0,0.0,-0.00082563,0.00136358,-0.00177846,34.0613378,-106.883424,1395.55823,-41.7485966,0.147583687,-0.486677108,,,,,,,,,,,,,,2023-08-31 17:29:15.376017+00:00
2023-08-31 10:29:15.576265-07:00,38.265601,0.38,-0.07,0.24,0.28,25.16,863.11,71.59,21.0,0.0,-0.000726682,0.00123245,0.00194587,34.0613378,-106.883424,1395.5564,-41.7425328,0.143788632,-0.484394782,,,,,,,,,,,,,,2023-08-31 17:29:15.576265+00:00
2023-08-31 10:29:15.775892-07:00,38.465228,0.65,-0.37,0.43,0.32,24.5,863.1,74.49,22.0,0.0,-0.000933765,0.00114808,-0.00177148,34.0613377,-106.883424,1395.54187,-41.7393509,0.147926083,-0.480312959,,,,,,,,,,,,,,2023-08-31 17:29:15.775892+00:00
2023-08-31 10:29:15.976173-07:00,38.665509,0.82,-0.16,0.8,0.13,24.25,863.11,75.67,29.0,0.0,-0.000971502,0.000878008,-0.00368096,34.0613377,-106.883424,1395.53003,-41.7377325,0.147163565,-0.484287576,1.84683,16.7251,18061.8,29.4049,,-0.606965,-1.0,,,,,,,2023-08-31 17:29:15.976173+00:00
2023-08-31 10:29:16.176344-07:00,38.86568,0.81,-0.01,0.8,0.13,24.67,863.11,74.64,27.0,0.0,-0.00125799,0.000916314,-0.00253462,34.0613376,-106.883424,1395.50793,-41.7354992,0.144406294,-0.480074534,,,,,,,,,,,,,,2023-08-31 17:29:16.176344+00:00
2023-08-31 10:29:16.375919-07:00,39.065255,1.01,-0.52,0.82,0.28,24.83,863.11,74.02,22.0,0.0,-0.00193956,0.00109013,-0.00441662,34.0613376,-106.883424,1395.50293,-41.7300681,0.147722032,-0.475254921,,,,,,,,,,,,,,2023-08-31 17:29:16.375919+00:00
2023-08-31 10:29:16.575709-07:00,39.265045,1.08,-0.78,0.75,0.05,25.05,863.1,73.06,24.0,0.0,-0.000635709,0.00041132,-0.00106145,34.0613375,-106.883424,1395.49365,-41.7255289,0.147254382,-0.470859918,,,,,,,,,,,,,,2023-08-31 17:29:16.575709+00:00
2023-08-31 10:29:16.776356-07:00,39.465692,0.93,-0.63,0.61,0.33,25.04,863.11,73.01,30.0,0.0,-0.000670071,0.000599979,-0.00274832,34.0613374,-106.883424,1395.48291,-41.7172224,0.148358671,-0.474650376,,,,,,,,,,,,,,2023-08-31 17:29:16.776356+00:00
2023-08-31 10:29:16.975803-07:00,39.665139,1.47,-0.85,1.15,0.35,24.62,863.1,74.86,26.0,0.0,-0.000279622,0.000235213,-0.00222494,34.0613374,-106.883424,1395.47668,-41.7118914,0.150837281,-0.475466238,,,,,,,,,,,,,,2023-08-31 17:29:16.975803+00:00
2023-08-31 10:29:17.175645-07:00,39.864981,1.77,-0.3,1.73,0.23,24.0,863.1,77.68,22.0,0.0,-0.000715836,0.00059214,-0.000844414,34.0613373,-106.883424,1395.4657,-41.7078211,0.14937745,-0.480264452,1.84623,16.8825,18037.5,29.4148,,-0.587516,-1.0,,,,,,,2023-08-31 17:29:17.175645+00:00
2023-08-31 10:29:17.376055-07:00,40.065391,1.73,-0.24,1.72,0.02,24.05,863.11,77.54,24.0,0.0,-0.000709601,0.000670113,-0.00282123,34.0613373,-106.883424,1395.4541,-41.7031094,0.149449774,-0.488394856,,,,,,,,,,,,,,2023-08-31 17:29:17.376055+00:00
2023-08-31 10:29:17.576053-07:00,40.265389,2.05,-0.21,2.03,0.11,24.36,863.11,76.13,30.0,0.0,-0.000272241,0.000390137,-0.000838436,34.0613372,-106.883424,1395.44104,-41.6965846,0.147786392,-0.479614761,,,,,,,,,,,,,,2023-08-31 17:29:17.576053+00:00
2023-08-31 10:29:17.775954-07:00,40.46529,2.47,0.26,2.46,-0.05,24.7,863.12,74.59,25.0,0.0,-0.000836544,0.000421679,-0.00267168,34.0613371,-106.883424,1395.43994,-41.6899762,0.150265195,-0.481047337,,,,,,,,,,,,,,2023-08-31 17:29:17.775954+00:00
2023-08-31 10:29:17.975699-07:00,40.665035,2.33,0.14,2.32,0.08,24.37,863.1,76.0,21.0,0.0,0.000161233,-0.00016875,-0.000742154,34.061337,-106.883424,1395.42871,-41.6790411,0.150751896,-0.482035295,,,,,,,,,,,,,,2023-08-31 17:29:17.975699+00:00
2023-08-31 10:29:18.176389-07:00,40.865725,2.19,0.14,2.18,0.1,24.13,863.11,77.16,25.0,0.0,0.000155194,0.000418399,0.000843791,34.061337,-106.883424,1395.43311,-41.6707106,0.149418858,-0.487294248,,,,,,,,,,,,,,2023-08-31 17:29:18.176389+00:00
2023-08-31 10:29:18.375824-07:00,41.06516,1.99,-0.37,1.94,0.19,23.91,863.11,78.2,30.0,0.0,-0.000147204,0.000571997,-0.00146758,34.0613369,-106.883424,1395.42285,-41.6632731,0.150365946,-0.497193372,,,,,,,,,,,,,,2023-08-31 17:29:18.375824+00:00
2023-08-31 10:29:18.576519-07:00,41.265855,2.19,-0.95,1.94,0.34,24.07,863.1,77.46,24.0,0.0,0.000180316,-8.62566e-05,-0.000657551,34.0613369,-106.883424,1395.40381,-41.6571041,0.147776605,-0.495980808,,,,,,,,,,,,,,2023-08-31 17:29:18.576519+00:00
2023-08-31 10:29:18.776277-07:00,41.465613,2.0,-0.54,1.91,0.25,24.04,863.09,77.61,22.0,0.0,-3.97619e-05,-0.000741529,-0.00395276,34.0613369,-106.883424,1395.40576,-41.6540362,0.147693343,-0.504141487,,,,,,,,,,,,,,2023-08-31 17:29:18.776277+00:00
2023-08-31 10:29:18.976168-07:00,41.665504,2.06,-0.71,1.91,0.31,24.04,863.13,77.6,27.0,0.0,5.06557e-05,-0.000249615,-0.00144883,34.0613368,-106.883424,1395.38318,-41.6487932,0.144534857,-0.503456734,,,,,,,,,,,,,,2023-08-31 17:29:18.976168+00:00
2023-08-31 10:29:19.175738-07:00,41.865074,1.85,-0.71,1.69,0.23,24.39,863.11,75.92,29.0,0.0,-0.000284527,2.50329e-05,-0.00298479,34.0613367,-106.883424,1395.37537,-41.6439168,0.14652443,-0.497129177,1.84442,15.4521,18316.3,29.4346,,-0.523355,-1.0,,,,,,,2023-08-31 17:29:19.175738+00:00
2023-08-31 10:29:19.376166-07:00,42.065502,1.63,-0.76,1.41,0.26,25.0,863.12,73.26,23.0,0.0,-0.000365999,0.000253347,-0.00209437,34.0613367,-106.883424,1395.37805,-41.6395609,0.147421705,-0.493297244,,,,,,,,,,,,,,2023-08-31 17:29:19.376166+00:00
2023-08-31 10:29:19.576576-07:00,42.265912,2.2,-0.95,1.96,0.27,24.62,863.09,75.03,22.0,0.0,-1.08624e-05,4.02571e-05,0.000545951,34.0613367,-106.883424,1395.36865,-41.6357081,0.149595372,-0.481530216,,,,,,,,,,,,,,2023-08-31 17:29:19.576576+00:00
2023-08-31 10:29:19.776183-07:00,42.465519,2.39,-1.4,1.93,0.2,24.3,863.1,76.46,28.0,0.0,0.00040561,-0.00082881,-0.00410736,34.0613366,-106.883424,1395.35657,-41.6330182,0.150218243,-0.491362575,,,,,,,,,,,,,,2023-08-31 17:29:19.776183+00:00
2023-08-31 10:29:19.975806-07:00,42.665142,1.95,-1.33,1.43,0.05,24.24,863.12,76.76,29.0,0.0,0.000631427,-0.000352218,0.000729414,34.0613365,-106.883424,1395.36047,-41.6289141,0.146511993,-0.501173496,,,,,,,,,,,,,,2023-08-31 17:29:19.975806+00:00
2023-08-31 10:29:20.176255-07:00,42.865591,1.94,-1.21,1.51,0.05,24.18,863.11,77.02,23.0,0.0,0.000553567,-0.000797803,-1.01739e-05,34.0613364,-106.883424,1395.36047,-41.624149,0.146338756,-0.509443949,,,,,,,,,,,,,,2023-08-31 17:29:20.176255+00:00
2023-08-31 10:29:20.375735-07:00,43.065071,1.63,-0.98,1.31,-0.02,24.91,863.12,73.72,23.0,0.0,0.000473644,-0.00051625,-4.28866e-05,34.0613364,-106.883424,1395.34888,-41.6176304,0.147207781,-0.513992716,,,,,,,,,,,,,,2023-08-31 17:29:20.375735+00:00
2023-08-31 10:29:20.575959-07:00,43.265295,1.9,-1.31,1.38,-0.02,24.45,863.11,75.78,29.0,0.0,9.18198e-05,-0.000401521,-0.000240345,34.0613363,-106.883424,1395.34497,-41.6103243,0.14832098,-0.507394918,,,,,,,,,,,,,,2023-08-31 17:29:20.575959+00:00
2023-08-31 10:29:20.776557-07:00,43.465893,1.74,-1.52,0.84,-0.02,23.6,863.12,79.59,28.0,0.0,0.000355997,-0.000955717,-0.00336497,34.0613363,-106.883424,1395.34753,-41.6037826,0.149493464,-0.509893479,,,,,,,,,,,,,,2023-08-31 17:29:20.776557+00:00
2023-08-31 10:29:20.975909-07:00,43.665245,2.14,-1.96,0.88,-0.01,23.49,863.12,80.3,22.0,0.0,0.000220492,-0.000513699,0.00150405,34.0613362,-106.883424,1395.34521,-41.600981,0.148945642,-0.509979286,,,,,,,,,,,,,,2023-08-31 17:29:20.975909+00:00
2023-08-31 10:29:21.176152-07:00,43.865488,1.47,-1.1,0.95,0.17,23.37,863.13,80.8,24.0,0.0,0.000240252,0.000440577,-0.00323454,34.0613361,-106.883424,1395.33582,-41.5970167,0.148709387,-0.51068784,1.84315,15.2696,18491.1,29.4545,,-0.354218,-1.0,,,,,,,2023-08-31 17:29:21.176152+00:00
2023-08-31 10:29:21.376051-07:00,44.065387,1.65,-1.42,0.83,0.15,23.6,863.13,79.68,29.0,0.0,-0.00129454,-0.0010408,-0.00132804,34.0613361,-106.883424,1395.33533,-41.5940268,0.189650196,-0.459158192,,,,,,,,,,,,,,2023-08-31 17:29:21.376051+00:00
2023-08-31 10:29:21.575958-07:00,44.265294,2.39,-2.16,1.04,0.1,23.49,863.11,80.38,26.0,0.0,0.00204497,-0.00224525,-0.000949517,34.061336,-106.883424,1395.33105,-41.5664652,0.1442248,-0.544073618,,,,,,,,,,,,,,2023-08-31 17:29:21.575958+00:00
2023-08-31 10:29:21.776630-07:00,44.465966,2.38,-1.8,1.56,0.06,23.09,863.12,82.26,22.0,0.0,-0.00239149,0.00271836,-0.0074256,34.061336,-106.883424,1395.30981,-41.5849578,0.139109992,-0.527430068,,,,,,,,,,,,,,2023-08-31 17:29:21.776630+00:00
2023-08-31 10:29:21.975971-07:00,44.665307,2.23,-0.87,2.03,-0.24,22.88,863.12,83.31,24.0,0.0,-0.00244878,-0.00189024,-0.0153182,34.061336,-106.883424,1395.27478,-41.5968773,0.175097801,-0.469849176,,,,,,,,,,,,,,2023-08-31 17:29:21.975971+00:00
2023-08-31 10:29:22.175712-07:00,44.865048,2.05,-0.89,1.85,-0.13,22.94,863.11,83.01,31.0,0.0,-0.000359525,0.000213575,-0.0194173,34.0613359,-106.883424,1395.2749,-41.5631023,0.18489779,-0.491935318,1.83827,14.8335,18990.3,29.464,,-0.128461,-1.0,,,,,,,2023-08-31 17:29:22.175712+00:00
2023-08-31 10:29:22.375844-07:00,45.06518,1.89,-0.68,1.76,-0.16,22.85,863.11,83.45,26.0,0.0,0.00449185,0.00860797,-0.00305118,34.0613359,-106.883424,1395.32288,-41.5504825,0.153356094,-0.527964499,,,,,,,,,,,,,,2023-08-31 17:29:22.375844+00:00
2023-08-31 10:29:22.576151-07:00,45.265487,2.03,-0.98,1.76,-0.22,23.03,863.12,82.55,21.0,0.0,0.00128206,0.00313248,0.00863355,34.0613358,-106.883424,1395.33484,-41.5547592,0.147881137,-0.490048622,,,,,,,,,,,,,,2023-08-31 17:29:22.576151+00:00
2023-08-31 10:29:22.776061-07:00,45.465397,2.21,-1.24,1.82,0.12,23.11,863.12,82.16,25.0,0.0,-0.00223226,-0.000125877,0.0156516,34.0613358,-106.883424,1395.35461,-41.5625032,0.163957622,-0.465581553,,,,,,,,,,,,,,2023-08-31 17:29:22.776061+00:00
2023-08-31 10:29:22.976350-07:00,45.665686,1.7,-0.55,1.6,0.05,22.89,863.12,83.41,30.0,0.0,-0.00023411,-0.000733708,0.0161166,34.0613357,-106.883424,1395.34253,-41.5823867,0.139850649,-0.536695138,,,,,,,,,,,,,,2023-08-31 17:29:22.976350+00:00
2023-08-31 10:29:23.176472-07:00,45.865808,2.41,-2.13,1.13,0.11,22.7,863.12,84.46,24.0,0.0,-0.0032038,-0.000588067,0.01455,34.0613357,-106.883424,1395.35498,-41.5411793,0.155715568,-0.533863208,1.83598,13.957,19139.6,29.4733,,0.160379,-1.0,,,,,,,2023-08-31 17:29:23.176472+00:00
2023-08-31 10:29:23.376372-07:00,46.065708,1.8,-1.58,0.86,0.12,22.84,863.12,83.57,22.0,0.0,-0.0033233,-0.00260945,0.00298484,34.0613356,-106.883424,1395.32861,-41.5462488,0.154108234,-0.509848547,,,,,,,,,,,,,,2023-08-31 17:29:23.376372+00:00
2023-08-31 10:29:23.576231-07:00,46.265567,2.0,-1.22,1.57,0.26,23.03,863.11,82.6,25.0,0.0,-0.00474198,-0.00194342,0.00314283,34.0613355,-106.883424,1395.33655,-41.5384013,0.148071935,-0.525398481,,,,,,,,,,,,,,2023-08-31 17:29:23.576231+00:00
2023-08-31 10:29:23.776327-07:00,46.465663,1.41,-0.78,1.17,0.03,23.4,863.11,80.77,30.0,0.0,-0.00404788,-0.00212419,-0.00264712,34.0613355,-106.883424,1395.32239,-41.5487928,0.138255686,-0.535509569,,,,,,,,,,,,,,2023-08-31 17:29:23.776327+00:00
2023-08-31 10:29:23.976299-07:00,46.665635,1.31,-0.94,0.9,0.16,23.86,863.11,78.59,23.0,0.0,-0.00645053,-0.00538255,-0.0142449,34.0613354,-106.883424,1395.28601,-41.5590191,0.14270196,-0.524696276,1.84161,13.8907,18571.1,29.4834,,0.328929,-1.0,,,,,,,2023-08-31 17:29:23.976299+00:00
2023-08-31 10:29:24.176355-07:00,46.865691,1.34,-1.0,0.87,0.17,23.91,863.12,78.43,22.0,0.0,-0.00702687,-0.0054704,-0.0271314,34.0613353,-106.883424,1395.27979,-41.5581211,0.148903261,-0.526862444,,,,,,,,,,,,,,2023-08-31 17:29:24.176355+00:00
2023-08-31 10:29:24.376309-07:00,47.065645,1.56,-1.21,0.98,0.13,23.85,863.11,78.65,27.0,0.0,-0.00590335,-0.00233347,-0.0298767,34.0613352,-106.883424,1395.24451,-41.5490465,0.142090665,-0.526728983,,,,,,,,,,,,,,2023-08-31 17:29:24.376309+00:00
2023-08-31 10:29:24.575969-07:00,47.265305,1.3,-0.94,0.88,0.2,23.5,863.12,80.49,30.0,0.0,-0.00303171,-0.00211116,-0.0345564,34.0613352,-106.883424,1395.26782,-41.5343025,0.140042016,-0.532511252,,,,,,,,,,,,,,2023-08-31 17:29:24.575969+00:00
2023-08-31 10:29:24.775764-07:00,47.4651,1.08,-0.7,0.77,0.29,23.83,863.12,78.75,23.0,0.0,-0.00327335,-0.00318458,-0.0300941,34.0613351,-106.883424,1395.2533,-41.5259944,0.145362561,-0.528393699,,,,,,,,,,,,,,2023-08-31 17:29:24.775764+00:00
2023-08-31 10:29:24.976072-07:00,47.665408,1.17,-1.07,0.3,0.36,24.08,863.12,77.56,22.0,0.0,-0.00179581,-0.00413173,-0.0235794,34.0613351,-106.883424,1395.26233,-41.5292484,0.148008031,-0.523473194,,,,,,,,,,,,,,2023-08-31 17:29:24.976072+00:00
