Timestamp,Seconds,S,Um,Vm,Wm,T,P,H,MD,Sts,Vx,Vy,Vz,Lat,Lon,Alt,Yaw,Roll,Pitch,CH4,C2H6,H20,T_a,Batt,R,C2C1,Power,Current,SOC,Lat_a,Lon_a,TS,Timestamp_UTC,Rho,Rho_err,Sc,V,U,W,WD,V_err,U_err,Sc_avg,WD_avg,V_avg,U_avg,W_avg,U_err_avg,V_err_avg,Nx,Ny,cross_wind,cross_wind_err,CH4_sub,CH4_res,CH4_adj,CH4_adj_err,BG_Samples_CH4,C2H6_sub,C2H6_res,C2H6_adj,C2H6_adj_err,BG_Samples_C2H6
2023-08-31 10:28:37.310664-07:00,0.0,1.53,-0.73,1.31,0.3,24.52,863.13,75.22,25.0,0.0,0.00635487,-0.00526631,-0.0238235,34.0613486,-106.883428,1397.28201,-43.3450465,0.150430663,-0.582274792,,,,,,,,,,,,,,2023-08-31 17:28:37.310664+00:00,1.0101270331446266,0.013528626465967258,1.4920240914217335,0.4463444240414327,-1.4236967881223768,0.2761765,107.40677532299628,0.28712441679539213,0.05546716781537426,,,,,,,,0.6380786609420405,0.7699711828701206,,,,,,,,,,,,
2023-08-31 10:28:37.520900-07:00,0.210236,1.61,-0.98,1.24,0.29,24.11,863.11,77.1,21.0,0.0,0.00458002,-0.00255597,-0.0280004,34.0613485,-106.883428,1397.26724,-43.3375337,0.156063383,-0.539612292,,,,,,,,,,,,,,2023-08-31 17:28:37.520900+00:00,1.0114968265181883,0.013551911803855086,1.575604953579173,0.2267558997953014,-1.5592025948064772,0.2619996,98.27455398541872,0.2871221649757859,0.05194990783045776,,,,,,,,0.4873196054523794,0.8732236839102209,,,,,,,,,,,,
2023-08-31 10:28:37.731225-07:00,0.420561,1.91,-1.1,1.53,0.36,24.21,863.13,76.65,24.0,0.0,0.00467687,-0.00321938,-0.0234804,34.0613485,-106.883428,1397.28713,-43.3234332,0.162728644,-0.487351133,,,,,,,,,,,,,,2023-08-31 17:28:37.731225+00:00,1.0111800980500438,0.013546284746006432,1.8791808303129738,0.35511615645305517,-1.8453219525171662,0.3365196,100.89290904984762,0.2871263471401048,0.05375398303897759,,,,,,,,0.5670109232865639,0.823710272409977,,,,,,,,,,,,
2023-08-31 10:28:37.941351-07:00,0.630687,1.97,-0.96,1.7,0.29,24.1,863.11,77.15,29.0,0.0,0.00905334,-0.00560426,-0.0222523,34.0613484,-106.883428,1397.2514899999999,-43.309514,0.156046515,-0.52221564,,,,,,,,,,,,,,2023-08-31 17:28:37.941351+00:00,1.0115308550068853,0.013552482691151283,1.9420263720768018,0.5729141910295223,-1.855595796384216,0.2677477,107.15804410654096,0.2871288109598591,0.05836377516600477,,,,,,,,0.5263418108934464,0.8502730726686618,,,,,,,,,,,,
2023-08-31 10:28:38.151520-07:00,0.840856,1.74,-0.71,1.56,0.31,24.52,863.1,75.46,24.0,0.0,0.00914338,-0.00620198,-0.0319329,34.0613483,-106.883428,1397.2449,-43.2973453,0.163106541,-0.574290054,,,,,,,,,,,,,,2023-08-31 17:28:38.151520+00:00,1.0100919239362869,0.013528508127065813,1.7031633383742166,0.6422660027959274,-1.5774218645735034,0.2780671,112.15427814815936,0.28712386780941473,0.06018225398617497,,,,,,,,0.5613491728074655,0.827579063406255,,,,,,,,,,,,
2023-08-31 10:28:38.361090-07:00,1.050426,1.5,-0.61,1.35,0.2,24.8,863.13,73.96,21.0,0.0,0.00748055,-0.00253287,-0.0370407,34.0613482,-106.883428,1397.21951,-43.2930879,0.159017405,-0.531770411,,,,,,,,,,,,,,2023-08-31 17:28:38.361090+00:00,1.009177761222222,0.013512717350623893,1.4735369323688354,0.5617764041521507,-1.3622475409384438,0.1629593,112.41073031988054,0.28711862477980726,0.05802665602977984,,,,,,,,0.3207088154070863,0.9471778374308509,,,,,,,,,,,,
2023-08-31 10:28:38.571221-07:00,1.260557,1.52,-0.61,1.38,0.2,24.87,863.11,73.62,27.0,0.0,0.00741203,-0.00479397,-0.0365751,34.0613482,-106.883428,1397.2554,-43.2775055,0.165282674,-0.524052717,,,,,,,,,,,,,,2023-08-31 17:28:38.571221+00:00,1.0089173433017806,0.013508667393095513,1.5001156108348996,0.5817290589415106,-1.3827285156000755,0.1634249,112.81702439712623,0.287117260804618,0.05858587765033016,,,,,,,,0.5430876171624528,0.8396760328155193,,,,,,,,,,,,
2023-08-31 10:28:38.775786-07:00,1.465122,2.06,-0.89,1.84,0.25,24.0,863.12,77.6,28.0,0.0,0.0137133,-0.00854017,-0.0249615,34.0613482,-106.883428,1397.23904,-43.2787778,0.160970063,-0.566921142,,,,,,,,,,,,,,2023-08-31 17:28:38.775786+00:00,1.0118829894110006,0.013558233898739338,2.0280865338638057,0.7208906393088683,-1.8956401755070915,0.2250385,110.82124641884204,0.28712905996810445,0.06246877985446628,,,,,,,,0.5286342902016966,0.8488496847045114,,,,,,,,,,,,
2023-08-31 10:28:38.976370-07:00,1.665706,2.01,-1.02,1.69,0.36,24.07,863.11,77.29,23.0,0.0,0.0079516,-0.000961003,-0.0405075,34.0613482,-106.883428,1397.1838599999999,-43.2502473,0.15904287,-0.547747733,1.84566,24.0121,19045.7,29.0409,,-0.708667,-1.0,,,,,,,2023-08-31 17:28:38.976370+00:00,1.0116329542116838,0.013554195647317078,1.9660394584684275,0.5310910813104522,-1.8929483393921036,0.31949249999999996,105.67214932220676,0.28712145036230813,0.05729123437182912,1.8947934416796617,107.33012551303275,0.5502332488008731,-1.8078670047658005,0.26326024,0.05798837276350337,0.28712164468659146,0.11998347596942895,0.992775888856238,0.3293441353343015,0.28298946289484184,,,,,,,,,,
2023-08-31 10:28:39.176481-07:00,1.865817,1.79,-0.89,1.52,0.34,24.0,863.11,77.67,22.0,0.0,0.0104683,-0.00378893,-0.0536808,34.0613481,-106.883428,1397.1769,-43.2462117,0.164743665,-0.504607826,,,,,,,,,,,,,,2023-08-31 17:28:39.176481+00:00,1.0118712658616749,0.01355819426245553,1.7502794246223055,0.4936338037205046,-1.6792271234352472,0.2863192,106.38148410284248,0.2871165072879351,0.05651110303603106,,,,,,,,0.34033652976704953,0.9403036990813778,,,,,,,,,,,,
2023-08-31 10:28:39.375915-07:00,2.065251,2.27,-1.31,1.82,0.38,23.74,863.11,79.0,28.0,0.0,0.0123334,-0.00460797,-0.0579739,34.0613481,-106.883428,1397.16372,-43.2399998,0.163336989,-0.559874073,,,,,,,,,,,,,,2023-08-31 17:28:39.375915+00:00,1.0127574072915781,0.01357306734437437,2.229446180608871,0.4238216607230303,-2.1887908698944845,0.3220261,100.95872332414626,0.28712394500999155,0.05508486890486025,,,,,,,,0.3499875143826074,0.9367543646956145,,,,,,,,,,,,
2023-08-31 10:28:39.576267-07:00,2.265603,2.27,-1.28,1.84,0.37,23.69,863.12,79.37,27.0,0.0,0.0103535,-0.00301729,-0.060322,34.061348,-106.883428,1397.1406499999998,-43.2256419,0.159636549,-0.576564888,,,,,,,,,,,,,,2023-08-31 17:28:39.576267+00:00,1.012939732864435,0.013575971117370508,2.230674384498862,0.46108335498985237,-2.182500939154593,0.309678,101.92911126244144,0.28712284946618466,0.055813728570708245,,,,,,,,0.2797879852632826,0.9600618122299799,,,,,,,,,,,,
2023-08-31 10:28:39.776280-07:00,2.465616,1.98,-0.97,1.69,0.36,23.86,863.11,78.48,22.0,0.0,0.0113242,-0.00564282,-0.0578276,34.0613479,-106.883428,1397.14846,-43.2157854,0.163432233,-0.536996641,,,,,,,,,,,,,,2023-08-31 17:28:39.776280+00:00,1.0123482261566839,0.01356619871323941,1.936113745612339,0.5617899049744952,-1.8528163801677133,0.3021724,106.86775604158584,0.2871172072661317,0.05815928754281271,,,,,,,,0.44599410647422666,0.8950358970400327,,,,,,,,,,,,
2023-08-31 10:28:39.976223-07:00,2.665559,1.81,-0.9,1.55,0.31,23.84,863.11,78.64,23.0,0.0,0.013363,-0.00759348,-0.0719249,34.0613479,-106.883427,1397.0650899999998,-43.2056232,0.16463635,-0.554106346,1.84353,23.5033,19015.5,29.0509,,-0.698121,-1.0,,,,,,,2023-08-31 17:28:39.976223+00:00,1.0124164000498221,0.01356734299288158,1.7773695459941714,0.5060469707979313,-1.7038071975354971,0.23807509999999998,106.54192115151326,0.28711206769659536,0.0569034701567802,1.9183585295433125,106.38354424851582,0.5376734055928318,-1.8368938055900965,0.27991047999999996,0.057828097111256235,0.2871154370839655,0.4940520186135961,0.8694323452137209,-0.4400504426469738,0.217492690619578,,,,,,,,,,
2023-08-31 10:28:40.176538-07:00,2.865874,1.76,-0.94,1.44,0.36,24.1,863.12,77.38,30.0,0.0,0.0135212,-0.00696552,-0.0739227,34.0613478,-106.883427,1397.09268,-43.1963556,0.162880978,-0.574514341,,,,,,,,,,,,,,2023-08-31 17:28:40.176538+00:00,1.011542574612208,0.013552522290806612,1.7048706524332196,0.39938130864257243,-1.657431299280612,0.2860773,103.54794789671024,0.287108028784224,0.05469958922133054,,,,,,,,0.45795936076308064,0.888973128890559,,,,,,,,,,,,
2023-08-31 10:28:40.375938-07:00,3.065274,1.99,-0.79,1.79,0.32,24.06,863.12,77.49,25.0,0.0,0.0131813,-0.00430259,-0.0564504,34.0613478,-106.883427,1397.15493,-43.1902517,0.162774063,-0.543655731,,,,,,,,,,,,,,2023-08-31 17:28:40.375938+00:00,1.011678713042895,0.013554806345120263,1.9427643191779707,0.7600654885593081,-1.7879132118120677,0.2635496,113.03098489032834,0.2871170322066915,0.0635644100646495,,,,,,,,0.3103035041799629,0.9506375414918327,,,,,,,,,,,,
2023-08-31 10:28:40.576563-07:00,3.265899,2.01,-0.86,1.79,0.32,24.16,863.12,77.03,21.0,0.0,0.0154829,-0.00625383,-0.0417931,34.0613477,-106.883427,1397.13296,-43.1787331,0.161644071,-0.555718987,,,,,,,,,,,,,,2023-08-31 17:28:40.576563+00:00,1.0113384356512691,0.013549097680485895,1.9691786903111015,0.7105769668942213,-1.8365034953668762,0.27820690000000003,111.15237030716725,0.2871156136564542,0.06217252090015082,,,,,,,,0.37452073654303125,0.927218538371222,,,,,,,,,,,,
2023-08-31 10:28:40.776348-07:00,3.465684,1.92,-0.9,1.67,0.29,24.26,863.11,76.63,25.0,0.0,0.00700158,-0.003706,-0.0394152,34.0613477,-106.883427,1397.1334499999998,-43.1659755,0.162789783,-0.572234437,,,,,,,,,,,,,,2023-08-31 17:28:40.776348+00:00,1.0109866737863444,0.013543354375215935,1.889261155743261,0.5986475813515455,-1.7919064674090295,0.2505848,108.47365779111746,0.28711032894719923,0.05906789830408394,,,,,,,,0.4678168446045729,0.8838254351987279,,,,,,,,,,,,
2023-08-31 10:28:40.976328-07:00,3.665664,1.77,-0.65,1.63,0.22,24.35,863.12,76.32,30.0,0.0,0.00216601,-0.00169544,-0.0270235,34.0613476,-106.883427,1397.14053,-43.1517642,0.160340161,-0.557826573,1.84448,23.6982,18990.7,29.0608,,-0.697072,-1.0,,,,,,,2023-08-31 17:28:40.976328+00:00,1.010692538835223,0.013538264713427575,1.7521412806731862,0.7429058172954927,-1.5868490835828053,0.1929765,115.08730776829296,0.28710730087786984,0.0630023330049263,1.820551670282534,110.4893377794441,0.6362168636375973,-1.7039803053694236,0.2651841,0.06013186174916826,0.2871077048564154,0.6163762895626124,0.7874517570397735,-0.5493029709816125,0.17948962294680504,,,,,,,,,,
2023-08-31 10:28:41.176572-07:00,3.865908,1.72,-0.79,1.5,0.33,24.51,863.11,75.49,24.0,0.0,0.00248721,-0.00250759,-0.022585,34.0613476,-106.883427,1397.1340599999999,-43.1398966,0.157314543,-0.565679374,,,,,,,,,,,,,,2023-08-31 17:28:41.176572+00:00,1.0101375618181707,0.013529116454957801,1.6921473656571984,0.5518340750876931,-1.5996380405181374,0.307415,109.03312044372535,0.2871020113236675,0.0579009914716618,,,,,,,,0.7099860389647473,0.7042157513682495,,,,,,,,,,,,
2023-08-31 10:28:41.375828-07:00,4.065164,1.83,-0.85,1.59,0.31,24.55,863.11,74.48,21.0,0.0,0.00234423,-0.00215598,-0.0132627,34.0613476,-106.883427,1397.12295,-43.1301869,0.159064912,-0.573366171,,,,,,,,,,,,,,2023-08-31 17:28:41.375828+00:00,1.0100018362472176,0.013526841219883998,1.8000298590279231,0.5771198775590338,-1.705004439970269,0.2967373,108.70023258691748,0.2871032694768863,0.058515565065018434,,,,,,,,0.6769355140482534,0.7360423288237077,,,,,,,,,,,,
2023-08-31 10:28:41.576446-07:00,4.265782,1.95,-0.74,1.79,0.23,24.43,863.11,75.93,27.0,0.0,0.0018236,-0.00168201,-0.00985877,34.0613476,-106.883427,1397.1351599999998,-43.1208685,0.161578006,-0.560901746,,,,,,,,,,,,,,2023-08-31 17:28:41.576446+00:00,1.010409122423539,0.013533669267280163,1.9345748974151133,0.7990435540575704,-1.7618483000609737,0.22014123000000002,114.39551518377652,0.287108351365034,0.06472190005270803,,,,,,,,0.6779942726491153,0.7350671848579537,,,,,,,,,,,,
2023-08-31 10:28:41.775971-07:00,4.465307,2.1,-0.69,1.96,0.27,24.3,863.11,76.54,28.0,0.0,0.0024259,-0.00222854,-0.00735376,34.0613475,-106.883427,1397.1310099999998,-43.1117581,0.159338286,-0.559024528,,,,,,,,,,,,,,2023-08-31 17:28:41.775971+00:00,1.0108507199556116,0.013541074254921494,2.074727041871349,0.9570523763085795,-1.8407995673821573,0.26264624000000003,117.4704281238167,0.2871132140486299,0.06990998695194814,,,,,,,,0.6765157637644589,0.7364281508593971,,,,,,,,,,,,
2023-08-31 10:28:41.976593-07:00,4.665929,2.01,-0.87,1.79,0.23,24.57,863.12,75.38,22.0,0.0,0.00245507,-0.0018077,-0.0013302,34.0613474,-106.883427,1397.15457,-43.0995817,0.157417027,-0.565104009,1.84556,23.0779,18881.3,29.0713,,-0.664588,-1.0,,,,,,,2023-08-31 17:28:41.976593+00:00,1.009945688242237,0.01352574332304137,1.9872867500715485,0.7107481589524773,-1.8558409634329127,0.2286698,110.95579169873844,0.2871056226558869,0.06210732332523752,2.0142940619350593,114.42988345688669,0.8385760956769035,-1.8277366469379168,0.22930843000000004,0.06628512327599943,0.2871085849859806,0.5929228720027321,0.8052592550576688,-0.40843569985312134,0.1876261337101513,,,,,,,,,,
2023-08-31 10:28:42.176343-07:00,4.865679,1.82,-0.8,1.62,0.25,24.55,863.11,75.39,22.0,0.0,0.00178484,-0.00111164,-0.0025522,34.0613474,-106.883427,1397.14431,-43.0887454,0.158364661,-0.555424208,,,,,,,,,,,,,,2023-08-31 17:28:42.176343+00:00,1.0100018362472176,0.013526841219883998,1.8047030595144584,0.6354643862878906,-1.6891234847637995,0.2474478,110.61677906539464,0.28709860691794714,0.06001715084080561,,,,,,,,0.5286696681622722,0.8488276515083572,,,,,,,,,,,,
2023-08-31 10:28:42.376519-07:00,5.065855,2.28,-0.71,2.16,0.19,24.19,863.1,77.04,29.0,0.0,0.00279458,-0.00222275,-0.00236292,34.0613474,-106.883427,1397.11953,-43.0779154,0.15664982,-0.551756332,,,,,,,,,,,,,,2023-08-31 17:28:42.376519+00:00,1.0112129649496016,0.013547306903865441,2.2701785608028273,1.090572002778,-1.9910709190497404,0.18763708,118.71090321270714,0.28711712994240485,0.07466925520929783,,,,,,,,0.6224873115640168,0.7826298914185444,,,,,,,,,,,,
2023-08-31 10:28:42.576635-07:00,5.265971,2.01,-0.51,1.95,0.11,24.23,863.11,76.91,27.0,0.0,0.00187737,-0.0016001,-0.00217239,34.0613473,-106.883427,1397.13357,-43.0679239,0.156683945,-0.559895525,,,,,,,,,,,,,,2023-08-31 17:28:42.576635+00:00,1.0110886631609277,0.013545064979309357,2.013147538624986,1.0747009318284733,-1.7022869674055694,0.10782761,122.26535294830313,0.2871074305414992,0.07407424823590987,,,,,,,,0.6486682041047578,0.7610713245048116,,,,,,,,,,,,
2023-08-31 10:28:42.776280-07:00,5.465616,1.76,-0.7,1.6,0.22,24.48,863.12,75.78,21.0,0.0,0.00206426,-0.00136541,0.000297596,34.0613473,-106.883427,1397.1268599999999,-43.0568941,0.157418756,-0.547671104,,,,,,,,,,,,,,2023-08-31 17:28:42.776280+00:00,1.0102510845797763,0.013530862854377424,1.743988875719835,0.6898094133537707,-1.6017678270845188,0.220297596,113.29937248098463,0.2870936097473908,0.061532770776586705,,,,,,,,0.5516858148417085,0.8340520137871739,,,,,,,,,,,,
2023-08-31 10:28:42.975752-07:00,5.665088,1.71,-0.54,1.62,0.13,24.63,863.12,75.12,23.0,0.0,0.00197962,-0.00185217,0.00124028,34.0613472,-106.883427,1397.1281999999999,-43.0504741,0.15925999,-0.542885699,,,,,,,,,,,,,,2023-08-31 17:28:42.975752+00:00,1.009742193241584,0.013522332496193428,1.7050063962856432,0.8133401907593059,-1.4985074392443207,0.13124028000000001,118.4916434538211,0.2870933684959229,0.06522216103950383,,,,,,,,0.683209732925236,0.7302221996325692,,,,,,,,,,,,
2023-08-31 10:28:43.176524-07:00,5.86586,1.67,-0.41,1.61,0.02,24.78,863.12,74.44,29.0,0.0,0.00156126,-0.00119536,-0.00176941,34.0613472,-106.883427,1397.1258799999998,-43.0429371,0.160183949,-0.55312238,,,,,,,,,,,,,,2023-08-31 17:28:43.176524+00:00,1.0092338143304764,0.013513813098477554,1.659425459320552,0.8956169631185883,-1.3969835755711166,0.01823059,122.66424597680913,0.28709199659629536,0.06785264667588221,,,,,,,,0.6079170153209791,0.7940005683141748,,,,,,,,,,,,
2023-08-31 10:28:43.376059-07:00,6.065395,1.83,-0.36,1.8,0.01,24.5,863.12,74.84,25.0,0.0,0.00213001,-0.00121344,0.00105543,34.0613472,-106.883426,1397.1186799999998,-43.032508,0.159058292,-0.54287508,,,,,,,,,,,,,,2023-08-31 17:28:43.376059+00:00,1.0101832027666013,0.013529724839263735,1.833209014356193,1.068857755461559,-1.4893617387681486,0.01105543,125.66555214605694,0.2870971922213081,0.07387102518060176,,,,,,,,0.4949980647827439,0.8688940763184765,,,,,,,,,,,,
2023-08-31 10:28:43.576228-07:00,6.265564,1.69,-0.72,1.51,0.23,24.51,863.12,75.63,21.0,0.0,0.00221985,-0.0026579,-0.00111623,34.0613471,-106.883426,1397.1296599999998,-43.0227401,0.161638311,-0.526278812,,,,,,,,,,,,,,2023-08-31 17:28:43.576228+00:00,1.0101492652807864,0.013529155904900513,1.6698335466081708,0.6100296060117231,-1.5544156307652095,0.22888377000000001,111.42749907739392,0.2870859383056517,0.05944493806284392,,,,,,,,0.7675201986907007,0.641024761301611,,,,,,,,,,,,
2023-08-31 10:28:43.775793-07:00,6.465129,1.56,-0.82,1.29,0.33,24.72,863.13,73.79,25.0,0.0,0.00393477,-0.00437657,0.00107731,34.0613471,-106.883426,1397.13284,-43.013319,0.155591642,-0.576114607,,,,,,,,,,,,,,2023-08-31 17:28:43.775793+00:00,1.0094487996648236,0.013517258917533552,1.5236571242517964,0.3794871171015236,-1.4756424228915448,0.33107731,104.42209181131443,0.2870781333255436,0.05444743683955921,,,,,,,,0.743644078399616,0.6685757134844085,,,,,,,,,,,,
2023-08-31 10:28:43.976361-07:00,6.665697,1.53,-0.69,1.34,0.23,24.6,863.12,75.3,29.0,0.0,0.00331782,-0.00183229,0.00454512,34.061347,-106.883426,1397.14688,-43.0029489,0.157743775,-0.595928635,,,,,,,,,,,,,,2023-08-31 17:28:43.976361+00:00,1.009843930490273,0.013524037690324581,1.5034742628745814,0.5075297930633239,-1.415220254334768,0.23454512,109.7289747241997,0.2870779541974892,0.056971706240810785,,,,,,,,0.48343504298840584,0.8753802369318137,,,,,,,,,,,,
2023-08-31 10:28:44.176461-07:00,6.865797,1.36,-0.44,1.27,0.18,24.27,863.12,75.89,24.0,0.0,0.000121587,0.00171224,-0.00389088,34.061347,-106.883426,1397.1338099999998,-42.9958197,0.161065515,-0.523694704,1.84041,23.3682,19085.3,29.0974,,-0.561314,-1.0,,,,,,,2023-08-31 17:28:44.176461+00:00,1.0109643948069358,0.013542823809233323,1.3447555492515122,0.6305388325853247,-1.1877660829661167,0.17610911999999998,117.9620946225842,0.28707493425217406,0.05988658261961631,1.3879994873113533,110.41724261008531,0.47920152595347404,-1.2983601018965196,0.237837218,0.056501671205864315,0.28707397540689483,0.9974882503350034,-0.07083212861134051,-1.3290418104626234,0.05623663877160752,,,,,,,,,,
2023-08-31 10:28:44.376357-07:00,7.065693,1.23,-0.55,1.07,0.26,24.47,863.13,75.85,21.0,0.0,0.00455562,-0.00308194,-0.00474376,34.0613469,-106.883426,1397.1234399999998,-42.9853824,0.159381997,-0.496531619,,,,,,,,,,,,,,2023-08-31 17:28:44.376357+00:00,1.0102967339431523,0.013531471399998466,1.1977496331366613,0.4046562068234033,-1.1273231736987852,0.25525624,109.74576024502281,0.2870682978503482,0.05490439787418629,,,,,,,,0.5603339471570195,0.8282667853194613,,,,,,,,,,,,
2023-08-31 10:28:44.576604-07:00,7.26594,1.39,-0.62,1.23,0.21,24.58,863.12,75.48,27.0,0.0,0.00623572,-0.00350734,-0.0178017,34.0613469,-106.883426,1397.1052499999998,-42.974418,0.157800745,-0.568707217,,,,,,,,,,,,,,2023-08-31 17:28:44.576604+00:00,1.0099117667130584,0.01352517473006039,1.3703608670422147,0.4737956801937945,-1.2858485755913835,0.1921983,110.22729164730535,0.28707055740891885,0.05629823245514892,,,,,,,,0.49023442936522177,0.8715906173571142,,,,,,,,,,,,
2023-08-31 10:28:44.776151-07:00,7.465487,1.33,-0.93,0.93,0.22,24.91,863.11,73.88,30.0,0.0,0.00394472,0.00238056,-0.0233485,34.0613469,-106.883426,1397.08267,-42.9688386,0.154614115,-0.533582518,,,,,,,,,,,,,,2023-08-31 17:28:44.776151+00:00,1.0087819454163478,0.013506399165541331,1.3113631648804476,0.048995891749112584,-1.310447539124315,0.1966515,92.14121567063461,0.2870625991089506,0.05104830201470317,,,,,,,,0.5166849382000258,-0.8561756096953682,,,,,,,,,,,,
2023-08-31 10:28:44.976585-07:00,7.665921,0.88,-0.72,0.09,0.5,25.59,863.12,70.99,23.0,0.0,0.00665554,-0.0033645,-0.0256703,34.0613468,-106.883426,1397.07754,-42.9616081,0.156945166,-0.509649717,1.83838,23.23,19158.9,29.107,,-0.477428,-1.0,,,,,,,2023-08-31 17:28:44.976585+00:00,1.0064973900498053,0.013467996861293813,0.722207829523539,-0.4281874228905307,-0.5815837686038591,0.4743297,413.63787348612715,0.2870519780616732,0.05524852413921031,0.8604565130069528,288.8281828026726,-0.09027550891516796,-0.7779538609433764,0.26418786,0.0538065959889085,0.2870572204669884,0.45114938806321575,0.8924484464943541,-0.4315396459938492,0.22889295133227358,,,,,,,,,,
2023-08-31 10:28:45.175752-07:00,7.865088,0.33,-0.24,0.05,0.22,25.99,863.12,69.19,23.0,0.0,0.00704183,-0.00264773,-0.0262701,34.0613468,-106.883426,1397.1082999999999,-42.9507815,0.152704713,-0.528790614,,,,,,,,,,,,,,2023-08-31 17:28:45.175752+00:00,1.0051515354131138,0.013445488221389093,0.24057210745027066,-0.12957953153302443,-0.2026920913374434,0.1937299,417.4095242584373,0.2870500397176106,0.051405932407049715,,,,,,,,0.3519441515616974,0.9360210009297425,,,,,,,,,,,,
2023-08-31 10:28:45.375921-07:00,8.065257,0.72,-0.66,0.05,0.28,25.97,863.12,69.41,27.0,0.0,0.00791419,-0.00324883,-0.0159701,34.0613468,-106.883426,1397.0942599999998,-42.9558992,0.147488842,-0.547500928,,,,,,,,,,,,,,2023-08-31 17:28:45.375921+00:00,1.0052187426567225,0.013446611830674604,0.6577785961382913,-0.4164021620951917,-0.5091973300598805,0.26402990000000004,410.7250089508584,0.28705092803778876,0.055031988928430406,,,,,,,,0.3797547291326739,0.9250872097815263,,,,,,,,,,,,
2023-08-31 10:28:45.576019-07:00,8.265355,0.42,-0.38,0.03,0.19,26.4,863.12,67.83,26.0,0.0,-0.000252207,0.00148859,-0.0122805,34.0613467,-106.883426,1397.14346,-42.928049,0.152307623,-0.502759388,,,,,,,,,,,,,,2023-08-31 17:28:45.576019+00:00,1.003775764658584,0.013422496369129216,0.38045736551640663,-0.23535529572551947,-0.2989242240930599,0.1777195,411.7851915245753,0.2870460488060545,0.05239092776909856,,,,,,,,0.9859490742898525,0.16704616998597432,,,,,,,,,,,,
2023-08-31 10:28:45.776097-07:00,8.465433,0.29,-0.27,0.04,0.09,26.17,863.12,68.74,22.0,0.0,0.00608652,-0.00155923,-0.0113676,34.0613467,-106.883426,1397.1,-42.9274438,0.156760006,-0.443937149,,,,,,,,,,,,,,2023-08-31 17:28:45.776097+00:00,1.0045470743801912,0.013435384350636272,0.26885567206037303,-0.1561599098762177,-0.2188548718819995,0.07863239999999999,414.490935374089,0.28704595040673875,0.05161769312861076,,,,,,,,0.24816385671175015,0.9687180705561087,,,,,,,,,,,,
2023-08-31 10:28:45.976363-07:00,8.665699,0.42,-0.4,0.1,0.09,26.31,863.12,68.1,23.0,0.0,0.00273176,0.00158274,-0.0238373,34.0613466,-106.883426,1397.0845,-42.914019,0.150139691,-0.446592759,,,,,,,,,,,,,,2023-08-31 17:28:45.976363+00:00,1.004077440404324,0.013427536487341001,0.4091541242677565,-0.19753966223528027,-0.35830877640561093,0.06616269999999999,421.13155716537653,0.2870436798430018,0.05201073384345972,,,,,,,,0.5013196683005393,-0.8652621511282215,,,,,,,,,,,,
2023-08-31 10:28:46.175837-07:00,8.865173,0.7,-0.61,0.31,0.14,25.71,863.12,70.59,29.0,0.0,0.00373323,-0.00224158,-0.0314018,34.0613466,-106.883426,1397.0510499999998,-42.911451,0.150553634,-0.466146023,1.83661,23.1006,19131.0,29.1175,,-0.297547,-1.0,,,,,,,2023-08-31 17:28:46.175837+00:00,1.006093255382048,0.013461236202193996,0.6812865405169057,-0.19052448896311663,-0.6541037909956161,0.1085982,433.76044607072026,0.2870442214398712,0.051912226452965345,0.6281669698649782,369.3379925230798,0.022794955407046014,-0.5541539276084888,0.0652997,0.053597675288027814,0.28704694527719493,0.5147729939822715,0.8573265216161974,-0.26572075661253763,0.2114595370483567,,,,,,,,,,
2023-08-31 10:28:46.376363-07:00,9.065699,0.72,-0.53,0.47,0.11,25.28,863.12,72.48,25.0,0.0,0.00546367,-0.00550253,-0.0435959,34.0613465,-106.883426,1397.022,-42.9140141,0.149269325,-0.540223247,,,,,,,,,,,,,,2023-08-31 17:28:46.376363+00:00,1.0075429089015142,0.013485493997676604,0.7030682216006905,-0.022162644518843137,-0.70271882101783,0.0664041,448.19358015370517,0.2870461125941488,0.05105571959662673,,,,,,,,0.709608040639602,0.704596642526506,,,,,,,,,,,,
2023-08-31 10:28:46.576170-07:00,9.265506,1.08,-0.15,1.07,0.06,24.86,863.12,74.14,21.0,0.0,0.00149079,-0.00132497,-0.0532989,34.0613465,-106.883426,1397.0544699999998,-42.9017989,0.14866985,-0.559704911,,,,,,,,,,,,,,2023-08-31 17:28:46.576170+00:00,1.0089628881697892,0.013509273894107224,1.0784702908791657,0.6803614826286877,-0.8367833777413877,0.0067010999999999946,129.11344385150778,0.28705476210221414,0.06139200341847655,,,,,,,,0.664314356287826,0.7474533002334602,,,,,,,,,,,,
2023-08-31 10:28:46.776544-07:00,9.46588,1.61,0.26,1.59,0.09,24.49,863.13,75.97,24.0,0.0,0.00151197,-0.000713239,-0.0547661,34.0613464,-106.883426,1396.9747599999998,-42.8857523,0.146445709,-0.492406085,,,,,,,,,,,,,,2023-08-31 17:28:46.776544+00:00,1.0102288467818874,0.013530333279991216,1.6096870911515688,1.3412391389190956,-0.8900393832025426,0.0352339,146.43195297385495,0.2870684959256738,0.08432658698922552,,,,,,,,0.4266409897011094,0.9044210667088963,,,,,,,,,,,,
2023-08-31 10:28:46.975735-07:00,9.665071,1.32,0.02,1.31,0.13,24.8,863.13,74.56,30.0,0.0,0.00287052,-0.00741635,-0.0735743,34.0613464,-106.883426,1396.95474,-42.8688761,0.147796798,-0.51047268,,,,,,,,,,,,,,2023-08-31 17:28:46.975735+00:00,1.009177761222222,0.013512717350623893,1.3027232722882158,0.9663055710972029,-0.8736941498189316,0.05642570000000001,137.8813969217025,0.28705615875372886,0.07057593872457651,,,,,,,,0.9325818625971426,0.3609585427093315,,,,,,,,,,,,
2023-08-31 10:28:47.176275-07:00,9.865611,1.06,-0.26,1.0,0.22,25.09,863.13,73.13,25.0,0.0,-0.00407681,-0.000732721,-0.0806251,34.0613464,-106.883426,1396.93069,-42.8569692,0.145211631,-0.510683411,1.83396,23.9619,19308.7,29.1279,,-0.302736,-1.0,,,,,,,2023-08-31 17:28:47.176275+00:00,1.0081964657864844,0.013496280225950529,1.0362924044447692,0.5554768782025274,-0.8748413486411667,0.1393749,122.41333599212513,0.28704551103651027,0.05818323666647635,1.2845547687293362,126.80843085507782,0.770595721758625,-0.9811618575396203,0.08934156,0.06541029942056314,0.2870539411501223,0.17689464028448357,-0.9842297934113878,-0.9320055418805177,0.2780790642264987,,,,,,,,,,
2023-08-31 10:28:47.376236-07:00,10.065572,1.1,-0.42,1.01,0.18,25.06,863.14,74.33,22.0,0.0,-0.00146219,-0.00576486,-0.0713279,34.0613463,-106.883426,1396.9688999999998,-42.8564493,0.146875801,-0.454720295,,,,,,,,,,,,,,2023-08-31 17:28:47.376236+00:00,1.0083095724785995,0.013498017977781973,1.092795441629589,0.4489570232423824,-0.996312937047265,0.1086721,114.25720744076753,0.2870456673400225,0.055936128485540235,,,,,,,,0.9693069984361293,-0.2458534986180623,,,,,,,,,,,,
2023-08-31 10:28:47.576206-07:00,10.265542,1.39,-0.56,1.27,0.16,25.05,863.14,73.44,26.0,0.0,0.00345807,-0.00896072,-0.0529988,34.0613463,-106.883426,1397.00076,-42.8624674,0.147963972,-0.529944218,,,,,,,,,,,,,,2023-08-31 17:28:47.576206+00:00,1.0083433856768718,0.01349858424524795,1.381275634132538,0.5409999973319165,-1.270921468988195,0.1070012,113.05826094693896,0.28705387269467586,0.05802960623699712,,,,,,,,0.9329389903204531,0.36003449881900684,,,,,,,,,,,,
2023-08-31 10:28:47.776466-07:00,10.465802,1.62,-0.75,1.41,0.24,24.83,863.12,75.33,29.0,0.0,0.00033226,-0.00360587,-0.0509543,34.0613463,-106.883425,1396.9538799999998,-42.846553,0.144879215,-0.583568219,,,,,,,,,,,,,,2023-08-31 17:28:47.776466+00:00,1.0090644684323742,0.013510975731292865,1.5955667836709375,0.5201465813062566,-1.5084034258478183,0.18904569999999998,109.02585959134893,0.287055882454208,0.05743472285965194,,,,,,,,0.9957815670639735,0.09175549408954929,,,,,,,,,,,,
2023-08-31 10:28:47.975862-07:00,10.665198,1.68,-0.58,1.57,0.13,25.08,863.12,74.24,23.0,0.0,-0.00463481,-0.00125707,-0.0682354,34.0613463,-106.883425,1396.91311,-42.8267081,0.152215225,-0.505667667,,,,,,,,,,,,,,2023-08-31 17:28:47.975862+00:00,1.0082185906967067,0.013496807101091282,1.67727624246405,0.7559271578182155,-1.4972740983558077,0.0617646,116.78779113060321,0.28705866530182983,0.06362677234924306,,,,,,,,0.2617664053155503,-0.9651312600098367,,,,,,,,,,,,
2023-08-31 10:28:48.176466-07:00,10.865802,1.74,-0.71,1.58,0.18,24.92,863.13,74.84,21.0,0.0,-0.00220623,-0.00484185,-0.0681126,34.0613463,-106.883426,1396.9380099999998,-42.8134827,0.151497752,-0.496825328,,,,,,,,,,,,,,2023-08-31 17:28:48.176466+00:00,1.0087714763517328,0.013505910832304848,1.7323433158325086,0.6716727855129656,-1.5968309344169231,0.1118874,112.8130151693552,0.2870569961861296,0.06132397729754071,,,,,,,,0.9099845434896643,-0.41464217176971674,,,,,,,,,,,,
2023-08-31 10:28:48.376629-07:00,11.065965,1.72,-0.83,1.49,0.21,25.08,863.13,74.23,26.0,0.0,-0.00344255,-0.00323478,-0.064114,34.0613462,-106.883425,1396.92996,-42.8126691,0.147298798,-0.555254085,,,,,,,,,,,,,,2023-08-31 17:28:48.376629+00:00,1.008230271790769,0.013496846344470776,1.7078536861598863,0.525727910815393,-1.624922883437732,0.145886,107.92848046466426,0.28705336350206545,0.05758507200599277,,,,,,,,0.6847732225848764,-0.7287562237337828,,,,,,,,,,,,
2023-08-31 10:28:48.576304-07:00,11.26564,1.54,-0.63,1.39,0.19,25.48,863.11,72.57,29.0,0.0,-0.00478905,-0.00101936,-0.0739642,34.0613462,-106.883425,1396.8844199999999,-42.8090799,0.148863027,-0.534615842,,,,,,,,,,,,,,2023-08-31 17:28:48.576304+00:00,1.0068564667005884,0.013474161120869167,1.5301280974821854,0.5905942011983455,-1.4115560506814246,0.11603580000000001,112.70440492693979,0.28704912377108527,0.05909260351347491,,,,,,,,0.208188376932786,-0.9780887483812971,,,,,,,,,,,,
2023-08-31 10:28:48.776259-07:00,11.465595,1.51,-0.65,1.35,0.17,25.6,863.14,71.99,23.0,0.0,-0.00445279,0.000661215,-0.0774852,34.0613461,-106.883425,1396.86465,-42.7931657,0.149652647,-0.50225212,,,,,,,,,,,,,,2023-08-31 17:28:48.776259+00:00,1.0064870212848307,0.013467511320569635,1.5027180956855057,0.5497259784676969,-1.3985574795833047,0.09251480000000001,111.45812299475153,0.2870450988620889,0.0580715371074545,,,,,,,,0.14688392826501112,0.9891537350773332,,,,,,,,,,,,
2023-08-31 10:28:48.975955-07:00,11.665291,1.59,-0.73,1.37,0.35,25.82,863.13,71.09,22.0,0.0,-1.24952e-05,-0.00388408,-0.094449,34.061346,-106.883425,1396.7999499999999,-42.7913916,0.149869403,-0.519231044,,,,,,,,,,,,,,2023-08-31 17:28:48.975955+00:00,1.0057347357800484,0.013455083986947046,1.5510945603441075,0.5055540042875954,-1.466393359190452,0.255551,109.0221531052944,0.2870455081748261,0.05716320273861773,,,,,,,,0.9999948254007136,-0.003217012868535033,,,,,,,,,,,,
2023-08-31 10:28:49.176010-07:00,11.865346,1.62,-0.95,1.28,0.31,26.01,863.14,70.29,29.0,0.0,-0.0011325,-0.00178168,-0.101362,34.0613459,-106.883425,1396.77065,-42.7756695,0.149904443,-0.50978131,1.83211,23.045,19319.1,29.1483,,-0.0340851,-1.0,,,,,,,2023-08-31 17:28:49.176010+00:00,1.00510762671762,0.013444442621662481,1.5948052753718573,0.2925885879840091,-1.5677358784359787,0.208638,100.57156537896225,0.2870397702522464,0.053264859084219775,1.7420864971685375,106.05776866012067,0.47403178455729966,-1.6726917808381032,0.19678398,0.05659965792022568,0.2870479379869698,0.8439395060706437,-0.5364383562845203,-1.66593950666347,0.0919144921928725,,,,,,,,,,
2023-08-31 10:28:49.376237-07:00,12.065573,1.92,-1.01,1.62,0.24,25.72,863.14,71.52,27.0,0.0,-0.000684734,0.000266952,-0.093365,34.0613459,-106.883425,1396.8123999999998,-42.7658158,0.150805793,-0.463849723,,,,,,,,,,,,,,2023-08-31 17:28:49.376237+00:00,1.0060829043023494,0.013460751152272448,1.9097882571012232,0.5037723703975452,-1.8421467329682961,0.146635,105.29473480915894,0.28705114886449506,0.057055888211620394,,,,,,,,0.3632339494593537,0.9316979649865935,,,,,,,,,,,,
2023-08-31 10:28:49.576365-07:00,12.265701,2.19,-1.18,1.8,0.37,25.68,863.13,71.76,21.0,0.0,-0.000207853,-0.00197402,-0.0894189,34.0613458,-106.883425,1396.79214,-42.7583304,0.151979213,-0.476902014,,,,,,,,,,,,,,2023-08-31 17:28:49.576365+00:00,1.0062059162606198,0.013462964744992471,2.1520262973399937,0.5185179816496517,-2.088625454012484,0.2805811,103.94226701243625,0.28705816378119264,0.05744280245921601,,,,,,,,0.9945022309203478,-0.1047153890049171,,,,,,,,,,,,
2023-08-31 10:28:49.776079-07:00,12.465415,2.96,-1.03,2.77,0.21,23.97,863.12,79.4,23.0,0.0,-0.000568595,0.0010809,-0.0713385,34.0613458,-106.883425,1396.81826,-42.7553948,0.152974396,-0.467927214,,,,,,,,,,,,,,2023-08-31 17:28:49.776079+00:00,1.011985158533518,0.013559948338381235,2.956295866925383,1.3357412200672163,-2.6373245241747263,0.1386615,116.86111342504563,0.28711693269040445,0.08411903342676469,,,,,,,,0.8850193501544192,0.46555423943107793,,,,,,,,,,,,
2023-08-31 10:28:49.976408-07:00,12.665744,3.0,-1.31,2.69,0.19,23.44,863.12,81.96,30.0,0.0,-0.00117915,0.00475253,-0.0706377,34.0613457,-106.883425,1396.79336,-42.7503124,0.154338879,-0.439532454,1.83267,23.0115,19470.5,29.1589,,0.00555837,-1.0,,,,,,,2023-08-31 17:28:49.976408+00:00,1.0137935544134287,0.013590309826653124,2.9948492564994966,1.0908359027488335,-2.789121564656106,0.1193623,111.36065434903313,0.28711056806925533,0.0746472716257319,3.070370332024981,111.41413577422318,1.1429774615138337,-2.8426304012001133,0.19412186000000003,0.07771121456844003,0.2871202275836374,0.9705725936708807,0.2408087216339548,-2.4837402199769207,0.07507437740270877,,,,,,,,,,
2023-08-31 10:28:50.175752-07:00,12.865088,3.56,-1.53,3.21,0.27,23.23,863.11,83.32,25.0,0.0,-5.88795e-07,7.94986e-05,-0.0592626,34.0613456,-106.883425,1396.82119,-42.7408099,0.150992297,-0.43894432,1.83267,23.0115,19470.5,29.1589,,0.00555837,-1.0,,,,,,,2023-08-31 17:28:50.175752+00:00,1.0145001236615043,0.013602338306143269,3.556010915978041,1.3192193032131374,-3.302252877140821,0.21073740000000002,111.77624910512179,0.2871510830003014,0.08351431035598429,3.434128753630302,113.29674113605184,1.3541055022260768,-3.153998577856089,0.18650988000000002,0.08501440864854357,0.28714640955586107,0.9999725740674821,0.007406153715261508,-3.143883363007763,0.08500974697270004,,,,,,,,,,
2023-08-31 10:28:50.376431-07:00,13.065767,3.7,-1.51,3.37,0.26,23.68,863.1,80.78,21.0,0.0,-9.92992e-05,-0.000643625,-0.038733,34.0613456,-106.883425,1396.87087,-42.7240386,0.152290641,-0.451032998,,,,,,,,,,,,,,2023-08-31 17:28:50.376431+00:00,1.012950385736329,0.013576464566252147,3.69266932338199,1.4505728998903296,-3.3958275860164284,0.22126700000000002,113.13039497947915,0.28716439037703306,0.08883265497450328,,,,,,,,0.9883069989090669,-0.15247713240795682,,,,,,,,,,,,
2023-08-31 10:28:50.576624-07:00,13.26596,3.98,-1.61,3.63,0.27,23.57,863.09,81.24,24.0,0.0,-0.000118312,-0.000782377,-0.0274788,34.0613455,-106.883425,1396.855,-42.7151266,0.153243511,-0.453240072,,,,,,,,,,,,,,2023-08-31 17:28:50.576624+00:00,1.0133141660334064,0.01358273046458481,3.970818405366601,1.5741581852108666,-3.645466337292362,0.24252120000000002,113.35529382157941,0.287189073642311,0.09395877285973372,,,,,,,,0.988758510467736,-0.14952126262717272,,,,,,,,,,,,
2023-08-31 10:28:50.775770-07:00,13.465106,4.22,-1.24,4.03,0.03,23.03,863.09,84.01,29.0,0.0,0.000196875,-0.000436224,-0.0224787,34.0613455,-106.883425,1396.8572,-42.7173304,0.15135329,-0.44471955,,,,,,,,,,,,,,2023-08-31 17:28:50.775770+00:00,1.0151616562409087,0.013613772289712984,4.216066380753713,2.119249212924856,-3.6447220059202166,0.007521299999999998,120.1761609936639,0.28723145860362864,0.11772670639429896,,,,,,,,0.9114719820708973,0.4113621590517897,,,,,,,,,,,,
2023-08-31 10:28:50.975864-07:00,13.6652,3.69,-1.0,3.55,0.09,23.25,863.08,82.98,23.0,0.0,0.0017012,-0.00102253,-0.0131726,34.0613454,-106.883425,1396.85854,-42.6990682,0.148516518,-0.474794508,,,,,,,,,,,,,,2023-08-31 17:28:50.975864+00:00,1.0143964092198048,0.013601068265709792,3.6861719612447645,1.9298157171388117,-3.1406488224172864,0.07682739999999999,121.5692287455949,0.2871804631900749,0.10931280833572551,,,,,,,,0.5151661168406375,0.8570903523312688,,,,,,,,,,,,
2023-08-31 10:28:51.176005-07:00,13.865341,3.47,-1.15,3.27,0.16,23.18,863.1,82.49,21.0,0.0,0.00104852,-0.000623399,-0.00718042,34.0613453,-106.883425,1396.85781,-42.6924456,0.150439862,-0.478050487,,,,,,,,,,,,,,2023-08-31 17:28:51.176005+00:00,1.014659545095382,0.013605174999184844,3.465105315400379,1.6230675115524078,-3.061471329240082,0.15281958,117.93071508840643,0.2871532376871266,0.09602407309285726,,,,,,,,0.5110479418225807,0.8595522096760058,,,,,,,,,,,,
2023-08-31 10:28:51.375755-07:00,14.065091,3.78,-0.52,3.74,0.11,23.26,863.09,82.93,26.0,0.0,0.00154159,-0.00216464,-0.00506903,34.0613452,-106.883425,1396.8487799999998,-42.6799945,0.148978288,-0.48006082,,,,,,,,,,,,,,2023-08-31 17:28:51.375755+00:00,1.0143739392916309,0.013600533106239156,3.7734115028241417,2.39479179078688,-2.9160944169257137,0.10493097,129.39395540744366,0.2871994281933677,0.13036331962380687,,,,,,,,0.8145480659333865,0.5800960681509395,,,,,,,,,,,,
2023-08-31 10:28:51.575912-07:00,14.265248,3.34,-0.49,3.3,0.19,23.03,863.12,83.28,29.0,0.0,0.00167407,-0.00208524,-0.00401617,34.0613452,-106.883425,1396.83901,-42.6639016,0.147390757,-0.50417644,,,,,,,,,,,,,,2023-08-31 17:28:51.575912+00:00,1.0151969420740052,0.013613892270378557,3.333568309908167,2.0924711257126885,-2.595041861874808,0.18598383,128.88042160301646,0.28715422523048395,0.11662261655964859,,,,,,,,0.7797953985543186,0.6260344530403351,,,,,,,,,,,,
2023-08-31 10:28:51.776206-07:00,14.465542,2.75,-0.56,2.67,0.3,23.37,863.11,81.65,22.0,0.0,0.00139794,-0.00205617,-0.00107988,34.0613451,-106.883424,1396.8349899999998,-42.6555828,0.144041178,-0.507552019,,,,,,,,,,,,,,2023-08-31 17:28:51.776206+00:00,1.014021133990276,0.013594290332089988,2.7257626155244696,1.582118646155339,-2.2196131252266453,0.29892012,125.48090197192738,0.28709890023758994,0.09438162527251898,,,,,,,,0.8269743000372552,0.562239723852639,,,,,,,,,,,,
2023-08-31 10:28:51.975762-07:00,14.665098,2.74,-1.17,2.46,0.3,23.69,863.11,79.94,22.0,0.0,0.00123094,-0.0016488,-0.00249262,34.061345,-106.883424,1396.8239999999998,-42.6470796,0.143825036,-0.513616294,1.83261,22.7575,19379.1,29.1791,,0.321513,-1.0,,,,,,,2023-08-31 17:28:51.975762+00:00,1.012927997071812,0.013575931367255127,2.722302275979243,1.0151289206011418,-2.52595387059244,0.29750738,111.89418017461188,0.28708214952092187,0.07224563089601,2.7446523406903123,121.24094569093464,1.4285770115930405,-2.3250517731649354,0.24992865000000003,0.08866876618868205,0.2870962084447474,0.8013184304060358,0.5982380572076698,-1.008477701498337,0.11746861041047509,,,,,,,,,,
2023-08-31 10:28:52.175801-07:00,14.865137,2.29,-0.59,2.21,0.19,24.0,863.12,78.69,28.0,0.0,0.000791233,-0.00134702,-0.00121194,34.061345,-106.883424,1396.80288,-42.6358582,0.142695821,-0.509516843,,,,,,,,,,,,,,2023-08-31 17:28:52.175801+00:00,1.0118829894110006,0.013558233898739338,2.2860103462122474,1.2248624809741673,-1.9301697349433409,0.18878806,122.39872011798292,0.28706345360930513,0.07996937955592,,,,,,,,0.8622506336163472,0.5064818306989972,,,,,,,,,,,,
2023-08-31 10:28:52.376388-07:00,15.065724,2.67,-0.9,2.5,0.28,23.79,863.12,79.43,28.0,0.0,0.000725019,-0.00174003,-0.00155614,34.0613449,-106.883424,1396.78372,-42.6245838,0.144051624,-0.49941727,,,,,,,,,,,,,,2023-08-31 17:28:52.376388+00:00,1.012598606800966,0.013570244266526633,2.6556181558274354,1.2283038845218661,-2.3544802731874404,0.27844386000000004,117.55050458713453,0.2870823136254363,0.08012457865931268,,,,,,,,0.9230756988550269,0.38461832273476476,,,,,,,,,,,,
2023-08-31 10:28:52.576077-07:00,15.265413,2.88,-0.73,2.78,0.19,23.71,863.1,79.89,22.0,0.0,0.00033999,-0.00100172,-0.00252428,34.0613449,-106.883424,1396.75918,-42.6142657,0.145914172,-0.487999171,,,,,,,,,,,,,,2023-08-31 17:28:52.576077+00:00,1.0128480192619906,0.013574745867836118,2.873420843866173,1.5506263688375483,-2.419112483997027,0.18747572,122.65945624898288,0.28710335238458407,0.09304567768327274,,,,,,,,0.9469439745549626,0.32139867618590207,,,,,,,,,,,,
2023-08-31 10:28:52.776468-07:00,15.465804,3.29,-0.76,3.2,0.12,23.63,863.09,80.2,22.0,0.0,0.000944182,-0.00158288,-0.000394047,34.0613448,-106.883424,1396.7446499999999,-42.6019812,0.147859507,-0.470269247,,,,,,,,,,,,,,2023-08-31 17:28:52.776468+00:00,1.0131093043514803,0.013579290278279995,3.2873436883223732,1.8394078193046668,-2.7245563674539373,0.119605953,124.02415003764816,0.2871403497773754,0.10541902644473701,,,,,,,,0.858817603699501,0.5122814886132886,,,,,,,,,,,,
2023-08-31 10:28:52.976091-07:00,15.665427,2.84,-1.07,2.62,0.24,23.95,863.08,78.92,29.0,0.0,0.00104639,-0.0012067,-0.00268303,34.0613448,-106.883424,1396.725,-42.5917781,0.153293098,-0.479708093,1.83445,22.2988,18864.0,29.1896,,0.348782,-1.0,,,,,,,2023-08-31 17:28:52.976091+00:00,1.0120063806555037,0.013560932927352515,2.8286102304824836,1.20347787539506,-2.5598196888501272,0.23731697,115.18017209869103,0.28708770608843687,0.07917960724540658,2.8713235003092037,116.59228896051381,1.2935457344984087,-2.545154038070763,0.2087884826,0.0833956164249796,0.28709375421048644,0.7555082970149636,0.6551390792355082,-1.0754326314952936,0.13209750252510058,,,,,,,,,,
2023-08-31 10:28:53.176444-07:00,15.86578,2.61,-1.06,2.38,0.24,23.94,863.1,78.83,27.0,0.0,0.000751085,-0.000647111,-0.000157832,34.0613447,-106.883424,1396.704,-42.5847569,0.155550198,-0.473121375,,,,,,,,,,,,,,2023-08-31 17:28:53.176444+00:00,1.012063896456005,0.013561583903915417,2.6044327156136458,1.0344115595487633,-2.3902013504369384,0.239842168,113.4015964721163,0.2870683279251465,0.07294133497963921,,,,,,,,0.6527219850552557,0.7575975252239981,,,,,,,,,,,,
2023-08-31 10:28:53.376314-07:00,16.06565,2.78,-1.37,2.4,0.26,23.51,863.1,80.96,22.0,0.0,0.000565432,-0.000478505,-0.000298398,34.0613446,-106.883424,1396.7058299999999,-42.578877,0.159494203,-0.456153293,,,,,,,,,,,,,,2023-08-31 17:28:53.376314+00:00,1.0135308534959702,0.013586212244049493,2.7628100232613426,0.8398050494060043,-2.632080299615785,0.25970160200000003,107.69606994513066,0.2870690348768893,0.06639243577184244,,,,,,,,0.6459914413799356,0.7633446519521003,,,,,,,,,,,,
2023-08-31 10:28:53.576478-07:00,16.265814,3.06,-1.36,2.73,0.07,23.42,863.11,81.4,24.0,0.0,0.0010606,-0.0013497,0.0029577,34.0613446,-106.883424,1396.7095,-42.5748412,0.160215989,-0.448036588,,,,,,,,,,,,,,2023-08-31 17:28:53.576478+00:00,1.0138501758465004,0.013591418407810854,3.0485271417374395,1.0888949149863607,-2.8474243796853833,0.0729577,110.92755332567421,0.28709490040841096,0.07493212771000914,,,,,,,,0.7862839719594131,0.6178652890717594,,,,,,,,,,,,
2023-08-31 10:28:53.775938-07:00,16.465274,3.08,-1.28,2.78,0.33,23.14,863.1,82.93,30.0,0.0,0.000646466,-0.000644212,0.00241637,34.0613445,-106.883424,1396.7035199999998,-42.5597397,0.15933569,-0.450308549,,,,,,,,,,,,,,2023-08-31 17:28:53.775938+00:00,1.0147965270448362,0.013607477182321871,3.059677750934909,1.1812884545614852,-2.822443183960634,0.33241637,112.71096815077377,0.2870975856876835,0.07834182105167542,,,,,,,,0.705870835467367,0.7083405703731795,,,,,,,,,,,,
2023-08-31 10:28:53.976298-07:00,16.665634,2.99,-1.46,2.59,0.38,23.16,863.11,81.66,25.0,0.0,0.00076201,-0.000915591,-0.000666202,34.0613444,-106.883424,1396.69741,-42.5490795,0.159477834,-0.463076072,1.83664,22.3854,18737.8,29.1988,,0.451406,-1.0,,,,,,,2023-08-31 17:28:53.976298+00:00,1.014739788231233,0.01360636593686984,2.9721552677651024,0.919849747048471,-2.826231303088746,0.379333798,108.02844577809361,0.2870801950265036,0.06903491852178688,3.115157173036772,112.05499791216243,1.172864375990881,-2.8821062613339636,0.2786717274,0.07824585108984806,0.2871003633364451,0.7686267627610032,0.6396975063008614,-1.4649855890318602,0.12625239749323336,,,,,,,,,,
2023-08-31 10:28:54.175695-07:00,16.865031,3.23,-1.37,2.9,0.37,22.99,863.09,82.78,21.0,0.0,0.000431523,0.000134316,0.000696299,34.0613444,-106.883424,1396.67581,-42.5435369,0.156444768,-0.459589094,1.83664,22.3854,18737.8,29.1988,,0.451406,-1.0,,,,,,,2023-08-31 17:28:54.175695+00:00,1.0152987753948548,0.01361607743883528,3.20697083017967,1.210423413511339,-2.9697705409083106,0.370696299,112.17489817880053,0.2871067499329371,0.07942895715050532,3.114080030610373,112.9242674684682,1.2149368045256748,-2.862990020357162,0.2941478308,0.0798482028604656,0.28710092563096296,0.29719647055119736,-0.9548163477297146,-2.0109120516930643,0.26183752291866197,,,,,,,,,,
2023-08-31 10:28:54.376474-07:00,17.06581,3.3,-1.18,3.07,0.24,23.18,863.1,81.92,26.0,0.0,0.000322268,-0.000500812,-0.00204553,34.0613443,-106.883424,1396.66628,-42.5365589,0.157985484,-0.450946178,,,,,,,,,,,,,,2023-08-31 17:28:54.376474+00:00,1.014659545095382,0.013605174999184844,3.2884548745667392,1.463865349846749,-2.9446618990267464,0.23795447,116.43312412747002,0.2871223856266902,0.08949143101526351,,,,,,,,0.8409359392715804,0.5411346838278109,,,,,,,,,,,,
2023-08-31 10:28:54.576606-07:00,17.265942,3.05,-1.15,2.82,0.15,23.34,863.1,80.97,31.0,0.0,0.00180773,-0.00162983,0.000338217,34.0613442,-106.883424,1396.65798,-42.5271869,0.156801632,-0.451558779,,,,,,,,,,,,,,2023-08-31 17:28:54.576606+00:00,1.014111986907196,0.013595974201804768,3.0431414296054458,1.2992570576603295,-2.751843174801373,0.150338217,115.2739011072031,0.28709771188100036,0.08294388656309688,,,,,,,,0.6696166143361478,0.7427069339954991,,,,,,,,,,,,
2023-08-31 10:28:54.775971-07:00,17.465307,2.81,-1.14,2.54,0.39,23.33,863.11,80.99,24.0,0.0,0.00149614,-0.00111444,0.00106778,34.0613442,-106.883424,1396.64382,-42.5174542,0.155158154,-0.449438954,,,,,,,,,,,,,,2023-08-31 17:28:54.775971+00:00,1.014157942022385,0.013596588762482141,2.782282713158877,1.1006183141801629,-2.555334894379588,0.39106778000000003,113.30221752260772,0.28707216305344524,0.075396505776967,,,,,,,,0.5973672366762336,0.8019678201435521,,,,,,,,,,,,
2023-08-31 10:28:54.975715-07:00,17.665051,3.15,-1.35,2.83,0.38,23.22,863.1,81.62,22.0,0.0,0.00185703,-0.00114075,-0.00133682,34.0613441,-106.883424,1396.63943,-42.5077307,0.154771863,-0.462893359,,,,,,,,,,,,,,2023-08-31 17:28:54.975715+00:00,1.0145226001218561,0.013602873609969889,3.1333572844276456,1.172915058815074,-2.905546099562115,0.37866318,111.98301581259014,0.2870965826433456,0.0780851481749367,,,,,,,,0.5234191052690439,0.8520753723934014,,,,,,,,,,,,
2023-08-31 10:28:55.175816-07:00,17.865152,3.19,-1.33,2.88,0.34,23.23,863.1,81.41,27.0,0.0,0.000636968,-0.000397532,0.00118754,34.061344,-106.883424,1396.6289299999999,-42.4968019,0.15417171,-0.456835693,1.83817,21.8861,18776.6,29.2092,,0.472036,-1.0,,,,,,,2023-08-31 17:28:55.175816+00:00,1.014488369654209,0.013602298386668961,3.1715294127596194,1.224589557168755,-2.925573316885531,0.34118754,112.71326182562044,0.2871001691278877,0.08002552674355463,2.8876916245256767,112.09588424260292,1.0870772580989232,-2.674895036519584,0.38933611999999995,0.07499428563736776,0.2870765702935998,0.5294500500150581,0.848341113314127,-0.4940109794762153,0.20767078791488233,,,,,,,,,,
2023-08-31 10:28:55.376074-07:00,18.06541,2.64,-1.13,2.35,0.43,23.3,863.11,81.24,30.0,0.0,0.00136249,-0.000685583,-0.00106746,34.061344,-106.883424,1396.6227099999999,-42.4943812,0.156197949,-0.454853115,,,,,,,,,,,,,,2023-08-31 17:28:55.376074+00:00,1.0142605722745712,0.013598313105273449,2.606046205088447,0.9687366148802955,-2.4193028322320798,0.42893254,111.82213874450701,0.28705378696672623,0.07072725855163567,,,,,,,,0.4494874400532741,0.8932866512124505,,,,,,,,,,,,
2023-08-31 10:28:55.576442-07:00,18.265778,2.78,-1.24,2.45,0.41,23.19,863.11,81.69,23.0,0.0,0.000400077,-0.000871059,-0.00317044,34.0613439,-106.883424,1396.5894999999998,-42.4821555,0.155479553,-0.472957551,,,,,,,,,,,,,,2023-08-31 17:28:55.576442+00:00,1.0146370609799444,0.013604639511742804,2.745242507193795,0.9685267454503285,-2.568718039538608,0.40682956,110.6587873076893,0.2870601496765941,0.07073698893974475,,,,,,,,0.908731967189732,0.41738017658662196,,,,,,,,,,,,
2023-08-31 10:28:55.775847-07:00,18.465183,2.83,-1.44,2.39,0.44,23.02,863.11,82.53,22.0,0.0,-0.000512641,0.00082998,-0.00461661,34.0613439,-106.883424,1396.59133,-42.4742972,0.153190302,-0.47228849,,,,,,,,,,,,,,2023-08-31 17:28:55.775847+00:00,1.0152194572400874,0.013614428496587455,2.7910135607156783,0.7912734386127627,-2.676498279738798,0.43538339,106.4696587789823,0.2870541884313801,0.06494118956256274,,,,,,,,0.8507951127470587,0.5254975510178138,,,,,,,,,,,,
2023-08-31 10:28:55.976181-07:00,18.665517,3.11,-1.61,2.63,0.4,22.95,863.1,82.97,27.0,0.0,0.00178255,-0.0014665,-0.00178953,34.0613438,-106.883424,1396.58096,-42.4633464,0.155064224,-0.463648173,1.84384,21.4464,18401.5,29.2192,,0.408315,-1.0,,,,,,,2023-08-31 17:28:55.976181+00:00,1.015447696717712,0.013618423406693803,3.0815480563088284,0.8517685191420885,-2.9614909780614243,0.39821047000000004,106.04601643100239,0.2870732301407502,0.06690837129083141,2.9806070625688954,108.77592728618181,0.9597938307979961,-2.8194349264400955,0.36598984999999995,0.07060669944035118,0.28707228424707576,0.6353245075268468,0.7722452784807231,-1.0500598519958666,0.1735551639024389,,,,,,,,,,
2023-08-31 10:28:56.175945-07:00,18.865281,3.2,-1.39,2.87,0.3,22.98,863.11,82.91,28.0,0.0,0.000168434,-0.000495232,0.00124824,34.0613438,-106.883424,1396.57034,-42.4520312,0.157940598,-0.466187539,,,,,,,,,,,,,,2023-08-31 17:28:56.175945+00:00,1.0153565888319207,0.013616733874311868,3.1885473276197414,1.1789012226740079,-2.9626045918496655,0.30124824,111.69895928773448,0.2870945632747551,0.07832972210286436,,,,,,,,0.9467406255511724,0.32199718621592754,,,,,,,,,,,,
2023-08-31 10:28:56.376299-07:00,19.065635,3.11,-1.48,2.72,0.29,22.94,863.1,82.11,22.0,0.0,-5.7324e-05,0.000156316,-0.00172241,34.0613438,-106.883424,1396.5605699999999,-42.4447827,0.159445117,-0.456826675,,,,,,,,,,,,,,2023-08-31 17:28:56.376299+00:00,1.0154819919555356,0.013619000021046141,3.0966838610064333,1.008499228110793,-2.927862743011982,0.28827759,109.00621462550058,0.28707928971189933,0.07211722530575267,,,,,,,,0.9388605259067261,0.34429770968472284,,,,,,,,,,,,
2023-08-31 10:28:56.575984-07:00,19.26532,2.55,-1.36,2.11,0.39,23.14,863.11,81.0,22.0,0.0,0.00106353,-0.000796469,0.000420366,34.0613437,-106.883424,1396.5592299999998,-42.4371603,0.158471453,-0.45374168,,,,,,,,,,,,,,2023-08-31 17:28:56.575984+00:00,1.014808284622487,0.013607517135110245,2.5090874107793497,0.6387187893619569,-2.4264290517234204,0.390420366,104.74764448356254,0.28702709531454806,0.06068281849892046,,,,,,,,0.5994321988133632,0.8004255362154412,,,,,,,,,,,,
2023-08-31 10:28:56.776024-07:00,19.46536,2.55,-1.34,2.13,0.37,23.21,863.11,81.0,28.0,0.0,0.000353398,-0.000571184,0.00138824,34.0613436,-106.883424,1396.5578899999998,-42.4285501,0.160451552,-0.462796666,,,,,,,,,,,,,,2023-08-31 17:28:56.776024+00:00,1.0145685877000832,0.01360348880973989,2.515953580046842,0.6675646522342629,-2.4257740727524215,0.37138824,105.38672035550294,0.2870272293898224,0.06145766550104606,,,,,,,,0.8503931165807053,0.5261478378480282,,,,,,,,,,,,
2023-08-31 10:28:56.975835-07:00,19.665171,2.44,-1.1,2.15,0.34,23.31,863.12,80.35,28.0,0.0,-6.68715e-05,0.000342236,-0.00112723,34.0613436,-106.883424,1396.5434799999998,-42.4180737,0.160350178,-0.459215823,,,,,,,,,,,,,,2023-08-31 17:28:56.975835+00:00,1.0142381107180694,0.013597778165044414,2.415239373005744,0.845574995950646,-2.2623846169783435,0.33887277000000005,110.4934238677859,0.28702710258645914,0.06669625819910874,,,,,,,,0.9814400266711371,0.19176932509595435,,,,,,,,,,,,
2023-08-31 10:28:57.176282-07:00,19.865618,2.29,-1.01,2.0,0.48,23.46,863.12,79.64,22.0,0.0,0.000931859,-0.000208507,-0.00111107,34.0613435,-106.883424,1396.5372599999998,-42.4092391,0.15427216,-0.449732127,,,,,,,,,,,,,,2023-08-31 17:28:57.176282+00:00,1.0137251957232691,0.013589161593712679,2.23961279518602,0.7953190175572917,-2.0936411184041646,0.47888893,110.80046306599226,0.28701464647246766,0.06515839971075474,,,,,,,,0.21835451958560048,0.9758695116543716,,,,,,,,,,,,
2023-08-31 10:28:57.376575-07:00,20.065911,2.54,-1.03,2.29,0.4,23.52,863.11,79.28,23.0,0.0,-0.000181721,-0.000225112,-0.00396434,34.0613435,-106.883424,1396.52993,-42.3995651,0.156016844,-0.461817836,,,,,,,,,,,,,,2023-08-31 17:28:57.376575+00:00,1.0135084324360288,0.013585678268624364,2.5110533761541696,0.996323652939866,-2.304935625237246,0.39603566,113.37673351419633,0.28703535584920786,0.07174575037923803,,,,,,,,0.7781105011538718,-0.6281274138214877,,,,,,,,,,,,
2023-08-31 10:28:57.576627-07:00,20.265963,2.93,-0.87,2.78,0.33,23.24,863.09,80.7,29.0,0.0,-0.000507043,0.0010272,-0.00099521,34.0613434,-106.883424,1396.5169899999999,-42.3911801,0.155882256,-0.453844883,,,,,,,,,,,,,,2023-08-31 17:28:57.576627+00:00,1.0144423878856652,0.013601683297526826,2.9139091682807816,1.4676774126054168,-2.5172980859482386,0.32900479,120.24375883273302,0.2870789359930684,0.08968499980530144,,,,,,,,0.8967050697579508,0.4426285325985984,,,,,,,,,,,,
2023-08-31 10:28:57.776091-07:00,20.465427,2.59,-0.35,2.56,0.23,22.87,863.11,82.51,26.0,0.0,0.000396638,0.000561179,-0.00366808,34.0613434,-106.883424,1396.5050299999998,-42.3818656,0.151230418,-0.457580901,,,,,,,,,,,,,,2023-08-31 17:28:57.776091+00:00,1.0157338918005427,0.013623077768449142,2.5838699798139526,1.6556290915265544,-1.9837531055740563,0.22633192000000002,129.8481838334538,0.28705652120188063,0.09754512482456988,,,,,,,,0.8166169362498623,-0.577180023415475,,,,,,,,,,,,
2023-08-31 10:28:57.976225-07:00,20.665561,2.9,-0.23,2.88,0.26,22.83,863.11,82.71,21.0,0.0,-4.44548e-05,-0.000145113,-0.00192385,34.0613434,-106.883424,1396.50283,-42.3721781,0.151695705,-0.471644723,1.84762,21.7605,17851.7,29.2382,,0.339963,-1.0,,,,,,,2023-08-31 17:28:57.976225+00:00,1.015871162412314,0.013625386133124544,2.8891028322421812,1.9725419594389613,-2.110922403482064,0.25807615,133.05910331743428,0.2870871163983981,0.11134136397421397,2.6185641930891825,132.600096948288,1.735116097188022,-1.9319803863970655,0.25982822599999994,0.10109645582407567,0.2870590075124556,0.9561400856112992,-0.29290977567711446,-2.355476358850135,0.09564797001521642,,,,,,,,,,
2023-08-31 10:28:58.176580-07:00,20.865916,2.67,-0.01,2.67,0.19,23.2,863.1,80.88,24.0,0.0,0.000261992,-0.000408558,-0.00108653,34.0613433,-106.883424,1396.4891599999999,-42.3631304,0.15276944,-0.470716266,,,,,,,,,,,,,,2023-08-31 17:28:58.176580+00:00,1.0145910679875636,0.013604024205362454,2.669540620881775,1.9656870645375433,-1.8062451358682268,0.18891347,137.42048740523757,0.2870646617797709,0.1110547287273064,,,,,,,,0.8417894052505849,0.5398060737041281,,,,,,,,,,,,
2023-08-31 10:28:58.376274-07:00,21.06561,2.06,0.17,2.03,0.3,23.34,863.11,80.39,30.0,0.0,0.000335741,-0.000634251,-0.0031852,34.0613432,-106.883424,1396.4836699999998,-42.3546551,0.151014989,-0.484719761,,,,,,,,,,,,,,2023-08-31 17:28:58.376274+00:00,1.0141237365536668,0.013596014080611432,2.0363983642272205,1.6140449578316334,-1.2416832011127399,0.2968148,142.4289513525814,0.28700780218915994,0.09585606178898665,,,,,,,,0.8838103539794457,0.46784533576677534,,,,,,,,,,,,
2023-08-31 10:28:58.576691-07:00,21.266027,2.11,0.4,2.05,0.35,23.38,863.1,80.16,24.0,0.0,0.000837915,0.000240011,0.00019532,34.0613432,-106.883424,1396.4868399999998,-42.3472476,0.147131428,-0.488532852,,,,,,,,,,,,,,2023-08-31 17:28:58.576691+00:00,1.0139751896877702,0.01359367598422675,2.088429700723745,1.7847944051500546,-1.0844572588212653,0.35019532,148.71675511621447,0.287008089492259,0.10311621214810972,,,,,,,,0.2753646150639367,-0.9613398612201046,,,,,,,,,,,,
2023-08-31 10:28:58.776059-07:00,21.465395,2.45,0.5,2.38,0.3,23.24,863.11,79.85,21.0,0.0,0.000286297,0.000364263,-0.000338531,34.0613431,-106.883424,1396.48623,-42.3363308,0.148602977,-0.481688117,,,,,,,,,,,,,,2023-08-31 17:28:58.776059+00:00,1.014465895107111,0.01360176312873149,2.432122749446878,2.096410931894591,-1.2329972721015625,0.299661469,149.5382243494186,0.28703377626181564,0.11686020994671587,,,,,,,,0.786223584869708,-0.6179421288394448,,,,,,,,,,,,
2023-08-31 10:28:58.976251-07:00,21.665587,2.12,0.19,2.08,0.39,23.42,863.11,78.93,26.0,0.0,0.000304339,-0.000580691,0.000772191,34.0613431,-106.883424,1396.4919699999998,-42.3301594,0.150425035,-0.475172209,1.84662,21.81,17750.1,29.2478,,0.218175,-1.0,,,,,,,2023-08-31 17:28:58.976251+00:00,1.0138501758465004,0.013591418407810854,2.0880131511321753,1.6650612429131046,-1.2599087175861527,0.390772191,142.88615077729037,0.28700758811998256,0.09802799686533566,2.0397239434703844,142.50169139534447,1.6143096845362301,-1.2185627428599417,0.33993209799999996,0.09624598981067473,0.287003407333141,0.885726484189686,0.46420749154335916,-0.3299386447651619,0.09760169319495901,,,,,,,,,,
2023-08-31 10:28:59.175821-07:00,21.865157,1.98,-0.3,1.92,0.37,23.48,863.12,78.73,29.0,0.0,-6.57624e-05,0.000116143,0.0013675,34.061343,-106.883424,1396.4866,-42.3221531,0.148632234,-0.475392277,1.84662,21.81,17750.1,29.2478,,0.218175,-1.0,,,,,,,2023-08-31 17:28:59.175821+00:00,1.0136568462511506,0.01358801355854829,1.943420193870988,1.2177185920773346,-1.5146100093604105,0.3713675,128.79864161452227,0.28699409505562473,0.07988123506435797,2.0139452195432725,141.41226887730423,1.5714483249333804,-1.2360513524421513,0.31840327600000007,0.09442603354872366,0.28700050488636525,0.8701891425957812,0.4927178260509956,-0.3013178641733375,0.09983592652588956,,,,,,,,,,
2023-08-31 10:28:59.375787-07:00,22.065123,1.67,0.14,1.64,0.29,23.43,863.11,78.86,24.0,0.0,-0.00034226,0.000580711,-0.00233599,34.061343,-106.883424,1396.4874499999999,-42.3134145,0.146067177,-0.479026918,,,,,,,,,,,,,,2023-08-31 17:28:59.375787+00:00,1.0138159911349272,0.013590844171386686,1.6466339221781368,1.307563250646066,-1.0008404564303182,0.28766400999999997,142.5686851192765,0.2869734877360231,0.08334429502885445,,,,,,,,0.8615025733940106,0.5077532038653202,,,,,,,,,,,,
2023-08-31 10:28:59.575846-07:00,22.265182,1.97,0.19,1.95,0.24,23.41,863.12,79.1,22.0,0.0,0.000121044,0.000466603,0.00255121,34.0613429,-106.883424,1396.49856,-42.3064539,0.147160961,-0.475418158,,,,,,,,,,,,,,2023-08-31 17:28:59.575846+00:00,1.0138961097365755,0.013592032547004302,1.9595360810881843,1.5704876071358067,-1.1719003067323122,0.24255121,143.26964252601323,0.28699357725838015,0.09401643083835437,,,,,,,,0.9679601737176607,-0.2511037675871791,,,,,,,,,,,,
2023-08-31 10:28:59.776068-07:00,22.465404,1.76,-0.2,1.72,0.29,23.92,863.12,76.59,28.0,0.0,-0.000563954,0.000901473,0.00196376,34.0613429,-106.883424,1396.5145499999999,-42.2981323,0.149416852,-0.477467659,,,,,,,,,,,,,,2023-08-31 17:28:59.776068+00:00,1.0121554862607427,0.013562806720341816,1.7326063092491664,1.1385070093643388,-1.3060346138132355,0.29196375999999996,131.0795758072964,0.28697578676004004,0.07689689725335064,,,,,,,,0.8477727881147737,0.5303595947393644,,,,,,,,,,,,
2023-08-31 10:28:59.976465-07:00,22.665801,1.73,-0.29,1.69,0.25,23.91,863.12,76.78,29.0,0.0,-0.000358022,0.000221202,0.000835028,34.0613428,-106.883424,1396.50686,-42.2899389,0.150618634,-0.475765282,1.84608,20.797,17703.1,29.2576,,0.135446,-1.0,,,,,,,2023-08-31 17:28:59.976465+00:00,1.012189558686726,0.013563378544173851,1.7151194731154065,1.0552614972743222,-1.3520569438562953,0.250835028,127.97153900647817,0.28697226209301585,0.07390278047420952,1.783648033530978,127.22778096981924,1.0689622166732462,-1.3912261961689878,0.2713370892,0.07504105345477503,0.28697478066168214,0.5256145914330095,0.8507228110687467,0.17814175320428027,0.20872420036761843,,,,,,,,,,
2023-08-31 10:29:00.175942-07:00,22.865278,1.74,-0.5,1.64,0.26,23.69,863.11,77.78,23.0,0.0,-0.00062832,0.000873499,0.00166012,34.0613427,-106.883424,1396.51711,-42.281846,0.150469174,-0.479093407,1.84608,20.797,17703.1,29.2576,,0.135446,-1.0,,,,,,,2023-08-31 17:29:00.175942+00:00,1.012927997071812,0.013575931367255127,1.7155129197602312,0.8778290859326582,-1.473906602792357,0.26166012,120.77717610210559,0.28696747000112055,0.0678420415417676,1.675872398898472,125.88007339004874,0.9610726100344916,-1.3523174921429388,0.2525506832,0.07085028536736585,0.2869661994042425,0.8117983545678122,0.583937866147583,-0.5366024258584788,0.10841983478529572,,,,,,,,,,
2023-08-31 10:29:00.376250-07:00,23.065586,1.82,-0.75,1.63,0.31,23.78,863.11,77.37,22.0,0.0,-0.0008495,0.00106062,-0.000324672,34.0613427,-106.883424,1396.5128399999999,-42.2713457,0.148990838,-0.485927361,,,,,,,,,,,,,,2023-08-31 17:29:00.376250+00:00,1.012620976832239,0.013570777012920183,1.795465384441903,0.7027258836591046,-1.6522325136507396,0.30967532799999997,113.04097140720279,0.2869648071958539,0.06254711716619302,,,,,,,,0.7805082688901174,0.6251454568291704,,,,,,,,,,,,
2023-08-31 10:29:00.576407-07:00,23.265743,1.43,-0.03,1.42,0.15,24.02,863.13,76.26,28.0,0.0,-0.000137719,0.000339378,-0.00138082,34.0613426,-106.883424,1396.50137,-42.2639878,0.151117593,-0.475465437,,,,,,,,,,,,,,2023-08-31 17:29:00.576407+00:00,1.0118266108832015,0.013557130813811054,1.4206579079256514,1.0310395739420337,-0.9773567866020672,0.14861918,136.53110462716066,0.28695067097118215,0.0730625904013085,,,,,,,,0.9266124711674566,0.3760177233548166,,,,,,,,,,,,
