Timestamp,Seconds,S,Um,Vm,Wm,T,P,H,MD,Sts,Vx,Vy,Vz,Lat,Lon,Alt,Yaw,Roll,Pitch,CH4,C2H6,H2O,T_a,Batt,R,C2C1,Power,Current,SOC,Lat_a,Lon_a,TS,Timestamp_UTC,Rho,Rho_err,Sc,V,U,W,WD,V_err,U_err,Sc_avg,WD_avg,V_avg,U_avg,W_avg,U_err_avg,V_err_avg,Nx,Ny,cross_wind,cross_wind_err,CH4_sub,CH4_res,CH4_adj,CH4_adj_err,BG_Samples_CH4,C2H6_sub,C2H6_res,C2H6_adj,C2H6_adj_err,BG_Samples_C2H6,x_dist,y_dist,s_dist,z_dist,velocity_s,velocity_z,x_src_dist,y_src_dist,s_src_dist,collecting,group,transect_num
2023-08-10 11:55:27.766750-07:00,0.629788,3.5,-1.01,-3.34,0.32,26.38,860.93,46.45,27.0,-1.0,,,,,,,,,,1.82925,8.56083,17919.6,41.3912,10881.0,-0.39525,-1.0,13.0,-1412.0,58.0,,0.0,,2023-08-10 18:55:27.766750+00:00,1.0012957311991573,0.013415132072712738,,,,,,,,,,,,,,,,,,,,,,,,,,,,,,,,,,,,,,False,,
2023-08-10 11:55:28.598826-07:00,1.461864,3.65,-1.47,-3.3,0.48,26.55,860.93,45.95,31.0,-1.0,,,,,,,,,,1.82519,9.92881,17956.9,41.3909,10907.0,-0.390521,-1.0,14.0,-1412.0,58.0,,0.0,,2023-08-10 18:55:28.598826+00:00,1.0007277623159279,0.01340563398855274,,,,,,,,,,,,,,,,,,,,,,,,,,,,,,,,,,,,,,False,,
2023-08-10 11:55:28.798228-07:00,1.661266,4.02,-1.46,-3.73,0.32,26.48,860.93,46.19,32.0,-1.0,,,,,,,,,,1.82519,9.92881,17956.9,41.3909,10907.0,-0.390521,-1.0,14.0,-1412.0,58.0,,0.0,,2023-08-10 18:55:28.798228+00:00,1.0009615538033025,0.013409543301950232,,,,,,,,,,,,,,,,,,,,,,,,,,,,,,,,,,,,,,False,,
2023-08-10 11:55:29.798727-07:00,2.661765,3.18,-1.38,-2.82,0.54,26.43,860.94,46.2,30.0,-1.0,,,,,,,,,,1.8228,10.2284,17975.3,41.3906,10904.0,-0.37374,-1.0,15.0,-1407.0,58.0,,0.0,,2023-08-10 18:55:29.798727+00:00,1.0011402430695164,0.013412375778404031,,,,,,,,,,,,,,,,,,,,,,,,,,,,,,,,,,,,,,False,,
2023-08-10 11:55:30.599072-07:00,3.46211,2.93,-1.57,-2.38,0.69,26.76,860.9,45.31,26.0,-1.0,,,,,,,,,,1.82062,9.95495,17980.5,41.3904,10904.0,-0.365019,-1.0,14.0,-1418.0,58.0,,0.0,,2023-08-10 18:55:30.599072+00:00,0.9999921956854959,0.013393804288329737,,,,,,,,,,,,,,,,,,,,,,,,,,,,,,,,,,,,,,False,,
2023-08-10 11:55:30.798871-07:00,3.661909,2.51,-1.38,-1.96,0.75,26.88,860.92,45.14,26.0,-1.0,,,,,,,,,,1.82062,9.95495,17980.5,41.3904,10904.0,-0.365019,-1.0,14.0,-1418.0,58.0,,0.0,,2023-08-10 18:55:30.798871+00:00,0.9996154608319214,0.013387197125939857,,,,,,,,,,,,,,,,,,,,,,,,,,,,,,,,,,,,,,False,,
2023-08-10 11:55:31.598962-07:00,4.462,2.7,-1.62,-1.98,0.86,26.71,860.93,45.6,29.0,-1.0,,,,,,,,,,1.82455,8.58504,17999.6,41.389,10890.0,-0.375063,-1.0,16.0,-1415.0,58.0,,0.0,,2023-08-10 18:55:31.598962+00:00,1.000193791656385,0.01339670714261432,,,,,,,,,,,,,,,,,,,,,,,,,,,,,,,,,,,,,,False,,
2023-08-10 11:55:31.798289-07:00,4.661327,2.46,-1.41,-1.9,0.67,26.92,860.92,45.04,29.0,-1.0,,,,,,,,,,1.82455,8.58504,17999.6,41.389,10890.0,-0.375063,-1.0,16.0,-1415.0,58.0,,0.0,,2023-08-10 18:55:31.798289+00:00,0.99948220986237,0.01338497053959299,,,,,,,,,,,,,,,,,,,,,,,,,,,,,,,,,,,,,,False,,
2023-08-10 11:55:32.598377-07:00,5.461415,2.96,-1.55,-2.4,0.77,26.7,860.92,45.66,31.0,-1.0,,,,,,,,,,1.82856,10.1517,18024.1,41.3889,10863.0,-0.342958,-1.0,17.0,-1394.0,58.0,,0.0,,2023-08-10 18:55:32.598377+00:00,1.0002155301430762,0.0133972261260932,,,,,,,,,,,,,,,,,,,,,,,,,,,,,,,,,,,,,,False,,
2023-08-10 11:55:33.599169-07:00,6.462207,2.57,-1.58,-1.98,0.4,26.79,860.92,45.35,27.0,-1.0,,,,,,,,,,1.8299,9.64782,18034.8,41.3877,10863.0,-0.433688,-1.0,17.0,-1394.0,58.0,,0.0,,2023-08-10 18:55:33.599169+00:00,0.9999154054590965,0.01339220971010062,,,,,,,,,,,,,,,,,,,,,,,,,,,,,,,,,,,,,,False,,
2023-08-10 11:55:34.798697-07:00,7.661735,2.44,-1.48,-1.92,0.28,27.53,860.91,43.41,28.0,-1.0,,,,,,,,,,1.82159,7.80982,18055.5,41.3879,10841.0,-0.315763,-1.0,17.0,-1387.0,58.0,,0.0,,2023-08-10 18:55:34.798697+00:00,0.9974429395394415,0.013351070210258685,,,,,,,,,,,,,,,,,,,,,,,,,,,,,,,,,,,,,,False,,
2023-08-10 11:55:35.798725-07:00,8.661763,3.97,-2.21,-3.3,0.13,26.72,860.91,45.62,32.0,-1.0,,,,,,,,,,1.82296,9.53739,18097.9,41.3872,10863.0,-0.273214,-1.0,16.0,-1387.0,58.0,,0.0,,2023-08-10 18:55:35.798725+00:00,1.0001372029903597,0.013396072454056272,,,,,,,,,,,,,,,,,,,,,,,,,,,,,,,,,,,,,,False,,
2023-08-10 11:55:36.598874-07:00,9.461912,4.04,-1.48,-3.76,-0.07,26.47,860.89,46.24,26.0,-1.0,,,,,,,,,,1.82382,7.93065,18126.7,41.3863,10891.0,-0.256925,-1.0,15.0,-1388.0,58.0,,0.0,,2023-08-10 18:55:36.598874+00:00,1.0009484538927804,0.013409947285036266,,,,,,,,,,,,,,,,,,,,,,,,,,,,,,,,,,,,,,False,,
2023-08-10 11:55:37.798699-07:00,10.661737,2.56,-1.35,-2.1,0.57,26.68,860.91,45.82,28.0,-1.0,,,,,,,,,,1.82696,8.56741,18094.9,41.3862,10909.0,-0.265194,-1.0,14.0,-1387.0,58.0,,0.0,,2023-08-10 18:55:37.798699+00:00,1.0002706302261921,0.013398302810286101,,,,,,,,,,,,,,,,,,,,,,,,,,,,,,,,,,,,,,False,,
2023-08-10 11:55:38.599060-07:00,11.462098,3.63,-1.52,-3.27,0.41,26.77,860.94,45.49,33.0,-1.0,,,,,,,,,,1.82464,8.52643,18116.9,41.3862,10916.0,-0.271729,-1.0,15.0,-1403.0,58.0,,0.0,,2023-08-10 18:55:38.599060+00:00,1.0000053148131693,0.013393401266642617,,,,,,,,,,,,,,,,,,,,,,,,,,,,,,,,,,,,,,False,,
2023-08-10 11:55:39.798400-07:00,12.661438,3.68,-1.22,-3.46,0.22,26.31,860.92,46.74,26.0,-1.0,,,,,,,,,,1.82597,9.22591,18117.3,41.3863,10913.0,-0.272803,-1.0,17.0,-1424.0,58.0,,0.0,,2023-08-10 18:55:39.798400+00:00,1.0015181550571073,0.013419008313804433,,,,,,,,,,,,,,,,,,,,,,,,,,,,,,,,,,,,,,False,,
2023-08-10 11:55:40.798477-07:00,13.661515,4.49,-3.02,-3.32,0.18,26.67,860.91,45.85,26.0,-1.0,,,,,,,,,,1.81976,7.51558,18100.5,41.3852,10889.0,-0.0544213,-1.0,17.0,-1428.0,58.0,,0.0,,2023-08-10 18:55:40.798477+00:00,1.000303992597956,0.013398860517757911,,,,,,,,,,,,,,,,,,,,,,,,,,,,,,,,,,,,,,False,,
2023-08-10 11:55:41.599148-07:00,14.462186,4.05,-2.08,-3.48,0.16,26.61,860.92,46.02,32.0,-1.0,,,,,,,,,,1.8274,8.00939,18133.0,41.3841,10867.0,-0.0423445,-1.0,18.0,-1403.0,58.0,,0.0,,2023-08-10 18:55:41.599148+00:00,1.0005158350460415,0.013402246378262768,,,,,,,,,,,,,,,,,,,,,,,,,,,,,,,,,,,,,,False,,
2023-08-10 11:55:41.798302-07:00,14.66134,3.94,-2.17,-3.28,0.17,26.55,860.91,46.19,28.0,-1.0,,,,,,,,,,1.8274,8.00939,18133.0,41.3841,10867.0,-0.0423445,-1.0,18.0,-1403.0,58.0,,0.0,,2023-08-10 18:55:41.798302+00:00,1.0007045147171145,0.013405556704585887,,,,,,,,,,,,,,,,,,,,,,,,,,,,,,,,,,,,,,False,,
2023-08-10 11:55:42.598614-07:00,15.461652,4.48,-2.02,-3.99,0.13,26.39,860.9,46.65,27.0,-1.0,,,,,,,,,,1.83049,7.58453,18178.5,41.3842,10857.0,-0.0832674,-1.0,19.0,-1386.0,58.0,,0.0,,2023-08-10 18:55:42.598614+00:00,1.0012274133939945,0.013414456885834689,,,,,,,,,,,,,,,,,,,,,,,,,,,,,,,,,,,,,,False,,
2023-08-10 11:55:43.798698-07:00,16.661736,2.3,-1.3,-1.85,0.41,26.55,860.91,46.27,26.0,-1.0,,,,,,,,,,1.82492,10.1816,18197.5,41.3836,10849.0,-0.0828215,-1.0,15.0,-1403.0,58.0,,0.0,,2023-08-10 18:55:43.798698+00:00,1.0007045147171145,0.013405556704585887,,,,,,,,,,,,,,,,,,,,,,,,,,,,,,,,,,,,,,False,,
2023-08-10 11:55:44.598677-07:00,17.461715,3.91,-2.73,-2.79,0.22,26.72,860.89,45.78,30.0,-1.0,,,,,,,,,,1.82387,9.33729,18194.1,41.3826,10862.0,-0.0838102,-1.0,14.0,-1385.0,58.0,,0.0,,2023-08-10 18:55:44.598677+00:00,1.0001139685708968,0.013395995291949207,,,,,,,,,,,,,,,,,,,,,,,,,,,,,,,,,,,,,,False,,
2023-08-10 11:55:47.798870-07:00,20.661908,2.98,-2.65,-1.31,0.37,25.83,860.85,48.3,30.0,-1.0,,,,,,,,,,1.82364,9.15889,18032.1,41.3819,10910.0,-0.0142468,-1.0,14.0,-1416.0,58.0,,0.0,,2023-08-10 18:55:47.798870+00:00,1.003044488409346,0.0134456442919413,,,,,,,,,,,,,,,,,,,,,,,,,,,,,,,,,,,,,,False,,
2023-08-10 11:55:48.598995-07:00,21.462033,2.41,-2.19,-1.01,-0.05,26.14,860.86,47.42,34.0,-1.0,,,,,,,,,,1.82806,7.09139,17984.0,41.3815,10904.0,-0.054342,-1.0,15.0,-1431.0,58.0,,0.0,,2023-08-10 18:55:48.598995+00:00,1.0020171900073787,0.01342829302640639,,,,,,,,,,,,,,,,,,,,,,,,,,,,,,,,,,,,,,False,,
2023-08-10 11:55:48.798318-07:00,21.661356,2.83,-2.78,-0.49,0.02,26.05,860.84,47.63,32.0,-1.0,,,,,,,,,,1.82806,7.09139,17984.0,41.3815,10904.0,-0.054342,-1.0,15.0,-1431.0,58.0,,0.0,,2023-08-10 18:55:48.798318+00:00,1.002295312473075,0.013433259418394409,,,,,,,,,,,,,,,,,,,,,,,,,,,,,,,,,,,,,,False,,
2023-08-10 11:55:49.598632-07:00,22.46167,2.4,-2.25,-0.82,0.06,26.13,860.84,47.51,26.0,-1.0,,,,,,,,,,1.82529,9.43798,17973.8,41.3805,10887.0,-0.0543417,-1.0,15.0,-1415.0,58.0,,0.0,,2023-08-10 18:55:49.598632+00:00,1.002027390710853,0.013428775704984113,,,,,,,,,,,,,,,,,,,,,,,,,,,,,,,,,,,,,,False,,
2023-08-10 11:55:50.598582-07:00,23.46162,2.06,-0.82,-1.86,0.35,26.71,860.82,45.93,27.0,-1.0,,,,,,,,,,1.82298,9.08103,17942.5,41.3822,10852.0,0.031021,-1.0,17.0,-1391.0,58.0,,0.0,,2023-08-10 18:55:50.598582+00:00,1.0000659980877067,0.013396282721343923,,,,,,,,,,,,,,,,,,,,,,,,,,,,,,,,,,,,,,False,,
2023-08-10 11:55:51.798779-07:00,24.661817,3.23,-2.87,-1.41,0.41,26.17,860.77,47.31,33.0,-1.0,,,,,,,,,,1.82133,10.7931,17978.3,41.3799,10852.0,-0.136344,-1.0,17.0,-1391.0,58.0,,0.0,,2023-08-10 18:55:51.798779+00:00,1.0018120136414834,0.013426263580631181,,,,,,,,,,,,,,,,,,,,,,,,,,,,,,,,,,,,,,False,,
2023-08-10 11:55:52.798422-07:00,25.66146,3.62,-3.21,-1.45,0.85,26.32,860.75,46.96,26.0,-1.0,,,,,,,,,,1.82478,8.97613,17978.4,41.3803,10847.0,-0.121174,-1.0,16.0,-1390.0,58.0,,0.0,,2023-08-10 18:55:52.798422+00:00,1.0012869556810515,0.013417790639309507,,,,,,,,,,,,,,,,,,,,,,,,,,,,,,,,,,,,,,False,,
2023-08-10 11:55:53.598966-07:00,26.462004,4.0,-3.05,-2.58,0.18,26.3,860.77,47.02,27.0,-1.0,,,,,,,,,,1.82327,7.59828,17976.6,41.3797,10853.0,-0.0896779,-1.0,14.0,-1385.0,58.0,,0.0,,2023-08-10 18:55:53.598966+00:00,1.0013770977564496,0.013418986857531495,,,,,,,,,,,,,,,,,,,,,,,,,,,,,,,,,,,,,,False,,
2023-08-10 11:55:53.798170-07:00,26.661208,3.78,-3.2,-2.0,0.04,26.27,860.78,47.15,29.0,-1.0,,,,,,,,,,1.82327,7.59828,17976.6,41.3797,10853.0,-0.0896779,-1.0,14.0,-1385.0,58.0,,0.0,,2023-08-10 18:55:53.798170+00:00,1.0014890641101162,0.013420704123540574,,,,,,,,,,,,,,,,,,,,,,,,,,,,,,,,,,,,,,False,,
2023-08-10 11:55:55.598961-07:00,28.461999,3.14,-2.45,-1.94,0.28,26.22,860.81,47.34,28.0,-1.0,,,,,,,,,,1.82595,8.76932,17949.3,41.3782,10888.0,-0.170723,-1.0,12.0,-1379.0,58.0,,0.0,,2023-08-10 18:55:55.598961+00:00,1.0016912400504308,0.013423618907897691,,,,,,,,,,,,,,,,,,,,,,,,,,,,,,,,,,,,,,False,,
2023-08-10 11:55:58.798400-07:00,31.661438,3.2,-2.99,-1.12,-0.17,26.19,860.79,47.47,27.0,-1.0,,,,,,,,,,1.82941,9.54121,18004.5,41.3773,10876.0,-0.0829317,-1.0,17.0,-1420.0,58.0,,0.0,,2023-08-10 18:55:58.798400+00:00,1.0017683544749554,0.013425221091227119,,,,,,,,,,,,,,,,,,,,,,,,,,,,,,,,,,,,,,False,,
2023-08-10 11:55:59.798231-07:00,32.661269,2.42,-1.95,-1.35,0.49,26.41,860.8,46.87,28.0,-1.0,,,,,,,,,,1.82627,9.4656,18015.4,41.3768,10857.0,-0.040488,-1.0,16.0,-1400.0,58.0,,0.0,,2023-08-10 18:55:59.798231+00:00,1.0010442745400432,0.013412951974531195,,,,,,,,,,,,,,,,,,,,,,,,,,,,,,,,,,,,,,False,,
2023-08-10 11:56:00.598859-07:00,33.461897,1.58,-0.09,-1.55,0.31,26.57,860.84,46.32,33.0,-1.0,,,,,,,,,,1.82545,8.41117,18020.9,41.3769,10846.0,0.0210273,-1.0,14.0,-1398.0,58.0,,0.0,,2023-08-10 18:56:00.598859+00:00,1.000556377592233,0.013404169765645178,,,,,,,,,,,,,,,,,,,,,,,,,,,,,,,,,,,,,,False,,
2023-08-10 11:56:01.598761-07:00,34.461799,1.34,-0.83,-1.01,0.28,26.78,860.85,45.8,30.0,-1.0,,,,,,,,,,1.83064,8.04651,18013.5,41.376,10846.0,-0.0441348,-1.0,14.0,-1398.0,58.0,,0.0,,2023-08-10 18:56:01.598761+00:00,0.9998674395513162,0.013392496985171106,,,,,,,,,,,,,,,,,,,,,,,,,,,,,,,,,,,,,,False,,
2023-08-10 11:56:02.599127-07:00,35.462165,2.14,-1.95,-0.82,0.29,26.59,860.86,46.28,27.0,-1.0,,,,,,,,,,1.82068,10.1349,18017.0,41.3764,10858.0,-0.168181,-1.0,12.0,-1402.0,58.0,,0.0,,2023-08-10 18:56:02.599127+00:00,1.0005128604701021,0.013403130750561678,,,,,,,,,,,,,,,,,,,,,,,,,,,,,,,,,,,,,,False,,
2023-08-10 11:56:03.798410-07:00,36.661448,1.92,-0.95,-1.52,0.67,27.16,860.88,44.89,32.0,-1.0,,,,,,,,,,1.82857,8.27608,18019.6,41.3759,10879.0,-0.246537,-1.0,11.0,-1397.0,58.0,,0.0,,2023-08-10 18:56:03.798410+00:00,0.9986370487252262,0.013371473174540512,,,,,,,,,,,,,,,,,,,,,,,,,,,,,,,,,,,,,,False,,
2023-08-10 11:56:04.598781-07:00,37.461819,2.08,-0.74,-1.89,0.43,26.78,860.88,45.9,32.0,-1.0,,,,,,,,,,1.82826,9.49256,18075.4,41.375,10898.0,-0.284288,-1.0,13.0,-1389.0,58.0,,0.0,,2023-08-10 18:56:04.598781+00:00,0.9999022842085578,0.013392612661083462,,,,,,,,,,,,,,,,,,,,,,,,,,,,,,,,,,,,,,False,,
2023-08-10 11:56:04.798392-07:00,37.66143,2.52,-0.97,-2.27,0.48,26.58,860.88,46.35,31.0,-1.0,,,,,,,,,,1.82826,9.49256,18075.4,41.375,10898.0,-0.284288,-1.0,13.0,-1389.0,58.0,,0.0,,2023-08-10 18:56:04.798392+00:00,1.0005694862131675,0.013403766126223177,,,,,,,,,,,,,,,,,,,,,,,,,,,,,,,,,,,,,,False,,
2023-08-10 11:56:08.598228-07:00,41.461266,1.41,-0.27,-1.36,0.29,26.94,860.88,45.46,26.0,-1.0,,,,,,,,,,1.82662,8.20331,18039.7,41.3733,10847.0,-0.341704,-1.0,14.0,-1412.0,58.0,,0.0,,2023-08-10 18:56:08.598228+00:00,0.9993691629266978,0.01338370351677997,,,,,,,,,,,,,,,,,,,,,,,,,,,,,,,,,,,,,,False,,
2023-08-10 11:56:08.798179-07:00,41.661217,1.37,-0.31,-1.26,0.43,27.2,860.88,44.84,26.0,-1.0,,,,,,,,,,1.82662,8.20331,18039.7,41.3733,10847.0,-0.341704,-1.0,14.0,-1412.0,58.0,,0.0,,2023-08-10 18:56:08.798179+00:00,0.9985040522812475,0.013369251926228306,,,,,,,,,,,,,,,,,,,,,,,,,,,,,,,,,,,,,,False,,
2023-08-10 11:56:09.599022-07:00,42.46206,1.45,-0.11,-1.43,0.18,26.88,860.89,45.65,29.0,-1.0,,,,,,,,,,1.82636,8.55839,18043.6,41.3738,10844.0,-0.342493,-1.0,12.0,-1419.0,58.0,,0.0,,2023-08-10 18:56:09.599022+00:00,0.9995806277884042,0.013387081552067777,,,,,,,,,,,,,,,,,,,,,,,,,,,,,,,,,,,,,,False,,
2023-08-10 11:56:10.599152-07:00,43.46219,1.93,0.26,-1.87,0.39,27.15,860.88,44.95,33.0,-1.0,,,,,,,,,,1.82693,8.86743,18074.4,41.3734,10844.0,-0.491427,-1.0,12.0,-1419.0,58.0,,0.0,,2023-08-10 18:56:10.599152+00:00,0.9986703033722035,0.01337202860431666,,,,,,,,,,,,,,,,,,,,,,,,,,,,,,,,,,,,,,False,,
2023-08-10 11:56:10.798460-07:00,43.661498,2.04,1.07,-1.7,0.35,27.31,860.88,44.49,32.0,-1.0,,,,,,,,,,1.82693,8.86743,18074.4,41.3734,10844.0,-0.491427,-1.0,12.0,-1419.0,58.0,,0.0,,2023-08-10 18:56:10.798460+00:00,0.9981384946504449,0.01336314737480396,,,,,,,,,,,,,,,,,,,,,,,,,,,,,,,,,,,,,,False,,
2023-08-10 11:56:11.598724-07:00,44.461762,2.3,2.15,-0.48,0.66,27.47,860.87,44.17,27.0,-1.0,,,,,,,,,,1.82715,7.29044,18087.7,41.3728,10857.0,-0.479378,-1.0,13.0,-1409.0,58.0,,0.0,,2023-08-10 18:56:11.598724+00:00,0.9975956637947925,0.013354239860538263,,,,,,,,,,,,,,,,,,,,,,,,,,,,,,,,,,,,,,False,,
2023-08-10 11:56:11.798481-07:00,44.661519,1.45,1.31,-0.5,0.38,27.3,860.88,44.61,27.0,-1.0,,,,,,,,,,1.82715,7.29044,18087.7,41.3728,10857.0,-0.479378,-1.0,13.0,-1409.0,58.0,,0.0,,2023-08-10 18:56:11.798481+00:00,0.9981717161014235,0.013363702098923859,,,,,,,,,,,,,,,,,,,,,,,,,,,,,,,,,,,,,,False,,
2023-08-10 11:56:13.798701-07:00,46.661739,1.3,-0.99,-0.8,0.27,27.9,860.86,43.08,33.0,-1.0,,,,,,,,,,1.82239,8.37854,18102.9,41.3724,10906.0,-0.392427,-1.0,12.0,-1434.0,58.0,,0.0,,2023-08-10 18:56:13.798701+00:00,0.9961591921518299,0.013330425303495546,,,,,,,,,,,,,,,,,,,,,,,,,,,,,,,,,,,,,,False,,
2023-08-10 11:56:18.598478-07:00,51.461516,3.82,1.21,-3.56,0.65,27.64,860.85,43.77,28.0,-1.0,,,,,,,,,,1.82069,8.32732,18123.0,41.3709,10863.0,-0.262245,-1.0,16.0,-1399.0,58.0,,0.0,,2023-08-10 18:56:18.598478+00:00,0.997008680955571,0.013344753040787683,,,,,,,,,,,,,,,,,,,,,,,,,,,,,,,,,,,,,,False,,
2023-08-10 11:56:19.598925-07:00,52.461963,3.67,1.41,-3.36,0.46,27.46,860.81,44.19,33.0,-1.0,,,,,,,,,,1.82047,8.17784,18129.0,41.3699,10837.0,-0.182052,-1.0,17.0,-1381.0,58.0,,0.0,,2023-08-10 18:56:19.598925+00:00,0.9975593178333971,0.013354563920774182,,,,,,,,,,,,,,,,,,,,,,,,,,,,,,,,,,,,,,False,,
2023-08-10 11:56:20.598829-07:00,53.461867,3.72,2.36,-2.85,0.33,27.02,860.8,45.49,28.0,-1.0,,,,,,,,,,1.8249,8.77229,18143.7,41.3681,10835.0,-0.180396,-1.0,14.0,-1387.0,58.0,,0.0,,2023-08-10 18:56:20.598829+00:00,0.9990099706206994,0.013378945694815566,,,,,,,,,,,,,,,,,,,,,,,,,,,,,,,,,,,,,,False,,
2023-08-10 11:56:22.598712-07:00,55.46175,3.89,3.63,0.87,1.13,27.55,860.85,44.12,33.0,-1.0,,,,,,,,,,1.82503,9.31413,18139.4,41.3622,10868.0,0.0204062,-1.0,15.0,-1388.0,58.0,,0.0,,2023-08-10 18:56:22.598712+00:00,0.9973070872784376,0.013349733218913102,,,,,,,,,,,,,,,,,,,,,,,,,,,,,,,,,,,,,,False,,
2023-08-10 11:56:23.599024-07:00,56.462062,3.0,2.97,0.38,-0.01,27.55,860.87,44.12,30.0,-1.0,,,,,,,,,,1.8244,8.13872,18141.8,41.3621,10888.0,0.0364565,-1.0,14.0,-1390.0,58.0,,0.0,,2023-08-10 18:56:23.599024+00:00,0.9973302575656485,0.013349809793501338,,,,,,,,,,,,,,,,,,,,,,,,,,,,,,,,,,,,,,False,,
2023-08-10 11:56:23.798630-07:00,56.661668,2.58,2.55,0.34,-0.04,27.13,860.86,45.21,28.0,-1.0,,,,,,,,,,1.8244,8.13872,18141.8,41.3621,10888.0,0.0364565,-1.0,14.0,-1390.0,58.0,,0.0,,2023-08-10 18:56:23.798630+00:00,0.99871361661552,0.013373062734684379,,,,,,,,,,,,,,,,,,,,,,,,,,,,,,,,,,,,,,False,,
2023-08-10 11:56:24.798207-07:00,57.661245,4.02,3.53,-1.93,-0.19,26.82,860.8,46.14,27.0,-1.0,,,,,,,,,,1.82155,8.41244,18162.1,41.3617,10906.0,0.00976414,-1.0,14.0,-1402.0,58.0,,0.0,,2023-08-10 18:56:24.798207+00:00,0.9996760438751053,0.013390075891329685,,,,,,,,,,,,,,,,,,,,,,,,,,,,,,,,,,,,,,False,,
2023-08-10 11:56:25.598863-07:00,58.461901,1.84,1.8,-0.03,0.35,26.71,860.86,46.38,33.0,-1.0,,,,,,,,,,1.81789,9.11448,18133.5,41.3616,10908.0,-0.0580794,-1.0,14.0,-1417.0,58.0,,0.0,,2023-08-10 18:56:25.598863+00:00,1.000112468476317,0.0133964370516324,,,,,,,,,,,,,,,,,,,,,,,,,,,,,,,,,,,,,,False,,
2023-08-10 11:56:26.798314-07:00,59.661352,2.87,2.55,-1.31,-0.05,27.14,860.85,45.27,31.0,-1.0,,,,,,,,,,1.81561,9.73897,18088.3,41.3618,10898.0,-0.179356,-1.0,17.0,-1423.0,58.0,,0.0,,2023-08-10 18:56:26.798314+00:00,0.9986687573499824,0.013372468786561382,,,,,,,,,,,,,,,,,,,,,,,,,,,,,,,,,,,,,,False,,
2023-08-10 11:56:27.598924-07:00,60.461962,5.24,4.68,-2.35,-0.2,27.11,860.82,45.3,26.0,-1.0,,,,,,,,,,1.8168,9.69576,18156.1,41.3608,10879.0,-0.329297,-1.0,16.0,-1416.0,58.0,,0.0,,2023-08-10 18:56:27.598924+00:00,0.9987337313880627,0.013374020144748726,,,,,,,,,,,,,,,,,,,,,,,,,,,,,,,,,,,,,,False,,
2023-08-10 11:56:28.798942-07:00,61.66198,2.27,2.05,-0.97,0.05,27.23,860.83,45.1,32.0,-1.0,,,,,,,,,,1.81615,8.17948,18258.5,41.3605,10861.0,-0.266493,-1.0,16.0,-1390.0,58.0,,0.0,,2023-08-10 18:56:28.798942+00:00,0.9983463407659028,0.013367394486575602,,,,,,,,,,,,,,,,,,,,,,,,,,,,,,,,,,,,,,False,,
2023-08-10 11:56:29.598291-07:00,62.461329,3.0,2.86,-0.88,-0.12,27.63,860.89,43.99,32.0,-1.0,,,,,,,,,,1.82442,8.09911,18275.5,41.3603,10846.0,-0.334607,-1.0,15.0,-1374.0,58.0,,0.0,,2023-08-10 18:56:29.598291+00:00,0.9970881566439089,0.013345459245025943,,,,,,,,,,,,,,,,,,,,,,,,,,,,,,,,,,,,,,False,,
2023-08-10 11:56:30.798772-07:00,63.66181,3.68,2.5,-2.7,0.13,27.15,860.8,45.29,28.0,-1.0,,,,,,,,,,1.82012,7.63978,18286.9,41.3601,10845.0,-0.313874,-1.0,16.0,-1381.0,58.0,,0.0,,2023-08-10 18:56:30.798772+00:00,0.998577498771946,0.013371721186890008,,,,,,,,,,,,,,,,,,,,,,,,,,,,,,,,,,,,,,False,,
2023-08-10 11:56:31.798410-07:00,64.661448,4.28,3.35,-2.62,0.46,27.02,860.8,45.74,31.0,-1.0,,,,,,,,,,1.81274,9.64935,18317.3,41.3588,10860.0,-0.394839,-1.0,15.0,-1377.0,58.0,,0.0,,2023-08-10 18:56:31.798410+00:00,0.9990099706206994,0.013378945694815566,,,,,,,,,,,,,,,,,,,,,,,,,,,,,,,,,,,,,,False,,
2023-08-10 11:56:32.798345-07:00,65.661383,5.49,4.82,-2.24,1.37,26.81,860.77,46.29,33.0,-1.0,,,,,,,,,,1.81411,8.77557,18290.7,41.3591,10874.0,-0.373886,-1.0,12.0,-1375.0,58.0,,0.0,,2023-08-10 18:56:32.798345+00:00,0.999674529681187,0.013390517261246338,,,,,,,,,,,,,,,,,,,,,,,,,,,,,,,,,,,,,,False,,
2023-08-10 11:56:33.798740-07:00,66.661778,2.93,2.82,-0.37,0.71,27.24,860.82,45.19,27.0,-1.0,,,,,,,,,,1.82002,8.58065,18200.2,41.3586,10897.0,-0.370142,-1.0,13.0,-1400.0,57.0,,0.0,,2023-08-10 18:56:33.798740+00:00,0.9983015086606735,0.013366801055917782,,,,,,,,,,,,,,,,,,,,,,,,,,,,,,,,,,,,,,False,,
2023-08-10 11:56:35.798450-07:00,68.661488,4.59,4.52,0.61,0.5,27.56,860.82,44.36,31.0,-1.0,,,,,,,,,,1.81939,8.5969,18131.2,41.358,10896.0,-0.497391,-1.0,17.0,-1426.0,57.0,,0.0,,2023-08-10 18:56:35.798450+00:00,0.997239167924511,0.013349064829596755,,,,,,,,,,,,,,,,,,,,,,,,,,,,,,,,,,,,,,False,,
2023-08-10 11:56:36.599112-07:00,69.46215,4.32,3.89,-1.78,0.61,27.53,860.81,44.48,28.0,-1.0,,,,,,,,,,1.82331,10.9551,18121.6,41.3577,10881.0,-0.44151,-1.0,17.0,-1419.0,57.0,,0.0,,2023-08-10 18:56:36.599112+00:00,0.9973270803974243,0.01335068726720016,,,,,,,,,,,,,,,,,,,,,,,,,,,,,,,,,,,,,,False,,
2023-08-10 11:56:36.798729-07:00,69.661767,3.53,3.03,-1.79,0.3,27.54,860.84,44.46,27.0,-1.0,,,,,,,,,,1.82331,10.9551,18121.6,41.3577,10881.0,-0.44151,-1.0,17.0,-1419.0,57.0,,0.0,,2023-08-10 18:56:36.798729+00:00,0.9973286690343677,0.013350248515931204,,,,,,,,,,,,,,,,,,,,,,,,,,,,,,,,,,,,,,False,,
2023-08-10 11:56:37.598393-07:00,70.461431,4.28,4.13,-1.1,-0.23,27.12,860.8,45.58,28.0,-1.0,,,,,,,,,,1.82019,8.98049,18118.3,41.3576,10843.0,-0.442198,-1.0,15.0,-1395.0,57.0,,0.0,,2023-08-10 18:56:37.598393+00:00,0.9986772667306603,0.01337338767423757,,,,,,,,,,,,,,,,,,,,,,,,,,,,,,,,,,,,,,False,,
2023-08-10 11:56:38.798711-07:00,71.661749,4.63,4.53,-0.93,0.12,27.17,860.83,45.39,33.0,-1.0,,,,,,,,,,1.81926,9.94726,18124.3,41.3566,10840.0,-0.409861,-1.0,17.0,-1385.0,57.0,,0.0,,2023-08-10 18:56:38.798711+00:00,0.9985457972804404,0.0133707256886575,,,,,,,,,,,,,,,,,,,,,,,,,,,,,,,,,,,,,,False,,
2023-08-10 11:56:39.798565-07:00,72.661603,3.1,2.04,-2.33,0.18,28.35,860.85,42.42,28.0,-1.0,,,,,,,,,,1.81955,7.12347,18102.6,41.3571,10840.0,-0.344231,-1.0,17.0,-1385.0,57.0,,0.0,,2023-08-10 18:56:39.798565+00:00,0.9946608329838347,0.013305597539631848,,,,,,,,,,,,,,,,,,,,,,,,,,,,,,,,,,,,,,False,,
2023-08-10 11:56:40.599087-07:00,73.462125,4.51,4.5,-0.11,0.24,27.92,860.83,43.57,28.0,-1.0,,,,,,,,,,1.81869,9.45708,18114.1,41.3566,10840.0,-0.358214,-1.0,15.0,-1380.0,57.0,,0.0,,2023-08-10 18:56:40.599087+00:00,0.9960583048435974,0.013329207062461391,,,,,,,,,,,,,,,,,,,,,,,,,,,,,,,,,,,,,,False,,
2023-08-10 11:56:41.599165-07:00,74.462203,3.57,3.55,-0.35,-0.07,27.63,860.83,44.33,33.0,-1.0,,,,,,,,,,1.81643,9.99181,18117.7,41.3555,10851.0,-0.415224,-1.0,13.0,-1384.0,57.0,,0.0,,2023-08-10 18:56:41.599165+00:00,0.9970186642704364,0.013345229689441965,,,,,,,,,,,,,,,,,,,,,,,,,,,,,,,,,,,,,,False,,
2023-08-10 11:56:41.798891-07:00,74.661929,3.31,3.29,0.34,0.16,28.18,860.85,42.88,33.0,-1.0,,,,,,,,,,1.81643,9.99181,18117.7,41.3555,10851.0,-0.415224,-1.0,13.0,-1384.0,57.0,,0.0,,2023-08-10 18:56:41.798891+00:00,0.9952219863426349,0.013314951430774272,,,,,,,,,,,,,,,,,,,,,,,,,,,,,,,,,,,,,,False,,
2023-08-10 11:56:42.598878-07:00,75.461916,4.03,3.96,-0.74,0.15,27.34,860.86,45.12,29.0,-1.0,,,,,,,,,,1.81988,8.53755,18147.0,41.3553,10877.0,-0.349001,-1.0,14.0,-1381.0,57.0,,0.0,,2023-08-10 18:56:42.598878+00:00,0.9980156570844567,0.013361406761725118,,,,,,,,,,,,,,,,,,,,,,,,,,,,,,,,,,,,,,False,,
2023-08-10 11:56:43.598715-07:00,76.461753,3.57,3.55,-0.42,-0.11,27.67,860.84,44.22,28.0,-1.0,,,,,,,,,,1.82065,10.988,18128.6,41.3554,10898.0,-0.305491,-1.0,14.0,-1392.0,57.0,,0.0,,2023-08-10 18:56:43.598715+00:00,0.9968976713381558,0.013343055579282382,,,,,,,,,,,,,,,,,,,,,,,,,,,,,,,,,,,,,,False,,
2023-08-10 11:56:43.798380-07:00,76.661418,2.5,2.49,-0.02,-0.2,27.61,860.85,44.43,28.0,-1.0,,,,,,,,,,1.82065,10.988,18128.6,41.3554,10898.0,-0.305491,-1.0,14.0,-1392.0,57.0,,0.0,,2023-08-10 18:56:43.798380+00:00,0.9971081298863751,0.013346412678743601,,,,,,,,,,,,,,,,,,,,,,,,,,,,,,,,,,,,,,False,,
2023-08-10 11:56:44.799098-07:00,77.662136,3.66,3.63,0.4,0.17,28.22,860.87,42.38,34.0,-1.0,,,,,,,,,,1.81864,9.56097,18125.4,41.3563,10898.0,-0.303886,-1.0,16.0,-1424.0,57.0,,0.0,,2023-08-10 18:56:44.799098+00:00,0.995113012078145,0.01331282541440257,,,,,,,,,,,,,,,,,,,,,,,,,,,,,,,,,,,,,,False,,
2023-08-10 11:56:45.598957-07:00,78.461995,3.45,3.4,0.52,0.24,28.84,860.88,40.84,29.0,-1.0,,,,,,,,,,1.82261,8.44839,18148.7,41.3555,10893.0,-0.30411,-1.0,16.0,-1427.0,57.0,,0.0,,2023-08-10 18:56:45.598957+00:00,0.9930815328410634,0.013278824746903997,,,,,,,,,,,,,,,,,,,,,,,,,,,,,,,,,,,,,,False,,
2023-08-10 11:56:46.798478-07:00,79.661516,2.94,2.87,-0.67,-0.03,27.03,860.88,45.43,28.0,-1.0,,,,,,,,,,1.82218,8.11716,18180.0,41.3551,10874.0,-0.28395,-1.0,14.0,-1416.0,57.0,,0.0,,2023-08-10 18:56:46.798478+00:00,0.999069531956402,0.013378697436428456,,,,,,,,,,,,,,,,,,,,,,,,,,,,,,,,,,,,,,False,,
2023-08-10 11:56:47.798478-07:00,80.661516,3.86,3.83,0.31,0.39,27.92,860.86,43.63,33.0,-1.0,,,,,,,,,,1.81982,8.14528,18168.1,41.3547,10852.0,-0.277047,-1.0,17.0,-1402.0,57.0,,0.0,,2023-08-10 18:56:47.798478+00:00,0.9960930175617243,0.0133293215346001,,,,,,,,,,,,,,,,,,,,,,,,,,,,,,,,,,,,,,False,,
2023-08-10 11:56:49.599051-07:00,82.462089,2.82,2.75,-0.61,-0.13,27.34,860.85,44.54,27.0,-1.0,,,,,,,,,,1.81786,9.21896,18128.6,41.355,10837.0,-0.271729,-1.0,16.0,-1398.0,57.0,,0.0,,2023-08-10 18:56:49.599051+00:00,0.9980040638444748,0.013361368400891166,,,,,,,,,,,,,,,,,,,,,,,,,,,,,,,,,,,,,,False,,
2023-08-10 11:56:49.798604-07:00,82.661642,3.11,3.1,0.16,0.06,27.63,860.86,43.85,28.0,-1.0,,,,,,,,,,1.81786,9.21896,18128.6,41.355,10837.0,-0.271729,-1.0,16.0,-1398.0,57.0,,0.0,,2023-08-10 18:56:49.798604+00:00,0.9970534104571727,0.013345344465727594,,,,,,,,,,,,,,,,,,,,,,,,,,,,,,,,,,,,,,False,,
2023-08-10 11:56:53.598814-07:00,86.461852,2.24,1.49,1.67,-0.01,27.24,860.85,44.95,32.0,-1.0,,,,,,,,,,1.81517,8.41487,18161.0,41.3547,10880.0,-0.226162,-1.0,12.0,-1389.0,57.0,,0.0,,2023-08-10 18:56:53.598814+00:00,0.9983362999588075,0.013366916241898027,,,,,,,,,,,,,,,,,,,,,,,,,,,,,,,,,,,,,,False,,
2023-08-10 11:56:53.798721-07:00,86.661759,1.97,1.48,1.3,0.0,27.19,860.85,45.15,33.0,-1.0,,,,,,,,,,1.81517,8.41487,18161.0,41.3547,10880.0,-0.226162,-1.0,12.0,-1389.0,57.0,,0.0,,2023-08-10 18:56:53.798721+00:00,0.9985025009809756,0.013369691925903078,,,,,,,,,,,,,,,,,,,,,,,,,,,,,,,,,,,,,,False,,
2023-08-10 11:56:54.598664-07:00,87.461702,2.81,2.66,0.79,0.41,27.53,860.87,44.15,30.0,-1.0,,,,,,,,,,1.81916,8.91272,18153.2,41.3546,10901.0,-0.178236,-1.0,16.0,-1401.0,57.0,,0.0,,2023-08-10 18:56:54.598664+00:00,0.9973965958826345,0.013350917029015306,,,,,,,,,,,,,,,,,,,,,,,,,,,,,,,,,,,,,,False,,
2023-08-10 11:56:55.798851-07:00,88.661889,2.83,2.26,1.61,0.55,27.49,860.83,44.35,28.0,-1.0,,,,,,,,,,1.82028,8.82213,18137.3,41.3547,10901.0,-0.162128,-1.0,17.0,-1433.0,57.0,,0.0,,2023-08-10 18:56:55.798851+00:00,0.9974829491726378,0.01335297883048941,,,,,,,,,,,,,,,,,,,,,,,,,,,,,,,,,,,,,,False,,
2023-08-10 11:56:56.598597-07:00,89.461635,2.94,2.92,0.27,-0.04,27.92,860.89,43.35,32.0,-1.0,,,,,,,,,,1.81877,7.65674,18105.1,41.3546,10888.0,-0.153531,-1.0,19.0,-1454.0,57.0,,0.0,,2023-08-10 18:56:56.598597+00:00,0.9961277302798515,0.013329436009744974,,,,,,,,,,,,,,,,,,,,,,,,,,,,,,,,,,,,,,False,,
2023-08-10 11:56:57.599095-07:00,90.462133,5.29,5.23,0.7,0.41,27.36,860.86,44.78,29.0,-1.0,,,,,,,,,,1.8231,9.44508,18124.6,41.3553,10872.0,-0.0931443,-1.0,17.0,-1428.0,57.0,,0.0,,2023-08-10 18:56:57.599095+00:00,0.9979492356238007,0.013360297750414762,,,,,,,,,,,,,,,,,,,,,,,,,,,,,,,,,,,,,,False,,
2023-08-10 11:56:58.598991-07:00,91.462029,6.67,6.44,-1.52,0.8,27.27,860.81,44.97,26.0,-1.0,,,,,,,,,,1.81832,9.86199,18103.0,41.3544,10848.0,-0.0808896,-1.0,17.0,-1399.0,57.0,,0.0,,2023-08-10 18:56:58.598991+00:00,0.9981902221353356,0.013365097857559623,,,,,,,,,,,,,,,,,,,,,,,,,,,,,,,,,,,,,,False,,
2023-08-10 11:56:58.798361-07:00,91.661399,6.9,6.42,-2.53,-0.11,26.49,860.75,47.14,28.0,-1.0,,,,,,,,,,1.81832,9.86199,18103.0,41.3544,10848.0,-0.0808896,-1.0,17.0,-1399.0,57.0,,0.0,,2023-08-10 18:56:58.798361+00:00,1.0007188780463374,0.01340828879576281,,,,,,,,,,,,,,,,,,,,,,,,,,,,,,,,,,,,,,False,,
2023-08-10 11:56:59.798254-07:00,92.661292,6.1,5.58,-2.45,-0.29,26.65,860.8,46.75,33.0,-1.0,,,,,,,,,,1.82059,10.6933,18067.9,41.3546,10832.0,-0.0851719,-1.0,14.0,-1403.0,57.0,,0.0,,2023-08-10 18:56:59.798254+00:00,1.0002429048739674,0.013399551427189101,,,,,,,,,,,,,,,,,,,,,,,,,,,,,,,,,,,,,,False,,
2023-08-10 11:57:00.599087-07:00,93.462125,6.33,6.26,-0.83,0.41,26.76,860.8,46.38,29.0,-1.0,,,,,,,,,,1.82156,8.88301,17987.1,41.355,10832.0,-0.0244158,-1.0,14.0,-1403.0,57.0,,0.0,,2023-08-10 18:57:00.599087+00:00,0.9998760390824425,0.013393418636238408,,,,,,,,,,,,,,,,,,,,,,,,,,,,,,,,,,,,,,False,,
2023-08-10 11:57:00.798516-07:00,93.661554,6.49,6.11,-2.18,0.08,26.31,860.8,47.63,29.0,-1.0,,,,,,,,,,1.82156,8.88301,17987.1,41.355,10832.0,-0.0244158,-1.0,14.0,-1403.0,57.0,,0.0,,2023-08-10 18:57:00.798516+00:00,1.001378557674532,0.01341854361101188,,,,,,,,,,,,,,,,,,,,,,,,,,,,,,,,,,,,,,False,,
2023-08-10 11:57:01.798609-07:00,94.661647,6.88,6.59,-1.89,0.6,26.18,860.77,47.42,27.0,-1.0,,,,,,,,,,1.81995,9.9484,17936.1,41.3542,10843.0,0.00380833,-1.0,14.0,-1395.0,57.0,,0.0,,2023-08-10 18:57:01.798609+00:00,1.0017785451614232,0.013425703546841226,,,,,,,,,,,,,,,,,,,,,,,,,,,,,,,,,,,,,,False,,
2023-08-10 11:57:02.798727-07:00,95.661765,6.5,6.43,-0.64,0.69,26.63,860.77,46.21,33.0,-1.0,,,,,,,,,,1.82617,8.27392,17855.3,41.3546,10853.0,-0.0359348,-1.0,15.0,-1386.0,57.0,,0.0,,2023-08-10 18:57:02.798727+00:00,1.0002747745785872,0.013400551268682982,,,,,,,,,,,,,,,,,,,,,,,,,,,,,,,,,,,,,,False,,
2023-08-10 11:57:03.798688-07:00,96.661726,5.0,4.76,-1.5,0.4,27.31,860.84,44.38,29.0,-1.0,,,,,,,,,,1.8245,8.40437,17817.1,41.3541,10869.0,-0.119018,-1.0,14.0,-1382.0,57.0,,0.0,,2023-08-10 18:57:03.798688+00:00,0.9980921170603209,0.013362993888617714,,,,,,,,,,,,,,,,,,,,,,,,,,,,,,,,,,,,,,False,,
2023-08-10 11:57:04.798694-07:00,97.661732,2.6,2.36,-0.58,0.94,27.34,860.88,44.31,27.0,-1.0,,,,,,,,,,1.82601,9.5325,17829.7,41.3552,10890.0,-0.0776245,-1.0,14.0,-1391.0,57.0,,0.0,,2023-08-10 18:57:04.798694+00:00,0.9980388435644205,0.013361483484399453,,,,,,,,,,,,,,,,,,,,,,,,,,,,,,,,,,,,,,False,,
2023-08-10 11:57:05.599112-07:00,98.46215,3.29,2.99,-0.06,1.35,27.39,860.89,44.23,32.0,-1.0,,,,,,,,,,1.82142,8.79511,17881.6,41.3545,10892.0,-0.0125999,-1.0,17.0,-1398.0,57.0,,0.0,,2023-08-10 18:57:05.599112+00:00,0.9978843939420872,0.01335874961749546,,,,,,,,,,,,,,,,,,,,,,,,,,,,,,,,,,,,,,False,,
2023-08-10 11:57:05.798582-07:00,98.66162,3.06,2.48,-1.67,0.68,27.26,860.9,44.55,32.0,-1.0,,,,,,,,,,1.82142,8.79511,17881.6,41.3545,10892.0,-0.0125999,-1.0,17.0,-1398.0,57.0,,0.0,,2023-08-10 18:57:05.798582+00:00,0.9983278166773312,0.013365998245759935,,,,,,,,,,,,,,,,,,,,,,,,,,,,,,,,,,,,,,False,,
2023-08-10 11:57:09.798703-07:00,102.661741,5.33,5.28,-0.47,0.57,26.45,860.82,46.83,30.0,-1.0,,,,,,,,,,1.82192,8.00494,17883.5,41.3544,10842.0,-0.154535,-1.0,19.0,-1383.0,57.0,,0.0,,2023-08-10 18:57:09.798703+00:00,1.0009338791274356,0.013410793998612813,,,,,,,,,,,,,,,,,,,,,,,,,,,,,,,,,,,,,,False,,
2023-08-10 11:57:10.598892-07:00,103.46193,4.79,4.66,-0.06,1.12,27.73,860.84,43.44,26.0,-1.0,,,,,,,,,,1.82133,7.58592,17820.2,41.3541,10898.0,-0.205641,-1.0,16.0,-1401.0,57.0,,0.0,,2023-08-10 18:57:10.598892+00:00,0.9966988749399893,0.013339738429769543,,,,,,,,,,,,,,,,,,,,,,,,,,,,,,,,,,,,,,False,,
2023-08-10 11:57:12.798726-07:00,105.661764,2.84,1.66,-2.3,0.15,26.14,860.88,47.79,30.0,-1.0,,,,,,,,,,1.82061,9.40698,17734.2,41.3541,10900.0,-0.119722,-1.0,15.0,-1403.0,57.0,,0.0,,2023-08-10 18:57:12.798726+00:00,1.0020404694532818,0.013428370598653226,,,,,,,,,,,,,,,,,,,,,,,,,,,,,,,,,,,,,,False,,
2023-08-10 11:57:13.598762-07:00,106.4618,3.0,2.72,-0.82,0.96,26.88,860.88,45.71,27.0,-1.0,,,,,,,,,,1.82912,7.09327,17593.9,41.355,10877.0,-0.293125,-1.0,15.0,-1411.0,57.0,,0.0,,2023-08-10 18:57:13.598762+00:00,0.9995690167738984,0.01338704302811701,,,,,,,,,,,,,,,,,,,,,,,,,,,,,,,,,,,,,,False,,
2023-08-10 11:57:14.599165-07:00,107.462203,3.38,2.86,-1.66,0.7,27.61,860.86,43.75,31.0,-1.0,,,,,,,,,,1.82397,7.22611,17518.8,41.3556,10865.0,-0.334496,-1.0,13.0,-1392.0,57.0,,0.0,,2023-08-10 18:57:14.599165+00:00,0.9971197127188068,0.013346450944845203,,,,,,,,,,,,,,,,,,,,,,,,,,,,,,,,,,,,,,False,,
2023-08-10 11:57:15.598607-07:00,108.461645,4.25,3.12,-2.88,0.27,26.6,860.84,46.52,31.0,-1.0,,,,,,,,,,1.83222,7.51382,17535.5,41.3547,10833.0,-0.395124,-1.0,15.0,-1402.0,57.0,,0.0,,2023-08-10 18:57:15.598607+00:00,1.0004562385052345,0.01340249543785791,,,,,,,,,,,,,,,,,,,,,,,,,,,,,,,,,,,,,,False,,
2023-08-10 11:57:16.798509-07:00,109.661547,2.56,2.34,-0.44,0.94,27.14,860.9,45.08,27.0,-1.0,,,,,,,,,,1.82657,9.34466,17545.6,41.3549,10842.0,-0.351165,-1.0,17.0,-1397.0,57.0,,0.0,,2023-08-10 18:57:16.798509+00:00,0.9987267621567055,0.013372660945945428,,,,,,,,,,,,,,,,,,,,,,,,,,,,,,,,,,,,,,False,,
2023-08-10 11:57:17.599228-07:00,110.462266,2.71,2.61,0.08,0.73,27.33,860.9,44.61,31.0,-1.0,,,,,,,,,,1.82799,7.75333,17596.6,41.3544,10843.0,-0.390733,-1.0,17.0,-1413.0,57.0,,0.0,,2023-08-10 18:57:17.599228+00:00,0.9980952456337762,0.013362114798593101,,,,,,,,,,,,,,,,,,,,,,,,,,,,,,,,,,,,,,False,,
2023-08-10 11:57:18.598898-07:00,111.461936,3.16,3.04,-0.24,0.83,27.51,860.89,44.1,31.0,-1.0,,,,,,,,,,1.82706,8.22863,17642.7,41.3555,10843.0,-0.423969,-1.0,17.0,-1413.0,57.0,,0.0,,2023-08-10 18:57:18.598898+00:00,0.9974861163951136,0.013352101055973505,,,,,,,,,,,,,,,,,,,,,,,,,,,,,,,,,,,,,,False,,
2023-08-10 11:57:18.798778-07:00,111.661816,3.45,3.36,0.27,0.7,27.01,860.89,45.5,30.0,-1.0,,,,,,,,,,1.82706,8.22863,17642.7,41.3555,10843.0,-0.423969,-1.0,17.0,-1413.0,57.0,,0.0,,2023-08-10 18:57:18.798778+00:00,0.9991477070740769,0.013379848046486956,,,,,,,,,,,,,,,,,,,,,,,,,,,,,,,,,,,,,,False,,
2023-08-10 11:57:19.598258-07:00,112.461296,2.03,1.72,-1.02,0.32,26.94,860.9,45.6,27.0,-1.0,,,,,,,,,,1.83133,9.85355,17642.7,41.3554,10858.0,-0.297787,-1.0,17.0,-1410.0,57.0,,0.0,,2023-08-10 18:57:19.598258+00:00,0.9993923803126964,0.013383780522626338,,,,,,,,,,,,,,,,,,,,,,,,,,,,,,,,,,,,,,False,,
2023-08-10 11:57:20.598673-07:00,113.461711,4.19,4.12,-0.57,0.46,26.87,860.9,45.85,31.0,-1.0,,,,,,,,,,1.82568,9.0693,17616.7,41.3553,10902.0,-0.276628,-1.0,17.0,-1410.0,57.0,,0.0,,2023-08-10 18:57:20.598673+00:00,0.9996255563230352,0.013387676833991132,,,,,,,,,,,,,,,,,,,,,,,,,,,,,,,,,,,,,,False,,
2023-08-10 11:57:21.799174-07:00,114.662212,3.76,3.76,-0.06,0.1,25.86,860.88,48.7,30.0,-1.0,,,,,,,,,,1.82716,10.0401,17559.8,41.3552,10897.0,-0.218688,-1.0,16.0,-1397.0,57.0,,0.0,,2023-08-10 18:57:21.799174+00:00,1.0029788037278775,0.013444076033565408,,,,,,,,,,,,,,,,,,,,,,,,,,,,,,,,,,,,,,False,,
2023-08-10 11:57:22.598872-07:00,115.46191,2.5,2.37,-0.47,0.61,26.36,860.87,46.62,27.0,-1.0,,,,,,,,,,1.83024,7.96482,17428.9,41.3555,10897.0,-0.237575,-1.0,17.0,-1407.0,57.0,,0.0,,2023-08-10 18:57:22.598872+00:00,1.0012928064171163,0.013416018144505222,,,,,,,,,,,,,,,,,,,,,,,,,,,,,,,,,,,,,,False,,
2023-08-10 11:57:23.599021-07:00,116.462059,3.67,3.66,0.22,0.09,26.24,860.86,46.94,31.0,-1.0,,,,,,,,,,1.82885,6.24985,17355.1,41.3559,10894.0,-0.352118,-1.0,14.0,-1410.0,57.0,,0.0,,2023-08-10 18:57:23.599021+00:00,1.00168250374865,0.013422693082519404,,,,,,,,,,,,,,,,,,,,,,,,,,,,,,,,,,,,,,False,,
2023-08-10 12:03:12.184970-07:00,465.048008,1.57,-0.12,1.56,-0.09,27.21,860.7,44.04,26.0,-1.0,,,,,,,,,,1.83699,8.54475,17456.8,41.5475,10789.0,0.170648,-1.0,14.0,-1414.0,56.0,,0.0,,2023-08-10 19:03:12.184970+00:00,0.9982620400665657,0.013368005453106324,,,,,,,,,,,,,,,,,,,,,,,,,,,,,,,,,,,,,,False,,
2023-08-10 12:03:13.185084-07:00,466.048122,1.74,-0.31,1.71,-0.06,26.81,860.71,45.2,29.0,-1.0,,,,,,,,,,1.83936,7.01763,17454.3,41.5482,10810.0,0.168752,-1.0,13.0,-1410.0,56.0,,0.0,,2023-08-10 19:03:13.185084+00:00,0.9996048473365643,0.013390285998358923,,,,,,,,,,,,,,,,,,,,,,,,,,,,,,,,,,,,,,False,,
2023-08-10 12:03:14.384502-07:00,467.24754,2.13,0.12,2.12,-0.16,26.95,860.69,44.81,28.0,-1.0,,,,,,,,,,1.84307,9.18615,17453.1,41.5483,10837.0,0.249622,-1.0,12.0,-1411.0,56.0,,0.0,,2023-08-10 19:03:14.384502+00:00,0.9991153039044036,0.013382415675524319,,,,,,,,,,,,,,,,,,,,,,,,,,,,,,,,,,,,,,False,,
2023-08-10 12:03:15.384509-07:00,468.247547,2.45,0.07,2.44,-0.23,26.66,860.71,45.63,26.0,-1.0,,,,,,,,,,1.84386,7.24433,17444.4,41.5478,10850.0,0.200924,-1.0,16.0,-1429.0,56.0,,0.0,,2023-08-10 19:03:15.384509+00:00,1.000104966502371,0.013398646287186369,,,,,,,,,,,,,,,,,,,,,,,,,,,,,,,,,,,,,,False,,
2023-08-10 12:03:16.384767-07:00,469.247805,2.41,-1.17,2.05,0.46,26.74,860.68,45.48,30.0,-1.0,,,,,,,,,,1.83841,9.2083,17436.5,41.5481,10850.0,0.211978,-1.0,16.0,-1429.0,56.0,,0.0,,2023-08-10 19:03:16.384767+00:00,0.9998033247158268,0.013394070440063566,,,,,,,,,,,,,,,,,,,,,,,,,,,,,,,,,,,,,,False,,
2023-08-10 12:03:17.384810-07:00,470.247848,1.87,-0.71,1.72,0.25,26.96,860.69,44.95,29.0,-1.0,,,,,,,,,,1.83967,7.56514,17441.8,41.5481,10850.0,0.167643,-1.0,16.0,-1444.0,56.0,,0.0,,2023-08-10 19:03:17.384810+00:00,0.9990820122678734,0.01338185936987942,,,,,,,,,,,,,,,,,,,,,,,,,,,,,,,,,,,,,,False,,
2023-08-10 12:03:18.385261-07:00,471.248299,1.97,-0.18,1.96,-0.09,26.81,860.71,45.37,27.0,-1.0,,,,,,,,,,1.83402,9.2399,17439.5,41.5478,10851.0,0.0366075,-1.0,18.0,-1436.0,55.0,,0.0,,2023-08-10 19:03:18.385261+00:00,0.9996048473365643,0.013390285998358923,,,,,,,,,,,,,,,,,,,,,,,,,,,,,,,,,,,,,,False,,
2023-08-10 12:03:19.385050-07:00,472.248088,1.7,0.05,1.7,-0.07,27.05,860.71,44.86,31.0,-1.0,,,,,,,,,,1.83542,8.99704,17443.4,41.5479,10825.0,0.00476098,-1.0,17.0,-1402.0,55.0,,0.0,,2023-08-10 19:03:19.385050+00:00,0.9988056962261019,0.013376931657598781,,,,,,,,,,,,,,,,,,,,,,,,,,,,,,,,,,,,,,False,,
2023-08-10 12:03:20.184830-07:00,473.047868,0.9,-0.31,0.83,0.11,27.11,860.73,44.74,30.0,-1.0,,,,,,,,,,1.83509,7.82157,17439.8,41.5491,10798.0,-0.0134919,-1.0,18.0,-1390.0,55.0,,0.0,,2023-08-10 19:03:20.184830+00:00,0.9986293123041369,0.013373674192969868,,,,,,,,,,,,,,,,,,,,,,,,,,,,,,,,,,,,,,False,,
2023-08-10 12:03:21.185023-07:00,474.048061,1.42,-0.37,1.37,0.06,26.97,860.71,45.11,26.0,-1.0,,,,,,,,,,1.83779,8.87981,17438.7,41.5486,10784.0,-0.00279735,-1.0,18.0,-1391.0,55.0,,0.0,,2023-08-10 19:03:21.185023+00:00,0.9990719379150867,0.013381380083307793,,,,,,,,,,,,,,,,,,,,,,,,,,,,,,,,,,,,,,False,,
2023-08-10 12:03:23.385084-07:00,476.248122,0.86,-0.23,0.82,0.1,27.25,860.7,44.51,28.0,-1.0,,,,,,,,,,1.83801,8.67007,17460.1,41.5485,10798.0,-0.0812386,-1.0,14.0,-1392.0,55.0,,0.0,,2023-08-10 19:03:23.385084+00:00,0.9981291156937205,0.013365785399318526,,,,,,,,,,,,,,,,,,,,,,,,,,,,,,,,,,,,,,False,,
2023-08-10 12:03:24.185295-07:00,477.048333,0.52,0.37,0.26,0.26,27.45,860.72,44.04,26.0,-1.0,,,,,,,,,,1.832,6.6977,17449.7,41.5487,10816.0,0.0205176,-1.0,15.0,-1398.0,55.0,,0.0,,2023-08-10 19:03:24.185295+00:00,0.9974882024609381,0.013354773043333937,,,,,,,,,,,,,,,,,,,,,,,,,,,,,,,,,,,,,,False,,
2023-08-10 12:03:26.384508-07:00,479.247546,1.52,-0.34,1.49,0.01,27.05,860.71,45.24,28.0,-1.0,,,,,,,,,,1.83513,7.59902,17470.8,41.5497,10842.0,0.0378284,-1.0,14.0,-1411.0,55.0,,0.0,,2023-08-10 19:03:26.384508+00:00,0.9988056962261019,0.013376931657598781,,,,,,,,,,,,,,,,,,,,,,,,,,,,,,,,,,,,,,False,,
2023-08-10 12:03:28.384737-07:00,481.247775,2.35,0.03,2.34,-0.26,26.78,860.7,46.03,31.0,-1.0,,,,,,,,,,1.85059,8.68553,17478.5,41.5491,10851.0,0.134204,-1.0,15.0,-1435.0,55.0,,0.0,,2023-08-10 19:03:28.384737+00:00,0.9996932162651073,0.0133919186510918,,,,,,,,,,,,,,,,,,,,,,,,,,,,,,,,,,,,,,False,,
2023-08-10 12:03:29.384481-07:00,482.247519,1.93,-0.15,1.92,-0.07,26.83,860.72,45.98,29.0,-1.0,,,,,,,,,,1.84221,8.26924,17464.7,41.5503,10844.0,0.113969,-1.0,15.0,-1441.0,55.0,,0.0,,2023-08-10 19:03:29.384481+00:00,0.999549815520228,0.013389210633377873,,,,,,,,,,,,,,,,,,,,,,,,,,,,,,,,,,,,,,False,,
2023-08-10 12:03:30.185179-07:00,483.048217,1.46,-0.34,1.42,-0.02,26.82,860.73,46.12,26.0,-1.0,,,,,,,,,,1.83664,6.93795,17453.6,41.5496,10833.0,0.10538,-1.0,19.0,-1436.0,55.0,,0.0,,2023-08-10 19:03:30.185179+00:00,0.9995947505165188,0.013389806103487546,,,,,,,,,,,,,,,,,,,,,,,,,,,,,,,,,,,,,,False,,
2023-08-10 12:03:31.185244-07:00,484.048282,1.37,-0.72,1.16,-0.01,26.86,860.72,46.12,28.0,-1.0,,,,,,,,,,1.83205,6.97683,17435.4,41.5496,10819.0,0.186047,-1.0,19.0,-1422.0,55.0,,0.0,,2023-08-10 19:03:31.185244+00:00,0.9994498638703977,0.013387540125989392,,,,,,,,,,,,,,,,,,,,,,,,,,,,,,,,,,,,,,False,,
2023-08-10 12:03:32.184736-07:00,485.047774,1.51,-0.4,1.45,-0.15,26.7,860.73,46.56,30.0,-1.0,,,,,,,,,,1.83251,6.8514,17434.1,41.5499,10800.0,0.221694,-1.0,17.0,-1403.0,55.0,,0.0,,2023-08-10 19:03:32.184736+00:00,0.9999947884356851,0.013396492999547135,,,,,,,,,,,,,,,,,,,,,,,,,,,,,,,,,,,,,,False,,
2023-08-10 12:03:34.384847-07:00,487.247885,0.83,-0.68,0.47,0.01,27.21,860.73,45.27,30.0,-1.0,,,,,,,,,,1.83627,7.84723,17403.5,41.5501,10794.0,0.199554,-1.0,15.0,-1400.0,55.0,,0.0,,2023-08-10 19:03:34.384847+00:00,0.9982968348396598,0.013368120658668863,,,,,,,,,,,,,,,,,,,,,,,,,,,,,,,,,,,,,,False,,
2023-08-10 12:03:35.185288-07:00,488.048326,1.21,-0.97,0.71,0.13,27.39,860.74,44.85,31.0,-1.0,,,,,,,,,,1.84513,7.15611,17407.1,41.5509,10794.0,0.174446,-1.0,15.0,-1400.0,55.0,,0.0,,2023-08-10 19:03:35.185288+00:00,0.9977105242733824,0.013358174488601974,,,,,,,,,,,,,,,,,,,,,,,,,,,,,,,,,,,,,,False,,
2023-08-10 12:03:36.184882-07:00,489.04792,0.79,-0.78,0.14,-0.06,27.44,860.75,44.81,26.0,-1.0,,,,,,,,,,1.84308,7.88658,17414.6,41.5515,10813.0,0.161072,-1.0,14.0,-1398.0,55.0,,0.0,,2023-08-10 19:03:36.184882+00:00,0.9975561549546044,0.013355442018951785,,,,,,,,,,,,,,,,,,,,,,,,,,,,,,,,,,,,,,False,,
2023-08-10 12:03:36.384421-07:00,489.247459,0.67,-0.63,0.16,0.18,27.52,860.73,44.6,27.0,-1.0,,,,,,,,,,1.84308,7.88658,17414.6,41.5515,10813.0,0.161072,-1.0,14.0,-1398.0,55.0,,0.0,,2023-08-10 19:03:36.384421+00:00,0.9972675601571164,0.013350934575838734,,,,,,,,,,,,,,,,,,,,,,,,,,,,,,,,,,,,,,False,,
2023-08-10 12:03:37.384597-07:00,490.247635,0.89,-0.41,0.78,0.12,27.14,860.74,45.66,31.0,-1.0,,,,,,,,,,1.84033,8.20496,17433.3,41.5516,10833.0,0.164912,-1.0,14.0,-1397.0,55.0,,0.0,,2023-08-10 19:03:37.384597+00:00,0.9985411467751918,0.01337204606548364,,,,,,,,,,,,,,,,,,,,,,,,,,,,,,,,,,,,,,False,,
2023-08-10 12:03:38.184877-07:00,491.047915,0.69,-0.25,0.63,0.15,27.19,860.75,45.53,31.0,-1.0,,,,,,,,,,1.84594,7.85105,17458.6,41.551,10846.0,0.142354,-1.0,15.0,-1412.0,55.0,,0.0,,2023-08-10 19:03:38.184877+00:00,0.998386510680577,0.013369307808413432,,,,,,,,,,,,,,,,,,,,,,,,,,,,,,,,,,,,,,False,,
2023-08-10 12:03:39.384408-07:00,492.247446,0.78,-0.19,0.76,-0.02,26.99,860.74,45.53,26.0,-1.0,,,,,,,,,,1.83952,8.59391,17450.5,41.5518,10847.0,0.125642,-1.0,17.0,-1433.0,55.0,,0.0,,2023-08-10 19:03:39.384408+00:00,0.9990401844643244,0.013380383133020101,,,,,,,,,,,,,,,,,,,,,,,,,,,,,,,,,,,,,,False,,
2023-08-10 12:03:41.185232-07:00,494.04827,0.83,-0.69,0.39,0.27,27.32,860.74,44.81,29.0,-1.0,,,,,,,,,,1.8404,7.32782,17393.0,41.5523,10832.0,0.184199,-1.0,17.0,-1432.0,55.0,,0.0,,2023-08-10 19:03:41.185232+00:00,0.9979429592475866,0.013362055568731719,,,,,,,,,,,,,,,,,,,,,,,,,,,,,,,,,,,,,,False,,
2023-08-10 12:03:42.185122-07:00,495.04816,0.99,-0.78,0.6,0.03,26.88,860.74,46.03,26.0,-1.0,,,,,,,,,,1.84042,8.11139,17379.7,41.552,10800.0,0.197116,-1.0,16.0,-1397.0,55.0,,0.0,,2023-08-10 19:03:42.185122+00:00,0.9994064625708173,0.013386503728154078,,,,,,,,,,,,,,,,,,,,,,,,,,,,,,,,,,,,,,False,,
2023-08-10 12:03:45.185065-07:00,498.048103,0.44,0.02,-0.44,-0.02,27.12,860.75,45.54,27.0,-1.0,,,,,,,,,,1.83666,7.19204,17341.3,41.5524,10781.0,0.168138,-1.0,16.0,-1390.0,55.0,,0.0,,2023-08-10 19:03:45.185065+00:00,0.9986192580604272,0.013373195496423055,,,,,,,,,,,,,,,,,,,,,,,,,,,,,,,,,,,,,,False,,
2023-08-10 12:03:46.185214-07:00,499.048252,0.41,0.04,-0.34,0.23,27.39,860.74,44.89,30.0,-1.0,,,,,,,,,,1.83229,7.23519,17358.6,41.5524,10778.0,0.242083,-1.0,17.0,-1394.0,55.0,,0.0,,2023-08-10 19:03:46.185214+00:00,0.9977105242733824,0.013358174488601974,,,,,,,,,,,,,,,,,,,,,,,,,,,,,,,,,,,,,,False,,
2023-08-10 12:03:47.385032-07:00,500.24807,0.34,-0.27,0.08,0.19,27.76,860.75,43.94,28.0,-1.0,,,,,,,,,,1.83763,7.73163,17389.7,41.5526,10782.0,0.249792,-1.0,17.0,-1408.0,55.0,,0.0,,2023-08-10 19:03:47.385032+00:00,0.9964953129434201,0.013337736581796383,,,,,,,,,,,,,,,,,,,,,,,,,,,,,,,,,,,,,,False,,
2023-08-10 12:03:48.184929-07:00,501.047967,1.03,-1.01,0.23,-0.03,27.17,860.75,45.67,27.0,-1.0,,,,,,,,,,1.83513,9.0043,17409.4,41.5536,10794.0,0.213337,-1.0,14.0,-1387.0,55.0,,0.0,,2023-08-10 19:03:48.184929+00:00,0.9984529988605636,0.013370418341017973,,,,,,,,,,,,,,,,,,,,,,,,,,,,,,,,,,,,,,False,,
2023-08-10 12:03:48.384474-07:00,501.247512,1.03,-1.0,0.26,0.08,27.21,860.74,45.49,27.0,-1.0,,,,,,,,,,1.83513,9.0043,17409.4,41.5536,10794.0,0.213337,-1.0,14.0,-1387.0,55.0,,0.0,,2023-08-10 19:03:48.384474+00:00,0.9983084330973577,0.013368159061194734,,,,,,,,,,,,,,,,,,,,,,,,,,,,,,,,,,,,,,False,,
2023-08-10 12:03:50.384743-07:00,503.247781,0.27,-0.0,0.27,0.02,27.59,860.76,45.19,29.0,-1.0,,,,,,,,,,1.83568,7.91614,17454.9,41.554,10828.0,0.336636,-1.0,17.0,-1399.0,55.0,,0.0,,2023-08-10 19:03:50.384743+00:00,0.9970701877717854,0.013347174895224393,,,,,,,,,,,,,,,,,,,,,,,,,,,,,,,,,,,,,,False,,
2023-08-10 12:03:51.184918-07:00,504.047956,0.22,0.17,-0.11,0.11,27.46,860.77,45.6,27.0,-1.0,,,,,,,,,,1.83613,7.45253,17536.9,41.5543,10848.0,0.344097,-1.0,17.0,-1440.0,55.0,,0.0,,2023-08-10 19:03:51.184918+00:00,0.9975129633850134,0.013354410654718285,,,,,,,,,,,,,,,,,,,,,,,,,,,,,,,,,,,,,,False,,
2023-08-10 12:03:52.185011-07:00,505.048049,0.34,0.1,-0.25,0.21,27.16,860.77,46.43,30.0,-1.0,,,,,,,,,,1.83308,7.67779,17532.3,41.5557,10834.0,0.362048,-1.0,18.0,-1431.0,55.0,,0.0,,2023-08-10 19:03:52.185011+00:00,0.9985094466490253,0.013371050519865146,,,,,,,,,,,,,,,,,,,,,,,,,,,,,,,,,,,,,,False,,
2023-08-10 12:03:55.185294-07:00,508.048332,0.25,-0.06,0.17,0.17,27.72,860.79,45.24,31.0,-1.0,,,,,,,,,,1.83651,9.02516,17489.5,41.5562,10809.0,0.321763,-1.0,20.0,-1436.0,55.0,,0.0,,2023-08-10 19:03:55.185294+00:00,0.9966741091784929,0.013340100039833581,,,,,,,,,,,,,,,,,,,,,,,,,,,,,,,,,,,,,,False,,
2023-08-10 12:03:57.184645-07:00,510.047683,0.51,0.25,-0.32,0.31,27.33,860.77,46.58,26.0,-1.0,,,,,,,,,,1.83306,8.40084,17489.7,41.5572,10776.0,0.227014,-1.0,18.0,-1393.0,55.0,,0.0,,2023-08-10 19:03:57.184645+00:00,0.997944528498299,0.013361616070786363,,,,,,,,,,,,,,,,,,,,,,,,,,,,,,,,,,,,,,False,,
2023-08-10 12:03:58.184877-07:00,511.047915,0.74,0.68,0.08,0.28,27.55,860.81,46.02,32.0,-1.0,,,,,,,,,,1.83448,7.71188,17476.9,41.558,10791.0,0.224751,-1.0,17.0,-1413.0,55.0,,0.0,,2023-08-10 19:03:58.184877+00:00,0.9972607467040157,0.013349580073756064,,,,,,,,,,,,,,,,,,,,,,,,,,,,,,,,,,,,,,False,,
2023-08-10 12:03:59.185241-07:00,512.048279,0.7,0.37,0.5,0.33,27.58,860.8,46.05,29.0,-1.0,,,,,,,,,,1.83231,7.61645,17489.0,41.5589,10807.0,0.113942,-1.0,17.0,-1417.0,55.0,,0.0,,2023-08-10 19:03:59.185241+00:00,0.9971496787191679,0.013347881360027902,,,,,,,,,,,,,,,,,,,,,,,,,,,,,,,,,,,,,,False,,
2023-08-10 12:03:59.385049-07:00,512.248087,0.45,0.31,-0.0,0.33,27.34,860.79,46.67,28.0,-1.0,,,,,,,,,,1.83231,7.61645,17489.0,41.5589,10807.0,0.113942,-1.0,17.0,-1417.0,55.0,,0.0,,2023-08-10 19:03:59.385049+00:00,0.9979345044045831,0.013361138242932624,,,,,,,,,,,,,,,,,,,,,,,,,,,,,,,,,,,,,,False,,
2023-08-10 12:04:02.185125-07:00,515.048163,1.88,1.84,0.18,0.39,28.23,860.8,44.77,29.0,-1.0,,,,,,,,,,1.83112,7.18234,17584.6,41.5603,10843.0,0.0799877,-1.0,15.0,-1444.0,55.0,,0.0,,2023-08-10 19:04:02.185125+00:00,0.9949990805004159,0.013312008649402952,,,,,,,,,,,,,,,,,,,,,,,,,,,,,,,,,,,,,,False,,
2023-08-10 12:04:03.184952-07:00,516.04799,1.57,1.56,-0.19,0.07,27.39,860.8,47.01,28.0,-1.0,,,,,,,,,,1.83,8.71293,17639.9,41.562,10844.0,-0.0557493,-1.0,17.0,-1440.0,55.0,,0.0,,2023-08-10 19:04:03.184952+00:00,0.9977800721408643,0.013358404531104503,,,,,,,,,,,,,,,,,,,,,,,,,,,,,,,,,,,,,,False,,
2023-08-10 12:04:03.384614-07:00,516.247652,1.66,1.66,0.05,-0.03,27.95,860.79,45.6,28.0,-1.0,,,,,,,,,,1.83,8.71293,17639.9,41.562,10844.0,-0.0557493,-1.0,17.0,-1440.0,55.0,,0.0,,2023-08-10 19:04:03.384614+00:00,0.995912783887523,0.013327399207313316,,,,,,,,,,,,,,,,,,,,,,,,,,,,,,,,,,,,,,False,,
2023-08-10 12:04:04.184870-07:00,517.047908,1.83,1.75,0.52,0.14,28.3,860.81,44.73,32.0,-1.0,,,,,,,,,,1.83164,9.76037,17637.6,41.5615,10835.0,-0.196212,-1.0,17.0,-1436.0,55.0,,0.0,,2023-08-10 19:04:04.184870+00:00,0.9947795871086333,0.013308195192947835,,,,,,,,,,,,,,,,,,,,,,,,,,,,,,,,,,,,,,False,,
2023-08-10 12:04:05.384556-07:00,518.247594,1.73,1.54,0.79,0.03,27.78,860.81,46.3,27.0,-1.0,,,,,,,,,,1.83253,7.81361,17656.5,41.5621,10835.0,-0.188032,-1.0,17.0,-1436.0,55.0,,0.0,,2023-08-10 19:04:05.384556+00:00,0.9964985429631394,0.013336860807292475,,,,,,,,,,,,,,,,,,,,,,,,,,,,,,,,,,,,,,False,,
2023-08-10 12:04:06.384766-07:00,519.247804,0.96,0.76,0.48,0.33,27.62,860.81,45.54,28.0,-1.0,,,,,,,,,,1.83216,8.5273,17625.3,41.5635,10797.0,-0.140298,-1.0,18.0,-1395.0,55.0,,0.0,,2023-08-10 19:04:06.384766+00:00,0.9970286482491523,0.013345706372233142,,,,,,,,,,,,,,,,,,,,,,,,,,,,,,,,,,,,,,False,,
2023-08-10 12:04:07.384455-07:00,520.247493,0.94,0.6,0.66,-0.3,27.71,860.82,46.09,32.0,-1.0,,,,,,,,,,1.83056,8.94305,17621.0,41.5631,10782.0,-0.193381,-1.0,17.0,-1388.0,55.0,,0.0,,2023-08-10 19:04:07.384455+00:00,0.9967419736308573,0.01334076749870641,,,,,,,,,,,,,,,,,,,,,,,,,,,,,,,,,,,,,,False,,
2023-08-10 12:04:08.385013-07:00,521.248051,2.09,1.92,0.8,0.2,27.18,860.81,47.64,27.0,-1.0,,,,,,,,,,1.82871,7.3635,17623.9,41.5638,10781.0,-0.14745,-1.0,14.0,-1393.0,55.0,,0.0,,2023-08-10 19:04:08.385013+00:00,0.9984893501611478,0.01337009353876924,,,,,,,,,,,,,,,,,,,,,,,,,,,,,,,,,,,,,,False,,
2023-08-10 12:04:09.185056-07:00,522.048094,1.75,1.67,0.52,0.04,27.08,860.81,48.02,28.0,-1.0,,,,,,,,,,1.827,9.22406,17641.6,41.5644,10788.0,-0.2506,-1.0,17.0,-1396.0,55.0,,0.0,,2023-08-10 19:04:09.185056+00:00,0.9988219249705145,0.013375648767540053,,,,,,,,,,,,,,,,,,,,,,,,,,,,,,,,,,,,,,False,,
2023-08-10 12:04:10.185289-07:00,523.048327,1.77,1.55,0.79,0.32,27.25,860.81,47.63,32.0,-1.0,,,,,,,,,,1.82876,8.46022,17645.2,41.5658,10810.0,-0.31868,-1.0,14.0,-1391.0,55.0,,0.0,,2023-08-10 19:04:10.185289+00:00,0.9982566795402714,0.013366207679667902,,,,,,,,,,,,,,,,,,,,,,,,,,,,,,,,,,,,,,False,,
2023-08-10 12:04:10.385071-07:00,523.248109,1.42,1.3,0.51,0.26,27.34,860.83,47.39,31.0,-1.0,,,,,,,,,,1.82876,8.46022,17645.2,41.5658,10810.0,-0.31868,-1.0,14.0,-1391.0,55.0,,0.0,,2023-08-10 19:04:10.385071+00:00,0.997980877364511,0.013361291680229702,,,,,,,,,,,,,,,,,,,,,,,,,,,,,,,,,,,,,,False,,
2023-08-10 12:04:11.185147-07:00,524.048185,1.15,0.94,0.58,0.31,27.46,860.82,47.2,28.0,-1.0,,,,,,,,,,1.82828,7.17221,17651.4,41.5662,10831.0,-0.192708,-1.0,14.0,-1396.0,55.0,,0.0,,2023-08-10 19:04:11.185147+00:00,0.9975709064454932,0.013354602238126139,,,,,,,,,,,,,,,,,,,,,,,,,,,,,,,,,,,,,,False,,
2023-08-10 12:04:12.184965-07:00,525.048003,1.8,1.67,0.66,0.0,27.55,860.81,46.42,28.0,-1.0,,,,,,,,,,1.83275,8.8125,17670.6,41.5671,10838.0,-0.146987,-1.0,17.0,-1414.0,55.0,,0.0,,2023-08-10 19:04:12.184965+00:00,0.9972607467040157,0.013349580073756064,,,,,,,,,,,,,,,,,,,,,,,,,,,,,,,,,,,,,,False,,
2023-08-10 12:04:13.384937-07:00,526.247975,1.47,1.24,0.8,0.02,27.63,860.83,47.06,31.0,-1.0,,,,,,,,,,1.82878,8.90971,17699.6,41.5673,10839.0,-0.205537,-1.0,17.0,-1438.0,55.0,,0.0,,2023-08-10 19:04:13.384937+00:00,0.9970186642704364,0.013345229689441965,,,,,,,,,,,,,,,,,,,,,,,,,,,,,,,,,,,,,,False,,
2023-08-10 12:04:14.185123-07:00,527.048161,1.12,0.51,0.99,-0.15,27.89,860.82,45.79,27.0,-1.0,,,,,,,,,,1.82175,8.00824,17735.0,41.5681,10843.0,-0.135195,-1.0,15.0,-1446.0,55.0,,0.0,,2023-08-10 19:04:14.185123+00:00,0.9961459945076392,0.013330824587177846,,,,,,,,,,,,,,,,,,,,,,,,,,,,,,,,,,,,,,False,,
2023-08-10 12:04:15.185377-07:00,528.048415,0.31,-0.14,0.24,-0.15,28.13,860.83,46.02,28.0,-1.0,,,,,,,,,,1.82857,8.07122,17772.6,41.5694,10826.0,-0.084954,-1.0,18.0,-1434.0,55.0,,0.0,,2023-08-10 19:04:15.185377+00:00,0.9953640262853886,0.013317628962591567,,,,,,,,,,,,,,,,,,,,,,,,,,,,,,,,,,,,,,False,,
2023-08-10 12:04:15.385004-07:00,528.248042,0.22,-0.02,0.22,-0.01,28.28,860.82,44.92,29.0,-1.0,,,,,,,,,,1.82857,8.07122,17772.6,41.5694,10826.0,-0.084954,-1.0,18.0,-1434.0,55.0,,0.0,,2023-08-10 19:04:15.385004+00:00,0.9948571482154388,0.01330933342167155,,,,,,,,,,,,,,,,,,,,,,,,,,,,,,,,,,,,,,False,,
2023-08-10 12:04:16.184976-07:00,529.048014,0.42,0.03,0.42,0.04,28.78,860.83,44.37,31.0,-1.0,,,,,,,,,,1.82912,7.24518,17794.4,41.57,10812.0,-0.0472969,-1.0,17.0,-1416.0,55.0,,0.0,,2023-08-10 19:04:16.184976+00:00,0.9932211898097635,0.01328192175358203,,,,,,,,,,,,,,,,,,,,,,,,,,,,,,,,,,,,,,False,,
2023-08-10 12:04:17.384601-07:00,530.247639,0.34,0.08,0.33,-0.0,28.53,860.83,45.27,27.0,-1.0,,,,,,,,,,1.82757,8.48079,17813.2,41.571,10800.0,-0.0360818,-1.0,20.0,-1400.0,55.0,,0.0,,2023-08-10 19:04:17.384601+00:00,0.994044264914021,0.013295632140448096,,,,,,,,,,,,,,,,,,,,,,,,,,,,,,,,,,,,,,False,,
2023-08-10 12:04:19.185241-07:00,532.048279,1.53,0.59,1.41,0.03,27.57,860.81,48.11,30.0,-1.0,,,,,,,,,,1.82952,9.03619,17841.1,41.5724,10791.0,-0.100075,-1.0,17.0,-1394.0,55.0,,0.0,,2023-08-10 19:04:19.185241+00:00,0.9971944218339236,0.013348473067720239,,,,,,,,,,,,,,,,,,,,,,,,,,,,,,,,,,,,,,False,,
2023-08-10 12:04:19.384597-07:00,532.247635,1.35,0.89,0.99,0.22,27.6,860.83,48.04,29.0,-1.0,,,,,,,,,,1.82952,9.03619,17841.1,41.5724,10791.0,-0.100075,-1.0,17.0,-1394.0,55.0,,0.0,,2023-08-10 19:04:19.384597+00:00,0.9971181175037801,0.013346889446819733,,,,,,,,,,,,,,,,,,,,,,,,,,,,,,,,,,,,,,False,,
2023-08-10 12:04:20.185326-07:00,533.048364,0.82,0.26,0.68,0.39,27.79,860.82,47.65,27.0,-1.0,,,,,,,,,,1.82806,8.36474,17775.7,41.5729,10781.0,-0.0455229,-1.0,17.0,-1384.0,55.0,,0.0,,2023-08-10 19:04:20.185326+00:00,0.9964770060031225,0.013336346558607774,,,,,,,,,,,,,,,,,,,,,,,,,,,,,,,,,,,,,,False,,
2023-08-10 12:04:20.385056-07:00,533.248094,1.41,0.89,1.1,0.07,27.3,860.82,49.0,27.0,-1.0,,,,,,,,,,1.82806,8.36474,17775.7,41.5729,10781.0,-0.0455229,-1.0,17.0,-1384.0,55.0,,0.0,,2023-08-10 19:04:20.385056+00:00,0.998102147400831,0.013363471850563158,,,,,,,,,,,,,,,,,,,,,,,,,,,,,,,,,,,,,,False,,
2023-08-10 12:04:21.185102-07:00,534.04814,2.27,1.55,1.65,-0.06,27.15,860.81,48.88,30.0,-1.0,,,,,,,,,,1.83125,9.19762,17708.3,41.5735,10777.0,-0.0264331,-1.0,13.0,-1411.0,55.0,,0.0,,2023-08-10 19:04:21.185102+00:00,0.9985890993469783,0.013371759612892461,,,,,,,,,,,,,,,,,,,,,,,,,,,,,,,,,,,,,,False,,
2023-08-10 12:04:21.384752-07:00,534.24779,2.64,1.84,1.89,-0.03,26.98,860.8,49.43,31.0,-1.0,,,,,,,,,,1.83125,9.19762,17708.3,41.5735,10777.0,-0.0264331,-1.0,13.0,-1411.0,55.0,,0.0,,2023-08-10 19:04:21.384752+00:00,0.9991431142545407,0.013381170223327037,,,,,,,,,,,,,,,,,,,,,,,,,,,,,,,,,,,,,,False,,
2023-08-10 12:04:22.185377-07:00,535.048415,2.51,1.3,2.09,-0.49,26.65,860.8,50.55,31.0,-1.0,,,,,,,,,,1.83346,8.54628,17625.3,41.5743,10785.0,0.0416159,-1.0,14.0,-1411.0,55.0,,0.0,,2023-08-10 19:04:22.185377+00:00,1.0002429048739674,0.013399551427189101,,,,,,,,,,,,,,,,,,,,,,,,,,,,,,,,,,,,,,False,,
2023-08-10 12:04:22.384870-07:00,535.247908,2.21,1.57,1.55,-0.18,26.75,860.79,50.24,30.0,-1.0,,,,,,,,,,1.83346,8.54628,17625.3,41.5743,10785.0,0.0416159,-1.0,14.0,-1411.0,55.0,,0.0,,2023-08-10 19:04:22.384870+00:00,0.9998977633495604,0.013393937359077786,,,,,,,,,,,,,,,,,,,,,,,,,,,,,,,,,,,,,,False,,
2023-08-10 12:04:23.185118-07:00,536.048156,2.84,2.47,1.38,0.21,26.71,860.81,49.84,27.0,-1.0,,,,,,,,,,1.83135,9.08584,17493.9,41.5751,10798.0,0.0637406,-1.0,14.0,-1408.0,55.0,,0.0,,2023-08-10 19:04:23.185118+00:00,1.000054380490554,0.013396244139614502,,,,,,,,,,,,,,,,,,,,,,,,,,,,,,,,,,,,,,False,,
2023-08-10 12:04:23.384604-07:00,536.247642,3.81,3.28,1.93,0.09,26.92,860.8,49.22,28.0,-1.0,,,,,,,,,,1.83135,9.08584,17493.9,41.5751,10798.0,0.0637406,-1.0,14.0,-1408.0,55.0,,0.0,,2023-08-10 19:04:23.384604+00:00,0.9993428962615901,0.013384508431867023,,,,,,,,,,,,,,,,,,,,,,,,,,,,,,,,,,,,,,False,,
2023-08-10 12:04:24.185384-07:00,537.048422,2.27,1.67,1.49,0.32,27.16,860.82,48.66,31.0,-1.0,,,,,,,,,,1.83234,7.19555,17393.2,41.577,10798.0,0.104679,-1.0,14.0,-1408.0,55.0,,0.0,,2023-08-10 19:04:24.185384+00:00,0.9985674475927531,0.01337124263058755,,,,,,,,,,,,,,,,,,,,,,,,,,,,,,,,,,,,,,False,,
2023-08-10 12:04:24.384828-07:00,537.247866,2.6,2.17,1.41,0.26,27.18,860.81,48.66,31.0,-1.0,,,,,,,,,,1.83234,7.19555,17393.2,41.577,10798.0,0.104679,-1.0,14.0,-1408.0,55.0,,0.0,,2023-08-10 19:04:24.384828+00:00,0.9984893501611478,0.01337009353876924,,,,,,,,,,,,,,,,,,,,,,,,,,,,,,,,,,,,,,False,,
2023-08-10 12:04:25.185404-07:00,538.048442,1.49,1.38,0.47,0.28,27.2,860.82,48.71,30.0,-1.0,,,,,,,,,,1.83576,6.7067,17341.5,41.5772,10825.0,-0.00403669,-1.0,14.0,-1403.0,55.0,,0.0,,2023-08-10 19:04:25.185404+00:00,0.9984344604181112,0.013369021466781138,,,,,,,,,,,,,,,,,,,,,,,,,,,,,,,,,,,,,,False,,
2023-08-10 12:04:26.384462-07:00,539.2475,1.2,1.19,-0.17,-0.05,27.23,860.81,48.81,28.0,-1.0,,,,,,,,,,1.8383,7.69302,17323.1,41.5784,10840.0,-0.119377,-1.0,16.0,-1452.0,55.0,,0.0,,2023-08-10 19:04:26.384462+00:00,0.9983231457949847,0.013367317689891987,,,,,,,,,,,,,,,,,,,,,,,,,,,,,,,,,,,,,,False,,
2023-08-10 12:04:27.185025-07:00,540.048063,0.98,0.95,0.04,0.25,27.37,860.83,48.53,30.0,-1.0,,,,,,,,,,1.83587,10.0485,17378.4,41.5795,10840.0,-0.0552924,-1.0,17.0,-1449.0,55.0,,0.0,,2023-08-10 19:04:27.185025+00:00,0.9978812519608073,0.01335962826533913,,,,,,,,,,,,,,,,,,,,,,,,,,,,,,,,,,,,,,False,,
2023-08-10 12:04:27.384438-07:00,540.247476,0.47,0.45,-0.08,0.09,27.61,860.82,47.17,31.0,-1.0,,,,,,,,,,1.83587,10.0485,17378.4,41.5795,10840.0,-0.0552924,-1.0,17.0,-1449.0,55.0,,0.0,,2023-08-10 19:04:27.384438+00:00,0.99707338138908,0.013346297882447606,,,,,,,,,,,,,,,,,,,,,,,,,,,,,,,,,,,,,,False,,
2023-08-10 12:04:28.185275-07:00,541.048313,0.5,0.38,-0.06,0.31,27.41,860.82,48.52,28.0,-1.0,,,,,,,,,,1.83131,7.65666,17400.7,41.5808,10831.0,-0.062912,-1.0,19.0,-1439.0,55.0,,0.0,,2023-08-10 19:04:28.185275+00:00,0.9977368584860915,0.013357372700977768,,,,,,,,,,,,,,,,,,,,,,,,,,,,,,,,,,,,,,False,,
2023-08-10 12:04:28.384533-07:00,541.247571,0.54,0.36,-0.12,0.38,27.52,860.83,48.29,28.0,-1.0,,,,,,,,,,1.83131,7.65666,17400.7,41.5808,10831.0,-0.062912,-1.0,19.0,-1439.0,55.0,,0.0,,2023-08-10 19:04:28.384533+00:00,0.997383423152499,0.013351317527159517,,,,,,,,,,,,,,,,,,,,,,,,,,,,,,,,,,,,,,False,,
2023-08-10 12:04:30.184975-07:00,543.048013,0.57,0.31,0.43,0.21,27.63,860.83,48.18,32.0,-1.0,,,,,,,,,,1.83348,7.62659,17427.3,41.5821,10773.0,-0.0582149,-1.0,17.0,-1415.0,55.0,,0.0,,2023-08-10 19:04:30.184975+00:00,0.9970186642704364,0.013345229689441965,,,,,,,,,,,,,,,,,,,,,,,,,,,,,,,,,,,,,,False,,
2023-08-10 12:04:31.185201-07:00,544.048239,0.16,-0.07,0.11,0.09,27.99,860.84,47.43,30.0,-1.0,,,,,,,,,,1.83472,7.63871,17437.3,41.5835,10769.0,-0.0850167,-1.0,14.0,-1401.0,55.0,,0.0,,2023-08-10 19:04:31.185201+00:00,0.995838339283868,0.013325383545975332,,,,,,,,,,,,,,,,,,,,,,,,,,,,,,,,,,,,,,False,,
2023-08-10 12:04:32.385036-07:00,545.248074,0.51,-0.39,0.33,-0.02,27.27,860.82,49.56,29.0,-1.0,,,,,,,,,,1.835,8.47762,17437.8,41.5847,10774.0,-0.0578488,-1.0,15.0,-1418.0,55.0,,0.0,,2023-08-10 19:04:32.385036+00:00,0.9982018180766251,0.01336513624166147,,,,,,,,,,,,,,,,,,,,,,,,,,,,,,,,,,,,,,False,,
2023-08-10 12:04:33.185025-07:00,546.048063,0.44,-0.06,0.43,-0.09,27.59,860.82,48.75,34.0,-1.0,,,,,,,,,,1.82883,8.12201,17444.5,41.5855,10782.0,-0.0536659,-1.0,12.0,-1411.0,55.0,,0.0,,2023-08-10 19:04:33.185025+00:00,0.9971396893881084,0.01334740452081448,,,,,,,,,,,,,,,,,,,,,,,,,,,,,,,,,,,,,,False,,
2023-08-10 12:04:33.384580-07:00,546.247618,0.21,-0.14,0.16,0.02,27.67,860.81,48.69,31.0,-1.0,,,,,,,,,,1.82883,8.12201,17444.5,41.5855,10782.0,-0.0536659,-1.0,12.0,-1411.0,55.0,,0.0,,2023-08-10 19:04:33.384580+00:00,0.996862929771616,0.01334294084701906,,,,,,,,,,,,,,,,,,,,,,,,,,,,,,,,,,,,,,False,,
2023-08-10 12:04:34.385106-07:00,547.248144,0.94,-0.78,-0.5,0.17,27.35,860.81,49.82,27.0,-1.0,,,,,,,,,,1.8332,7.0568,17446.4,41.5868,10782.0,-0.0780953,-1.0,12.0,-1411.0,55.0,,0.0,,2023-08-10 19:04:34.385106+00:00,0.9979244809780282,0.013360660449339236,,,,,,,,,,,,,,,,,,,,,,,,,,,,,,,,,,,,,,False,,
2023-08-10 12:04:35.185148-07:00,548.048186,0.16,0.01,-0.06,0.15,27.27,860.81,50.04,30.0,-1.0,,,,,,,,,,1.8349,8.17155,17443.5,41.588,10803.0,-0.0929681,-1.0,13.0,-1406.0,55.0,,0.0,,2023-08-10 19:04:35.185148+00:00,0.9981902221353356,0.013365097857559623,,,,,,,,,,,,,,,,,,,,,,,,,,,,,,,,,,,,,,False,,
2023-08-10 12:04:37.185097-07:00,550.048135,0.64,-0.01,-0.57,0.28,27.44,860.83,49.92,28.0,-1.0,,,,,,,,,,1.82885,7.46917,17430.7,41.5913,10835.0,-0.0792265,-1.0,12.0,-1433.0,55.0,,0.0,,2023-08-10 19:04:37.185097+00:00,0.9976488700198338,0.013355748607215466,,,,,,,,,,,,,,,,,,,,,,,,,,,,,,,,,,,,,,False,,
