Timestamp,Seconds,S,Um,Vm,Wm,T,P,H,MD,Sts,Vx,Vy,Vz,Lat,Lon,Alt,Yaw,Roll,Pitch,CH4,C2H6,H2O,T_a,Batt,R,C2C1,Power,Current,SOC,Lat_a,Lon_a,TS,Timestamp_UTC,Rho,Rho_err,Sc,V,U,W,WD,V_err,U_err,Sc_avg,WD_avg,V_avg,U_avg,W_avg,U_err_avg,V_err_avg,Nx,Ny,cross_wind,cross_wind_err,CH4_sub,CH4_res,CH4_adj,CH4_adj_err,BG_Samples_CH4,C2H6_sub,C2H6_res,C2H6_adj,C2H6_adj_err,BG_Samples_C2H6
2023-08-10 11:55:27.136962-07:00,0.0,3.82,-1.43,-3.53,0.28,26.39,860.92,46.42,26.0,-1.0,,,,,,,,,,,,,,,,,,,,,,,2023-08-10 18:55:27.136962+00:00,1.0012506734105675,0.013414534282774594,,,,,,,,,,,,,,,,,,,,,,,,,,,,
2023-08-10 11:55:27.346554-07:00,0.209592,3.27,-1.26,-2.98,0.41,26.34,860.93,46.47,26.0,-1.0,,,,,,,,,,,,,,,,,,,,,,,2023-08-10 18:55:27.346554+00:00,1.001429464643506,0.013417368912138388,,,,,,,,,,,,,,,,,,,,,,,,,,,,
2023-08-10 11:55:27.556813-07:00,0.419851,3.59,-1.52,-3.22,0.46,26.46,860.94,46.12,27.0,-1.0,,,,,,,,,,,,,,,,,,,,,,,2023-08-10 18:55:27.556813+00:00,1.001039998727565,0.013410699350414496,,,,,,,,,,,,,,,,,,,,,,,,,,,,
2023-08-10 11:55:27.766750-07:00,0.629788,3.5,-1.01,-3.34,0.32,26.38,860.93,46.45,27.0,-1.0,,,,,,,,,,1.82925,8.56083,17919.6,41.3912,10881.0,-0.39525,-1.0,13.0,-1412.0,58.0,,0.0,,2023-08-10 18:55:27.766750+00:00,1.0012957311991573,0.013415132072712738,,,,,,,,,,,,,,,,,,,,,,,,,,,,
2023-08-10 11:55:27.977047-07:00,0.840085,2.68,-0.69,-2.53,0.54,26.28,860.92,46.61,27.0,-1.0,,,,,,,,,,,,,,,,,,,,,,,2023-08-10 18:55:27.977047+00:00,1.0016184975232991,0.013420686860569646,,,,,,,,,,,,,,,,,,,,,,,,,,,,
2023-08-10 11:55:28.186920-07:00,1.049958,2.93,-0.18,-2.84,0.72,26.31,860.93,46.53,28.0,-1.0,,,,,,,,,,,,,,,,,,,,,,,2023-08-10 18:55:28.186920+00:00,1.001529788172322,0.013419047041234663,,,,,,,,,,,,,,,,,,,,,,,,,,,,
2023-08-10 11:55:28.397056-07:00,1.260094,3.28,-1.01,-3.08,0.51,26.47,860.93,46.21,30.0,-1.0,,,,,,,,,,,,,,,,,,,,,,,2023-08-10 18:55:28.397056+00:00,1.0009949615048512,0.013410101965213235,,,,,,,,,,,,,,,,,,,,,,,,,,,,
2023-08-10 11:55:28.598826-07:00,1.461864,3.65,-1.47,-3.3,0.48,26.55,860.93,45.95,31.0,-1.0,,,,,,,,,,1.82519,9.92881,17956.9,41.3909,10907.0,-0.390521,-1.0,14.0,-1412.0,58.0,,0.0,,2023-08-10 18:55:28.598826+00:00,1.0007277623159279,0.01340563398855274,,,,,,,,,,,,,,,,,,,,,,,,,,,,
2023-08-10 11:55:28.798228-07:00,1.661266,4.02,-1.46,-3.73,0.32,26.48,860.93,46.19,32.0,-1.0,,,,,,,,,,1.82519,9.92881,17956.9,41.3909,10907.0,-0.390521,-1.0,14.0,-1412.0,58.0,,0.0,,2023-08-10 18:55:28.798228+00:00,1.0009615538033025,0.013409543301950232,,,,,,,,,,,,,,,,,,,,,,,,,,,,
2023-08-10 11:55:28.998453-07:00,1.861491,3.73,-1.69,-3.3,0.42,26.47,860.92,46.14,32.0,-1.0,,,,,,,,,,,,,,,,,,,,,,,2023-08-10 18:55:28.998453+00:00,1.0009833346018335,0.013410063294662496,,,,,,,,,,,,,,,,,,,,,,,,,,,,
2023-08-10 11:55:29.198793-07:00,2.061831,3.39,-1.55,-2.97,0.52,26.53,860.95,45.99,32.0,-1.0,,,,,,,,,,,,,,,,,,,,,,,2023-08-10 18:55:29.198793+00:00,1.0008177978892416,0.013406827997407928,,,,,,,,,,,,,,,,,,,,,,,,,,,,
2023-08-10 11:55:29.398803-07:00,2.261841,3.62,-1.36,-3.33,0.4,26.52,860.93,46.02,33.0,-1.0,,,,,,,,,,,,,,,,,,,,,,,2023-08-10 18:55:29.398803+00:00,1.0008279452934348,0.013407309123759323,,,,,,,,,,,,,,,,,,,,,,,,,,,,
2023-08-10 11:55:29.598671-07:00,2.461709,3.21,-1.31,-2.89,0.49,26.52,860.92,45.96,31.0,-1.0,,,,,,,,,,,,,,,,,,,,,,,2023-08-10 18:55:29.598671+00:00,1.0008163203303682,0.013407270470960912,,,,,,,,,,,,,,,,,,,,,,,,,,,,
2023-08-10 11:55:29.798727-07:00,2.661765,3.18,-1.38,-2.82,0.54,26.43,860.94,46.2,30.0,-1.0,,,,,,,,,,1.8228,10.2284,17975.3,41.3906,10904.0,-0.37374,-1.0,15.0,-1407.0,58.0,,0.0,,2023-08-10 18:55:29.798727+00:00,1.0011402430695164,0.013412375778404031,,,,,,,,,,,,,,,,,,,,,,,,,,,,
2023-08-10 11:55:29.998930-07:00,2.861968,3.28,-1.5,-2.86,0.57,26.54,860.92,45.96,29.0,-1.0,,,,,,,,,,,,,,,,,,,,,,,2023-08-10 18:55:29.998930+00:00,1.0007495302259046,0.013406153673796266,,,,,,,,,,,,,,,,,,,,,,,,,,,,
2023-08-10 11:55:30.198671-07:00,3.061709,2.64,-1.17,-2.31,0.54,26.59,860.92,45.77,27.0,-1.0,,,,,,,,,,,,,,,,,,,,,,,2023-08-10 18:55:30.198671+00:00,1.0005825939594362,0.013403362511255934,,,,,,,,,,,,,,,,,,,,,,,,,,,,
2023-08-10 11:55:30.398852-07:00,3.26189,2.77,-1.48,-2.26,0.64,26.64,860.91,45.7,26.0,-1.0,,,,,,,,,,,,,,,,,,,,,,,2023-08-10 18:55:30.398852+00:00,1.0004040930675446,0.013400533924463267,,,,,,,,,,,,,,,,,,,,,,,,,,,,
2023-08-10 11:55:30.599072-07:00,3.46211,2.93,-1.57,-2.38,0.69,26.76,860.9,45.31,26.0,-1.0,,,,,,,,,,1.82062,9.95495,17980.5,41.3904,10904.0,-0.365019,-1.0,14.0,-1418.0,58.0,,0.0,,2023-08-10 18:55:30.599072+00:00,0.9999921956854959,0.013393804288329737,,,,,,,,,,,,,,,,,,,,,,,,,,,,
2023-08-10 11:55:30.798871-07:00,3.661909,2.51,-1.38,-1.96,0.75,26.88,860.92,45.14,26.0,-1.0,,,,,,,,,,1.82062,9.95495,17980.5,41.3904,10904.0,-0.365019,-1.0,14.0,-1418.0,58.0,,0.0,,2023-08-10 18:55:30.798871+00:00,0.9996154608319214,0.013387197125939857,,,,,,,,,,,,,,,,,,,,,,,,,,,,
2023-08-10 11:55:30.998226-07:00,3.861264,2.49,-1.29,-2.0,0.74,26.88,860.92,45.09,27.0,-1.0,,,,,,,,,,,,,,,,,,,,,,,2023-08-10 18:55:30.998226+00:00,0.9996154608319214,0.013387197125939857,,,,,,,,,,,,,,,,,,,,,,,,,,,,
2023-08-10 11:55:31.199177-07:00,4.062215,2.38,-1.15,-1.92,0.8,26.93,860.92,44.98,27.0,-1.0,,,,,,,,,,,,,,,,,,,,,,,2023-08-10 18:55:31.199177+00:00,0.9994489026706258,0.013384414011094166,,,,,,,,,,,,,,,,,,,,,,,,,,,,
2023-08-10 11:55:31.398218-07:00,4.261256,2.86,-1.62,-2.15,0.96,26.74,860.92,45.43,28.0,-1.0,,,,,,,,,,,,,,,,,,,,,,,2023-08-10 18:55:31.398218+00:00,1.0000821191550282,0.01339499613453061,,,,,,,,,,,,,,,,,,,,,,,,,,,,
2023-08-10 11:55:31.598962-07:00,4.462,2.7,-1.62,-1.98,0.86,26.71,860.93,45.6,29.0,-1.0,,,,,,,,,,1.82455,8.58504,17999.6,41.389,10890.0,-0.375063,-1.0,16.0,-1415.0,58.0,,0.0,,2023-08-10 18:55:31.598962+00:00,1.000193791656385,0.01339670714261432,,,,,,,,,,,,,,,,,,,,,,,,,,,,
2023-08-10 11:55:31.798289-07:00,4.661327,2.46,-1.41,-1.9,0.67,26.92,860.92,45.04,29.0,-1.0,,,,,,,,,,1.82455,8.58504,17999.6,41.389,10890.0,-0.375063,-1.0,16.0,-1415.0,58.0,,0.0,,2023-08-10 18:55:31.798289+00:00,0.99948220986237,0.01338497053959299,,,,,,,,,,,,,,,,,,,,,,,,,,,,
2023-08-10 11:55:31.998383-07:00,4.861421,1.8,-1.04,-1.34,0.6,27.26,860.91,44.11,30.0,-1.0,,,,,,,,,,,,,,,,,,,,,,,2023-08-10 18:55:31.998383+00:00,0.9983394130046244,0.013366036636400276,,,,,,,,,,,,,,,,,,,,,,,,,,,,
2023-08-10 11:55:32.199268-07:00,5.062306,2.23,-1.23,-1.75,0.63,27.42,860.91,43.8,31.0,-1.0,,,,,,,,,,,,,,,,,,,,,,,2023-08-10 18:55:32.199268+00:00,0.9978079750498027,0.013357163512175634,,,,,,,,,,,,,,,,,,,,,,,,,,,,
2023-08-10 11:55:32.398295-07:00,5.261333,2.65,-1.19,-2.22,0.84,26.99,860.92,44.85,31.0,-1.0,,,,,,,,,,,,,,,,,,,,,,,2023-08-10 18:55:32.398295+00:00,0.9992491061284781,0.013381075831581966,,,,,,,,,,,,,,,,,,,,,,,,,,,,
2023-08-10 11:55:32.598377-07:00,5.461415,2.96,-1.55,-2.4,0.77,26.7,860.92,45.66,31.0,-1.0,,,,,,,,,,1.82856,10.1517,18024.1,41.3889,10863.0,-0.342958,-1.0,17.0,-1394.0,58.0,,0.0,,2023-08-10 18:55:32.598377+00:00,1.0002155301430762,0.0133972261260932,,,,,,,,,,,,,,,,,,,,,,,,,,,,
2023-08-10 11:55:32.798421-07:00,5.661459,2.67,-1.19,-2.28,0.72,26.81,860.91,45.39,34.0,-1.0,,,,,,,,,,,,,,,,,,,,,,,2023-08-10 18:55:32.798421+00:00,0.9998371218186399,0.013391056921807209,,,,,,,,,,,,,,,,,,,,,,,,,,,,
2023-08-10 11:55:32.999066-07:00,5.862104,2.21,-1.09,-1.83,0.56,26.95,860.9,44.92,30.0,-1.0,,,,,,,,,,,,,,,,,,,,,,,2023-08-10 18:55:32.999066+00:00,0.9993590783340122,0.013383224095630536,,,,,,,,,,,,,,,,,,,,,,,,,,,,
2023-08-10 11:55:33.199092-07:00,6.06213,2.86,-1.57,-2.34,0.47,26.76,860.9,45.46,29.0,-1.0,,,,,,,,,,,,,,,,,,,,,,,2023-08-10 18:55:33.199092+00:00,0.9999921956854959,0.013393804288329737,,,,,,,,,,,,,,,,,,,,,,,,,,,,
2023-08-10 11:55:33.398552-07:00,6.26159,3.07,-1.82,-2.41,0.55,26.58,860.91,45.95,28.0,-1.0,,,,,,,,,,,,,,,,,,,,,,,2023-08-10 18:55:33.398552+00:00,1.0006043541211065,0.01340388201771597,,,,,,,,,,,,,,,,,,,,,,,,,,,,
2023-08-10 11:55:33.599169-07:00,6.462207,2.57,-1.58,-1.98,0.4,26.79,860.92,45.35,27.0,-1.0,,,,,,,,,,1.8299,9.64782,18034.8,41.3877,10863.0,-0.433688,-1.0,17.0,-1394.0,58.0,,0.0,,2023-08-10 18:55:33.599169+00:00,0.9999154054590965,0.01339220971010062,,,,,,,,,,,,,,,,,,,,,,,,,,,,
2023-08-10 11:55:33.799073-07:00,6.662111,2.52,-1.8,-1.75,0.29,27.06,860.92,44.68,27.0,-1.0,,,,,,,,,,,,,,,,,,,,,,,2023-08-10 18:55:33.799073+00:00,0.9990161111002346,0.013377183435765161,,,,,,,,,,,,,,,,,,,,,,,,,,,,
2023-08-10 11:55:33.998880-07:00,6.861918,2.65,-2.03,-1.67,0.35,27.08,860.92,44.63,26.0,-1.0,,,,,,,,,,,,,,,,,,,,,,,2023-08-10 18:55:33.998880+00:00,0.9989495610478679,0.013376071747078533,,,,,,,,,,,,,,,,,,,,,,,,,,,,
2023-08-10 11:55:34.198956-07:00,7.061994,3.29,-2.36,-2.24,0.46,26.64,860.91,45.73,25.0,-1.0,,,,,,,,,,,,,,,,,,,,,,,2023-08-10 18:55:34.198956+00:00,1.0004040930675446,0.013400533924463267,,,,,,,,,,,,,,,,,,,,,,,,,,,,
2023-08-10 11:55:34.399102-07:00,7.26214,3.08,-2.26,-2.07,0.34,26.85,860.92,45.23,25.0,-1.0,,,,,,,,,,,,,,,,,,,,,,,2023-08-10 18:55:34.399102+00:00,0.9997154223780047,0.013388867561835643,,,,,,,,,,,,,,,,,,,,,,,,,,,,
2023-08-10 11:55:34.598787-07:00,7.461825,2.61,-2.18,-1.35,0.49,26.93,860.89,45.07,27.0,-1.0,,,,,,,,,,,,,,,,,,,,,,,2023-08-10 18:55:34.598787+00:00,0.999414075431068,0.013384298490215598,,,,,,,,,,,,,,,,,,,,,,,,,,,,
2023-08-10 11:55:34.798697-07:00,7.661735,2.44,-1.48,-1.92,0.28,27.53,860.91,43.41,28.0,-1.0,,,,,,,,,,1.82159,7.80982,18055.5,41.3879,10841.0,-0.315763,-1.0,17.0,-1387.0,58.0,,0.0,,2023-08-10 18:55:34.798697+00:00,0.9974429395394415,0.013351070210258685,,,,,,,,,,,,,,,,,,,,,,,,,,,,
2023-08-10 11:55:34.999038-07:00,7.862076,3.91,-2.41,-3.08,0.24,26.87,860.9,45.17,29.0,-1.0,,,,,,,,,,,,,,,,,,,,,,,2023-08-10 18:55:34.999038+00:00,0.9996255563230352,0.013387676833991132,,,,,,,,,,,,,,,,,,,,,,,,,,,,
2023-08-10 11:55:35.198495-07:00,8.061533,4.27,-2.23,-3.63,0.13,26.61,860.91,45.82,29.0,-1.0,,,,,,,,,,,,,,,,,,,,,,,2023-08-10 18:55:35.198495+00:00,1.000504213573256,0.01340220775772887,,,,,,,,,,,,,,,,,,,,,,,,,,,,
2023-08-10 11:55:35.398615-07:00,8.261653,4.1,-1.78,-3.67,0.32,26.55,860.93,46.07,31.0,-1.0,,,,,,,,,,,,,,,,,,,,,,,2023-08-10 18:55:35.398615+00:00,1.0007277623159279,0.01340563398855274,,,,,,,,,,,,,,,,,,,,,,,,,,,,
2023-08-10 11:55:35.598474-07:00,8.461512,4.15,-1.78,-3.74,0.25,26.55,860.93,46.08,31.0,-1.0,,,,,,,,,,,,,,,,,,,,,,,2023-08-10 18:55:35.598474+00:00,1.0007277623159279,0.01340563398855274,,,,,,,,,,,,,,,,,,,,,,,,,,,,
2023-08-10 11:55:35.798725-07:00,8.661763,3.97,-2.21,-3.3,0.13,26.72,860.91,45.62,32.0,-1.0,,,,,,,,,,1.82296,9.53739,18097.9,41.3872,10863.0,-0.273214,-1.0,16.0,-1387.0,58.0,,0.0,,2023-08-10 18:55:35.798725+00:00,1.0001372029903597,0.013396072454056272,,,,,,,,,,,,,,,,,,,,,,,,,,,,
2023-08-10 11:55:35.998956-07:00,8.861994,4.27,-2.01,-3.76,0.13,26.67,860.91,45.81,35.0,-1.0,,,,,,,,,,,,,,,,,,,,,,,2023-08-10 18:55:35.998956+00:00,1.000303992597956,0.013398860517757911,,,,,,,,,,,,,,,,,,,,,,,,,,,,
2023-08-10 11:55:36.198841-07:00,9.061879,4.43,-2.09,-3.91,0.14,26.68,860.91,45.68,31.0,-1.0,,,,,,,,,,,,,,,,,,,,,,,2023-08-10 18:55:36.198841+00:00,1.0002706302261921,0.013398302810286101,,,,,,,,,,,,,,,,,,,,,,,,,,,,
2023-08-10 11:55:36.398699-07:00,9.261737,4.31,-1.78,-3.93,0.06,26.56,860.91,46.02,25.0,-1.0,,,,,,,,,,,,,,,,,,,,,,,2023-08-10 18:55:36.398699+00:00,1.0006711256238336,0.01340499842818786,,,,,,,,,,,,,,,,,,,,,,,,,,,,
2023-08-10 11:55:36.598874-07:00,9.461912,4.04,-1.48,-3.76,-0.07,26.47,860.89,46.24,26.0,-1.0,,,,,,,,,,1.82382,7.93065,18126.7,41.3863,10891.0,-0.256925,-1.0,15.0,-1388.0,58.0,,0.0,,2023-08-10 18:55:36.598874+00:00,1.0009484538927804,0.013409947285036266,,,,,,,,,,,,,,,,,,,,,,,,,,,,
2023-08-10 11:55:36.798635-07:00,9.661673,3.76,-1.64,-3.38,0.18,26.7,860.89,45.73,27.0,-1.0,,,,,,,,,,,,,,,,,,,,,,,2023-08-10 18:55:36.798635+00:00,1.0001806761892778,0.013397110361179755,,,,,,,,,,,,,,,,,,,,,,,,,,,,
2023-08-10 11:55:36.998927-07:00,9.861965,3.65,-2.04,-3.0,0.44,26.87,860.89,45.17,25.0,-1.0,,,,,,,,,,,,,,,,,,,,,,,2023-08-10 18:55:36.998927+00:00,0.9996139449215214,0.01338763830616958,,,,,,,,,,,,,,,,,,,,,,,,,,,,
2023-08-10 11:55:37.199156-07:00,10.062194,3.84,-1.91,-3.31,0.38,26.89,860.91,45.16,25.0,-1.0,,,,,,,,,,,,,,,,,,,,,,,2023-08-10 18:55:37.199156+00:00,0.99957053413118,0.013386601887061643,,,,,,,,,,,,,,,,,,,,,,,,,,,,
2023-08-10 11:55:37.399093-07:00,10.262131,3.34,-1.74,-2.78,0.64,26.72,860.92,45.69,27.0,-1.0,,,,,,,,,,,,,,,,,,,,,,,2023-08-10 18:55:37.399093+00:00,1.0001488202000912,0.013396111035615353,,,,,,,,,,,,,,,,,,,,,,,,,,,,
2023-08-10 11:55:37.598428-07:00,10.461466,2.68,-1.54,-2.11,0.59,26.64,860.91,45.88,26.0,-1.0,,,,,,,,,,,,,,,,,,,,,,,2023-08-10 18:55:37.598428+00:00,1.0004040930675446,0.013400533924463267,,,,,,,,,,,,,,,,,,,,,,,,,,,,
2023-08-10 11:55:37.798699-07:00,10.661737,2.56,-1.35,-2.1,0.57,26.68,860.91,45.82,28.0,-1.0,,,,,,,,,,1.82696,8.56741,18094.9,41.3862,10909.0,-0.265194,-1.0,14.0,-1387.0,58.0,,0.0,,2023-08-10 18:55:37.798699+00:00,1.0002706302261921,0.013398302810286101,,,,,,,,,,,,,,,,,,,,,,,,,,,,
2023-08-10 11:55:37.998244-07:00,10.861282,2.86,-1.95,-2.03,0.51,26.79,860.9,45.44,30.0,-1.0,,,,,,,,,,,,,,,,,,,,,,,2023-08-10 18:55:37.998244+00:00,0.9998921764620825,0.013392132596869808,,,,,,,,,,,,,,,,,,,,,,,,,,,,
2023-08-10 11:55:38.198579-07:00,11.061617,2.27,-1.46,-1.59,0.69,27.09,860.91,44.68,32.0,-1.0,,,,,,,,,,,,,,,,,,,,,,,2023-08-10 18:55:38.198579+00:00,0.9989046864532348,0.013375477522598865,,,,,,,,,,,,,,,,,,,,,,,,,,,,
2023-08-10 11:55:38.398915-07:00,11.261953,2.83,-1.5,-2.34,0.54,27.03,860.92,44.81,33.0,-1.0,,,,,,,,,,,,,,,,,,,,,,,2023-08-10 18:55:38.398915+00:00,0.9991159528063209,0.013378851322405697,,,,,,,,,,,,,,,,,,,,,,,,,,,,
2023-08-10 11:55:38.599060-07:00,11.462098,3.63,-1.52,-3.27,0.41,26.77,860.94,45.49,33.0,-1.0,,,,,,,,,,1.82464,8.52643,18116.9,41.3862,10916.0,-0.271729,-1.0,15.0,-1403.0,58.0,,0.0,,2023-08-10 18:55:38.599060+00:00,1.0000053148131693,0.013393401266642617,,,,,,,,,,,,,,,,,,,,,,,,,,,,
2023-08-10 11:55:38.799078-07:00,11.662116,3.59,-1.48,-3.25,0.4,26.54,860.94,46.17,33.0,-1.0,,,,,,,,,,,,,,,,,,,,,,,2023-08-10 18:55:38.799078+00:00,1.0007727786004394,0.013406230965534708,,,,,,,,,,,,,,,,,,,,,,,,,,,,
2023-08-10 11:55:38.998650-07:00,11.861688,3.97,-1.82,-3.52,0.28,26.65,860.93,45.87,31.0,-1.0,,,,,,,,,,,,,,,,,,,,,,,2023-08-10 18:55:38.998650+00:00,1.0003939638628538,0.013400053287888238,,,,,,,,,,,,,,,,,,,,,,,,,,,,
2023-08-10 11:55:39.198883-07:00,12.061921,3.49,-1.74,-3.01,0.37,26.55,860.93,46.09,31.0,-1.0,,,,,,,,,,,,,,,,,,,,,,,2023-08-10 18:55:39.198883+00:00,1.0007277623159279,0.01340563398855274,,,,,,,,,,,,,,,,,,,,,,,,,,,,
2023-08-10 11:55:39.398537-07:00,12.261575,3.39,-1.34,-3.08,0.41,26.46,860.92,46.41,29.0,-1.0,,,,,,,,,,,,,,,,,,,,,,,2023-08-10 18:55:39.398537+00:00,1.0010167441453939,0.013410622001871835,,,,,,,,,,,,,,,,,,,,,,,,,,,,
2023-08-10 11:55:39.598273-07:00,12.461311,3.58,-1.35,-3.29,0.39,26.47,860.92,46.41,27.0,-1.0,,,,,,,,,,,,,,,,,,,,,,,2023-08-10 18:55:39.598273+00:00,1.0009833346018335,0.013410063294662496,,,,,,,,,,,,,,,,,,,,,,,,,,,,
2023-08-10 11:55:39.798400-07:00,12.661438,3.68,-1.22,-3.46,0.22,26.31,860.92,46.74,26.0,-1.0,,,,,,,,,,1.82597,9.22591,18117.3,41.3863,10913.0,-0.272803,-1.0,17.0,-1424.0,58.0,,0.0,,2023-08-10 18:55:39.798400+00:00,1.0015181550571073,0.013419008313804433,,,,,,,,,,,,,,,,,,,,,,,,,,,,
2023-08-10 11:55:39.998821-07:00,12.861859,3.84,-2.55,-2.86,0.23,26.63,860.89,45.95,27.0,-1.0,,,,,,,,,,,,,,,,,,,,,,,2023-08-10 18:55:39.998821+00:00,1.0004142229480115,0.01340101459560593,,,,,,,,,,,,,,,,,,,,,,,,,,,,
2023-08-10 11:55:40.198510-07:00,13.061548,3.82,-1.72,-3.4,0.26,26.65,860.91,45.86,26.0,-1.0,,,,,,,,,,,,,,,,,,,,,,,2023-08-10 18:55:40.198510+00:00,1.0003707240184097,0.013399976074840527,,,,,,,,,,,,,,,,,,,,,,,,,,,,
2023-08-10 11:55:40.398600-07:00,13.261638,3.79,-1.72,-3.37,0.12,26.55,860.93,46.14,27.0,-1.0,,,,,,,,,,,,,,,,,,,,,,,2023-08-10 18:55:40.398600+00:00,1.0007277623159279,0.01340563398855274,,,,,,,,,,,,,,,,,,,,,,,,,,,,
2023-08-10 11:55:40.598268-07:00,13.461306,3.92,-2.19,-3.25,0.09,26.59,860.9,45.98,27.0,-1.0,,,,,,,,,,,,,,,,,,,,,,,2023-08-10 18:55:40.598268+00:00,1.0005593494629916,0.013403285256341721,,,,,,,,,,,,,,,,,,,,,,,,,,,,
2023-08-10 11:55:40.798477-07:00,13.661515,4.49,-3.02,-3.32,0.18,26.67,860.91,45.85,26.0,-1.0,,,,,,,,,,1.81976,7.51558,18100.5,41.3852,10889.0,-0.0544213,-1.0,17.0,-1428.0,58.0,,0.0,,2023-08-10 18:55:40.798477+00:00,1.000303992597956,0.013398860517757911,,,,,,,,,,,,,,,,,,,,,,,,,,,,
2023-08-10 11:55:40.998687-07:00,13.861725,4.46,-1.97,-4.0,-0.06,26.35,860.9,46.68,30.0,-1.0,,,,,,,,,,,,,,,,,,,,,,,2023-08-10 18:55:40.998687+00:00,1.0013611332488714,0.013416693492346704,,,,,,,,,,,,,,,,,,,,,,,,,,,,
2023-08-10 11:55:41.198485-07:00,14.061523,4.1,-1.78,-3.69,0.07,26.53,860.91,46.34,26.0,-1.0,,,,,,,,,,,,,,,,,,,,,,,2023-08-10 18:55:41.198485+00:00,1.0007712995886253,0.013406673399735993,,,,,,,,,,,,,,,,,,,,,,,,,,,,
2023-08-10 11:55:41.399117-07:00,14.262155,4.16,-1.92,-3.68,0.24,26.59,860.93,46.12,31.0,-1.0,,,,,,,,,,,,,,,,,,,,,,,2023-08-10 18:55:41.399117+00:00,1.0005942162076586,0.013403401139219076,,,,,,,,,,,,,,,,,,,,,,,,,,,,
2023-08-10 11:55:41.599148-07:00,14.462186,4.05,-2.08,-3.48,0.16,26.61,860.92,46.02,32.0,-1.0,,,,,,,,,,1.8274,8.00939,18133.0,41.3841,10867.0,-0.0423445,-1.0,18.0,-1403.0,58.0,,0.0,,2023-08-10 18:55:41.599148+00:00,1.0005158350460415,0.013402246378262768,,,,,,,,,,,,,,,,,,,,,,,,,,,,
2023-08-10 11:55:41.798302-07:00,14.66134,3.94,-2.17,-3.28,0.17,26.55,860.91,46.19,28.0,-1.0,,,,,,,,,,1.8274,8.00939,18133.0,41.3841,10867.0,-0.0423445,-1.0,18.0,-1403.0,58.0,,0.0,,2023-08-10 18:55:41.798302+00:00,1.0007045147171145,0.013405556704585887,,,,,,,,,,,,,,,,,,,,,,,,,,,,
2023-08-10 11:55:41.998468-07:00,14.861506,3.64,-1.79,-3.16,0.2,26.44,860.92,46.37,36.0,-1.0,,,,,,,,,,,,,,,,,,,,,,,2023-08-10 18:55:41.998468+00:00,1.0010835699235667,0.013411739558807416,,,,,,,,,,,,,,,,,,,,,,,,,,,,
2023-08-10 11:55:42.198663-07:00,15.061701,4.2,-2.05,-3.66,0.17,26.51,860.92,46.25,33.0,-1.0,,,,,,,,,,,,,,,,,,,,,,,2023-08-10 18:55:42.198663+00:00,1.000849718725894,0.013407828940741835,,,,,,,,,,,,,,,,,,,,,,,,,,,,
2023-08-10 11:55:42.398736-07:00,15.261774,4.28,-2.19,-3.68,0.02,26.35,860.91,46.77,31.0,-1.0,,,,,,,,,,,,,,,,,,,,,,,2023-08-10 18:55:42.398736+00:00,1.0013727648104147,0.013416732204870822,,,,,,,,,,,,,,,,,,,,,,,,,,,,
2023-08-10 11:55:42.598614-07:00,15.461652,4.48,-2.02,-3.99,0.13,26.39,860.9,46.65,27.0,-1.0,,,,,,,,,,1.83049,7.58453,18178.5,41.3842,10857.0,-0.0832674,-1.0,19.0,-1386.0,58.0,,0.0,,2023-08-10 18:55:42.598614+00:00,1.0012274133939945,0.013414456885834689,,,,,,,,,,,,,,,,,,,,,,,,,,,,
2023-08-10 11:55:42.799046-07:00,15.662084,5.01,-2.33,-4.44,0.09,26.18,860.92,47.14,31.0,-1.0,,,,,,,,,,,,,,,,,,,,,,,2023-08-10 18:55:42.799046+00:00,1.0019531176741436,0.013426285112118528,,,,,,,,,,,,,,,,,,,,,,,,,,,,
2023-08-10 11:55:42.998256-07:00,15.861294,4.41,-2.05,-3.89,-0.25,26.28,860.91,46.91,29.0,-1.0,,,,,,,,,,,,,,,,,,,,,,,2023-08-10 18:55:42.998256+00:00,1.0016068632425583,0.01342064812280042,,,,,,,,,,,,,,,,,,,,,,,,,,,,
2023-08-10 11:55:43.199004-07:00,16.062042,1.48,0.49,-1.39,0.15,26.48,860.88,46.42,27.0,-1.0,,,,,,,,,,,,,,,,,,,,,,,2023-08-10 18:55:43.199004+00:00,1.000903421228424,0.013409349970329549,,,,,,,,,,,,,,,,,,,,,,,,,,,,
2023-08-10 11:55:43.399105-07:00,16.262143,1.34,0.07,-1.34,0.02,26.6,860.86,46.06,26.0,-1.0,,,,,,,,,,,,,,,,,,,,,,,2023-08-10 18:55:43.399105+00:00,1.0004794822262162,0.01340257268163171,,,,,,,,,,,,,,,,,,,,,,,,,,,,
2023-08-10 11:55:43.598902-07:00,16.46194,0.95,0.17,-0.85,0.38,26.68,860.86,45.82,26.0,-1.0,,,,,,,,,,,,,,,,,,,,,,,2023-08-10 18:55:43.598902+00:00,1.0002125364283372,0.013398109836714345,,,,,,,,,,,,,,,,,,,,,,,,,,,,
2023-08-10 11:55:43.798698-07:00,16.661736,2.3,-1.3,-1.85,0.41,26.55,860.91,46.27,26.0,-1.0,,,,,,,,,,1.82492,10.1816,18197.5,41.3836,10849.0,-0.0828215,-1.0,15.0,-1403.0,58.0,,0.0,,2023-08-10 18:55:43.798698+00:00,1.0007045147171145,0.013405556704585887,,,,,,,,,,,,,,,,,,,,,,,,,,,,
2023-08-10 11:55:43.998256-07:00,16.861294,3.47,-1.88,-2.9,0.31,26.53,860.92,46.28,27.0,-1.0,,,,,,,,,,,,,,,,,,,,,,,2023-08-10 18:55:43.998256+00:00,1.0007829241637793,0.013406712048647716,,,,,,,,,,,,,,,,,,,,,,,,,,,,
2023-08-10 11:55:44.198284-07:00,17.061322,4.03,-2.76,-2.93,0.15,26.72,860.9,45.77,28.0,-1.0,,,,,,,,,,,,,,,,,,,,,,,2023-08-10 18:55:44.198284+00:00,1.0001255857806284,0.013396033872834223,,,,,,,,,,,,,,,,,,,,,,,,,,,,
2023-08-10 11:55:44.399016-07:00,17.262054,4.01,-2.79,-2.86,0.2,26.83,860.89,45.47,28.0,-1.0,,,,,,,,,,,,,,,,,,,,,,,2023-08-10 18:55:44.399016+00:00,0.999747235666894,0.013389865795212914,,,,,,,,,,,,,,,,,,,,,,,,,,,,
2023-08-10 11:55:44.598677-07:00,17.461715,3.91,-2.73,-2.79,0.22,26.72,860.89,45.78,30.0,-1.0,,,,,,,,,,1.82387,9.33729,18194.1,41.3826,10862.0,-0.0838102,-1.0,14.0,-1385.0,58.0,,0.0,,2023-08-10 18:55:44.598677+00:00,1.0001139685708968,0.013395995291949207,,,,,,,,,,,,,,,,,,,,,,,,,,,,
2023-08-10 11:55:44.798697-07:00,17.661735,3.88,-2.77,-2.71,0.14,26.57,860.89,46.13,31.0,-1.0,,,,,,,,,,,,,,,,,,,,,,,2023-08-10 18:55:44.798697+00:00,1.0006144927110465,0.013404362930806678,,,,,,,,,,,,,,,,,,,,,,,,,,,,
2023-08-10 11:55:44.998994-07:00,17.862032,4.09,-2.99,-2.78,0.2,26.45,860.87,46.51,33.0,-1.0,,,,,,,,,,,,,,,,,,,,,,,2023-08-10 18:55:44.998994+00:00,1.0009920175233329,0.013410987373377219,,,,,,,,,,,,,,,,,,,,,,,,,,,,
2023-08-10 11:55:45.198833-07:00,18.061871,4.15,-2.86,-2.99,0.19,26.42,860.87,46.53,35.0,-1.0,,,,,,,,,,,,,,,,,,,,,,,2023-08-10 18:55:45.198833+00:00,1.001092260406551,0.013412663869303478,,,,,,,,,,,,,,,,,,,,,,,,,,,,
2023-08-10 11:55:45.398903-07:00,18.261941,3.53,-2.74,-2.21,0.26,26.53,860.86,46.32,34.0,-1.0,,,,,,,,,,,,,,,,,,,,,,,2023-08-10 18:55:45.398903+00:00,1.000713176712855,0.013406480160240123,,,,,,,,,,,,,,,,,,,,,,,,,,,,
2023-08-10 11:55:45.598799-07:00,18.461837,3.85,-3.19,-2.15,0.09,26.35,860.85,46.72,33.0,-1.0,,,,,,,,,,,,,,,,,,,,,,,2023-08-10 18:55:45.598799+00:00,1.001302975441156,0.013416499934795763,,,,,,,,,,,,,,,,,,,,,,,,,,,,
2023-08-10 11:55:45.799011-07:00,18.662049,4.14,-3.6,-2.02,-0.15,26.35,860.86,46.73,33.0,-1.0,,,,,,,,,,,,,,,,,,,,,,,2023-08-10 18:55:45.799011+00:00,1.001314607002699,0.01341653864562999,,,,,,,,,,,,,,,,,,,,,,,,,,,,
2023-08-10 11:55:45.998374-07:00,18.861412,3.68,-3.16,-1.88,0.01,26.26,860.86,47.03,30.0,-1.0,,,,,,,,,,,,,,,,,,,,,,,2023-08-10 18:55:45.998374+00:00,1.0016155933245663,0.013421573665530933,,,,,,,,,,,,,,,,,,,,,,,,,,,,
2023-08-10 11:55:46.198930-07:00,19.061968,3.59,-3.01,-1.96,0.05,26.26,860.85,47.03,28.0,-1.0,,,,,,,,,,,,,,,,,,,,,,,2023-08-10 18:55:46.198930+00:00,1.0016039582666785,0.013421534922670751,,,,,,,,,,,,,,,,,,,,,,,,,,,,
2023-08-10 11:55:46.398368-07:00,19.261406,3.76,-3.22,-1.95,0.0,26.18,860.85,47.24,27.0,-1.0,,,,,,,,,,,,,,,,,,,,,,,2023-08-10 18:55:46.398368+00:00,1.0018716505015406,0.013426013705513318,,,,,,,,,,,,,,,,,,,,,,,,,,,,
2023-08-10 11:55:46.598490-07:00,19.461528,3.93,-3.2,-2.27,0.06,26.28,860.84,46.97,26.0,-1.0,,,,,,,,,,,,,,,,,,,,,,,2023-08-10 18:55:46.598490+00:00,1.0015254232773738,0.013420376967884142,,,,,,,,,,,,,,,,,,,,,,,,,,,,
2023-08-10 11:55:46.799098-07:00,19.662136,3.89,-2.96,-2.52,0.11,26.32,860.85,46.82,27.0,-1.0,,,,,,,,,,,,,,,,,,,,,,,2023-08-10 18:55:46.799098+00:00,1.00140328294863,0.013418177835772276,,,,,,,,,,,,,,,,,,,,,,,,,,,,
2023-08-10 11:55:46.998236-07:00,19.861274,3.44,-2.63,-2.21,0.24,26.23,860.87,47.07,27.0,-1.0,,,,,,,,,,,,,,,,,,,,,,,2023-08-10 18:55:46.998236+00:00,1.0017275985369447,0.013423291616341732,,,,,,,,,,,,,,,,,,,,,,,,,,,,
2023-08-10 11:55:47.198542-07:00,20.06158,3.13,-2.5,-1.87,0.24,26.02,860.88,47.75,26.0,-1.0,,,,,,,,,,,,,,,,,,,,,,,2023-08-10 18:55:47.198542+00:00,1.0024423976423864,0.013435096912985679,,,,,,,,,,,,,,,,,,,,,,,,,,,,
2023-08-10 11:55:47.398437-07:00,20.261475,2.87,-2.32,-1.66,0.33,25.95,860.86,47.9,28.0,-1.0,,,,,,,,,,,,,,,,,,,,,,,2023-08-10 18:55:47.398437+00:00,1.0026537104557285,0.013438946064246905,,,,,,,,,,,,,,,,,,,,,,,,,,,,
2023-08-10 11:55:47.598467-07:00,20.461505,2.78,-2.21,-1.63,0.43,25.84,860.86,48.19,29.0,-1.0,,,,,,,,,,,,,,,,,,,,,,,2023-08-10 18:55:47.598467+00:00,1.0030225920509328,0.013445121498094443,,,,,,,,,,,,,,,,,,,,,,,,,,,,
2023-08-10 11:55:47.798870-07:00,20.661908,2.98,-2.65,-1.31,0.37,25.83,860.85,48.3,30.0,-1.0,,,,,,,,,,1.82364,9.15889,18032.1,41.3819,10910.0,-0.0142468,-1.0,14.0,-1416.0,58.0,,0.0,,2023-08-10 18:55:47.798870+00:00,1.003044488409346,0.0134456442919413,,,,,,,,,,,,,,,,,,,,,,,,,,,,
2023-08-10 11:55:47.999166-07:00,20.862204,2.7,-2.41,-1.18,0.25,26.02,860.85,47.64,32.0,-1.0,,,,,,,,,,,,,,,,,,,,,,,2023-08-10 18:55:47.999166+00:00,1.0024074644671133,0.013434980426669829,,,,,,,,,,,,,,,,,,,,,,,,,,,,
2023-08-10 11:55:48.198314-07:00,21.061352,2.27,-2.16,-0.59,0.37,26.5,860.84,46.4,32.0,-1.0,,,,,,,,,,,,,,,,,,,,,,,2023-08-10 18:55:48.198314+00:00,1.0007901134388255,0.013408078190965345,,,,,,,,,,,,,,,,,,,,,,,,,,,,
2023-08-10 11:55:48.398535-07:00,21.261573,2.13,-1.93,-0.84,0.32,26.53,860.85,46.4,33.0,-1.0,,,,,,,,,,,,,,,,,,,,,,,2023-08-10 18:55:48.398535+00:00,1.000701552137701,0.01340644151335352,,,,,,,,,,,,,,,,,,,,,,,,,,,,
2023-08-10 11:55:48.598995-07:00,21.462033,2.41,-2.19,-1.01,-0.05,26.14,860.86,47.42,34.0,-1.0,,,,,,,,,,1.82806,7.09139,17984.0,41.3815,10904.0,-0.054342,-1.0,15.0,-1431.0,58.0,,0.0,,2023-08-10 18:55:48.598995+00:00,1.0020171900073787,0.01342829302640639,,,,,,,,,,,,,,,,,,,,,,,,,,,,
2023-08-10 11:55:48.798318-07:00,21.661356,2.83,-2.78,-0.49,0.02,26.05,860.84,47.63,32.0,-1.0,,,,,,,,,,1.82806,7.09139,17984.0,41.3815,10904.0,-0.054342,-1.0,15.0,-1431.0,58.0,,0.0,,2023-08-10 18:55:48.798318+00:00,1.002295312473075,0.013433259418394409,,,,,,,,,,,,,,,,,,,,,,,,,,,,
2023-08-10 11:55:48.998751-07:00,21.861789,3.0,-2.92,-0.7,0.07,25.93,860.82,48.0,31.0,-1.0,,,,,,,,,,,,,,,,,,,,,,,2023-08-10 18:55:48.998751+00:00,1.0026741680706823,0.01343991299958205,,,,,,,,,,,,,,,,,,,,,,,,,,,,
2023-08-10 11:55:49.198536-07:00,22.061574,2.67,-2.51,-0.91,0.07,25.99,860.82,47.79,29.0,-1.0,,,,,,,,,,,,,,,,,,,,,,,2023-08-10 18:55:49.198536+00:00,1.0024730567178568,0.013436546532038495,,,,,,,,,,,,,,,,,,,,,,,,,,,,
2023-08-10 11:55:49.399143-07:00,22.262181,2.73,-2.59,-0.87,0.05,26.05,860.84,47.72,27.0,-1.0,,,,,,,,,,,,,,,,,,,,,,,2023-08-10 18:55:49.399143+00:00,1.002295312473075,0.013433259418394409,,,,,,,,,,,,,,,,,,,,,,,,,,,,
2023-08-10 11:55:49.598632-07:00,22.46167,2.4,-2.25,-0.82,0.06,26.13,860.84,47.51,26.0,-1.0,,,,,,,,,,1.82529,9.43798,17973.8,41.3805,10887.0,-0.0543417,-1.0,15.0,-1415.0,58.0,,0.0,,2023-08-10 18:55:49.598632+00:00,1.002027390710853,0.013428775704984113,,,,,,,,,,,,,,,,,,,,,,,,,,,,
2023-08-10 11:55:49.799061-07:00,22.662099,2.61,-2.56,-0.51,0.06,26.14,860.83,47.42,26.0,-1.0,,,,,,,,,,,,,,,,,,,,,,,2023-08-10 18:55:49.799061+00:00,1.0019822708385242,0.013428176670575038,,,,,,,,,,,,,,,,,,,,,,,,,,,,
2023-08-10 11:55:49.999041-07:00,22.862079,2.65,-2.65,-0.09,0.08,26.3,860.83,46.97,26.0,-1.0,,,,,,,,,,,,,,,,,,,,,,,2023-08-10 18:55:49.999041+00:00,1.0014468987786338,0.013419219218106218,,,,,,,,,,,,,,,,,,,,,,,,,,,,
2023-08-10 11:55:50.198380-07:00,23.061418,2.56,-2.52,-0.32,0.27,26.1,860.78,47.58,26.0,-1.0,,,,,,,,,,,,,,,,,,,,,,,2023-08-10 18:55:50.198380+00:00,1.0020579969117827,0.01343022394946533,,,,,,,,,,,,,,,,,,,,,,,,,,,,
2023-08-10 11:55:50.398898-07:00,23.261936,2.31,-1.71,-1.47,0.48,26.58,860.81,46.18,26.0,-1.0,,,,,,,,,,,,,,,,,,,,,,,2023-08-10 18:55:50.398898+00:00,1.0004881277613102,0.013403495724548927,,,,,,,,,,,,,,,,,,,,,,,,,,,,
2023-08-10 11:55:50.598582-07:00,23.46162,2.06,-0.82,-1.86,0.35,26.71,860.82,45.93,27.0,-1.0,,,,,,,,,,1.82298,9.08103,17942.5,41.3822,10852.0,0.031021,-1.0,17.0,-1391.0,58.0,,0.0,,2023-08-10 18:55:50.598582+00:00,1.0000659980877067,0.013396282721343923,,,,,,,,,,,,,,,,,,,,,,,,,,,,
2023-08-10 11:55:50.798439-07:00,23.661477,2.08,-0.79,-1.89,0.34,26.82,860.82,45.53,29.0,-1.0,,,,,,,,,,,,,,,,,,,,,,,2023-08-10 18:55:50.798439+00:00,0.9996992705489872,0.01339015297660162,,,,,,,,,,,,,,,,,,,,,,,,,,,,
2023-08-10 11:55:50.998940-07:00,23.861978,2.88,-2.31,-1.56,0.72,26.75,860.81,45.68,31.0,-1.0,,,,,,,,,,,,,,,,,,,,,,,2023-08-10 18:55:50.998940+00:00,0.9999209954448067,0.0133940144932046,,,,,,,,,,,,,,,,,,,,,,,,,,,,
2023-08-10 11:55:51.198202-07:00,24.06124,2.37,-1.8,-1.5,0.37,26.2,860.8,47.34,32.0,-1.0,,,,,,,,,,,,,,,,,,,,,,,2023-08-10 18:55:51.198202+00:00,1.00174652707939,0.013424699907835588,,,,,,,,,,,,,,,,,,,,,,,,,,,,
2023-08-10 11:55:51.399165-07:00,24.262203,2.2,-1.59,-1.5,0.28,26.21,860.79,47.26,32.0,-1.0,,,,,,,,,,,,,,,,,,,,,,,2023-08-10 18:55:51.399165+00:00,1.0017014271396754,0.013424101247698331,,,,,,,,,,,,,,,,,,,,,,,,,,,,
2023-08-10 11:55:51.598684-07:00,24.461722,3.09,-2.7,-1.47,0.33,26.43,860.79,46.67,34.0,-1.0,,,,,,,,,,,,,,,,,,,,,,,2023-08-10 18:55:51.598684+00:00,1.0009658162378434,0.01341179553739912,,,,,,,,,,,,,,,,,,,,,,,,,,,,
2023-08-10 11:55:51.798779-07:00,24.661817,3.23,-2.87,-1.41,0.41,26.17,860.77,47.31,33.0,-1.0,,,,,,,,,,1.82133,10.7931,17978.3,41.3799,10852.0,-0.136344,-1.0,17.0,-1391.0,58.0,,0.0,,2023-08-10 18:55:51.798779+00:00,1.0018120136414834,0.013426263580631181,,,,,,,,,,,,,,,,,,,,,,,,,,,,
2023-08-10 11:55:51.998921-07:00,24.861959,2.7,-2.48,-0.85,0.64,26.34,860.78,46.9,32.0,-1.0,,,,,,,,,,,,,,,,,,,,,,,2023-08-10 18:55:51.998921+00:00,1.0012549853946744,0.013416788196274612,,,,,,,,,,,,,,,,,,,,,,,,,,,,
2023-08-10 11:55:52.198877-07:00,25.061915,3.03,-2.88,-0.81,0.45,26.26,860.78,47.17,30.0,-1.0,,,,,,,,,,,,,,,,,,,,,,,2023-08-10 18:55:52.198877+00:00,1.0015225128614642,0.013421263732119711,,,,,,,,,,,,,,,,,,,,,,,,,,,,
2023-08-10 11:55:52.398524-07:00,25.261562,3.84,-3.43,-1.58,0.7,26.6,860.77,46.14,29.0,-1.0,,,,,,,,,,,,,,,,,,,,,,,2023-08-10 18:55:52.398524+00:00,1.0003748854817975,0.013402225095276447,,,,,,,,,,,,,,,,,,,,,,,,,,,,
2023-08-10 11:55:52.598546-07:00,25.461584,3.36,-3.13,-1.05,0.62,26.42,860.75,46.62,27.0,-1.0,,,,,,,,,,,,,,,,,,,,,,,2023-08-10 18:55:52.598546+00:00,1.000952714283154,0.01341219965615534,,,,,,,,,,,,,,,,,,,,,,,,,,,,
2023-08-10 11:55:52.798422-07:00,25.66146,3.62,-3.21,-1.45,0.85,26.32,860.75,46.96,26.0,-1.0,,,,,,,,,,1.82478,8.97613,17978.4,41.3803,10847.0,-0.121174,-1.0,16.0,-1390.0,58.0,,0.0,,2023-08-10 18:55:52.798422+00:00,1.0012869556810515,0.013417790639309507,,,,,,,,,,,,,,,,,,,,,,,,,,,,
2023-08-10 11:55:52.998984-07:00,25.862022,4.57,-3.62,-2.73,0.57,26.35,860.75,46.79,26.0,-1.0,,,,,,,,,,,,,,,,,,,,,,,2023-08-10 18:55:52.998984+00:00,1.0011866598257246,0.013416112845043317,,,,,,,,,,,,,,,,,,,,,,,,,,,,
2023-08-10 11:55:53.198569-07:00,26.061607,4.47,-3.49,-2.78,0.19,26.39,860.76,46.78,26.0,-1.0,,,,,,,,,,,,,,,,,,,,,,,2023-08-10 18:55:53.198569+00:00,1.001064593277982,0.013413915145098244,,,,,,,,,,,,,,,,,,,,,,,,,,,,
2023-08-10 11:55:53.398886-07:00,26.261924,4.35,-3.16,-2.97,0.32,26.56,860.78,46.3,26.0,-1.0,,,,,,,,,,,,,,,,,,,,,,,2023-08-10 18:55:53.398886+00:00,1.0005200212734011,0.013404496161426853,,,,,,,,,,,,,,,,,,,,,,,,,,,,
2023-08-10 11:55:53.598966-07:00,26.462004,4.0,-3.05,-2.58,0.18,26.3,860.77,47.02,27.0,-1.0,,,,,,,,,,1.82327,7.59828,17976.6,41.3797,10853.0,-0.0896779,-1.0,14.0,-1385.0,58.0,,0.0,,2023-08-10 18:55:53.598966+00:00,1.0013770977564496,0.013418986857531495,,,,,,,,,,,,,,,,,,,,,,,,,,,,
2023-08-10 11:55:53.798170-07:00,26.661208,3.78,-3.2,-2.0,0.04,26.27,860.78,47.15,29.0,-1.0,,,,,,,,,,1.82327,7.59828,17976.6,41.3797,10853.0,-0.0896779,-1.0,14.0,-1385.0,58.0,,0.0,,2023-08-10 18:55:53.798170+00:00,1.0014890641101162,0.013420704123540574,,,,,,,,,,,,,,,,,,,,,,,,,,,,
2023-08-10 11:55:53.998634-07:00,26.861672,3.72,-2.83,-2.41,0.22,26.26,860.79,47.19,30.0,-1.0,,,,,,,,,,,,,,,,,,,,,,,2023-08-10 18:55:53.998634+00:00,1.001534147919352,0.013421302472612315,,,,,,,,,,,,,,,,,,,,,,,,,,,,
2023-08-10 11:55:54.198943-07:00,27.061981,3.45,-2.64,-2.2,0.26,26.24,860.79,47.18,32.0,-1.0,,,,,,,,,,,,,,,,,,,,,,,2023-08-10 18:55:54.198943+00:00,1.0016010529026793,0.013422421839750606,,,,,,,,,,,,,,,,,,,,,,,,,,,,
2023-08-10 11:55:54.398588-07:00,27.261626,3.03,-2.02,-2.24,0.3,26.2,860.8,47.2,33.0,-1.0,,,,,,,,,,,,,,,,,,,,,,,2023-08-10 18:55:54.398588+00:00,1.00174652707939,0.013424699907835588,,,,,,,,,,,,,,,,,,,,,,,,,,,,
2023-08-10 11:55:54.598232-07:00,27.46127,3.11,-2.3,-2.07,0.33,26.25,860.8,47.1,34.0,-1.0,,,,,,,,,,,,,,,,,,,,,,,2023-08-10 18:55:54.598232+00:00,1.0015792347401984,0.01342190087676072,,,,,,,,,,,,,,,,,,,,,,,,,,,,
2023-08-10 11:55:54.798576-07:00,27.661614,3.03,-2.17,-2.11,0.11,26.19,860.82,47.27,33.0,-1.0,,,,,,,,,,,,,,,,,,,,,,,2023-08-10 18:55:54.798576+00:00,1.0018032678111168,0.013425337389531106,,,,,,,,,,,,,,,,,,,,,,,,,,,,
2023-08-10 11:55:54.999129-07:00,27.862167,3.24,-2.44,-2.13,0.13,26.28,860.81,47.11,32.0,-1.0,,,,,,,,,,,,,,,,,,,,,,,2023-08-10 18:55:54.999129+00:00,1.0014905204351519,0.013420260763706782,,,,,,,,,,,,,,,,,,,,,,,,,,,,
2023-08-10 11:55:55.198510-07:00,28.061548,3.55,-2.76,-2.23,0.2,26.31,860.82,47.03,30.0,-1.0,,,,,,,,,,,,,,,,,,,,,,,2023-08-10 18:55:55.198510+00:00,1.0014018239049611,0.013418621058096401,,,,,,,,,,,,,,,,,,,,,,,,,,,,
2023-08-10 11:55:55.398436-07:00,28.261474,3.47,-2.47,-2.43,0.13,26.31,860.82,46.98,29.0,-1.0,,,,,,,,,,,,,,,,,,,,,,,2023-08-10 18:55:55.398436+00:00,1.0014018239049611,0.013418621058096401,,,,,,,,,,,,,,,,,,,,,,,,,,,,
2023-08-10 11:55:55.598961-07:00,28.461999,3.14,-2.45,-1.94,0.28,26.22,860.81,47.34,28.0,-1.0,,,,,,,,,,1.82595,8.76932,17949.3,41.3782,10888.0,-0.170723,-1.0,12.0,-1379.0,58.0,,0.0,,2023-08-10 18:55:55.598961+00:00,1.0016912400504308,0.013423618907897691,,,,,,,,,,,,,,,,,,,,,,,,,,,,
2023-08-10 11:55:55.798598-07:00,28.661636,2.89,-2.22,-1.79,0.45,26.16,860.81,47.46,27.0,-1.0,,,,,,,,,,,,,,,,,,,,,,,2023-08-10 18:55:55.798598+00:00,1.0018920401386437,0.013426978767233625,,,,,,,,,,,,,,,,,,,,,,,,,,,,
2023-08-10 11:55:55.998591-07:00,28.861629,2.42,-2.05,-1.26,0.31,26.24,860.81,47.23,26.0,-1.0,,,,,,,,,,,,,,,,,,,,,,,2023-08-10 18:55:55.998591+00:00,1.0016243245729568,0.013422499335993167,,,,,,,,,,,,,,,,,,,,,,,,,,,,
2023-08-10 11:55:56.198434-07:00,29.061472,1.8,-1.55,-0.88,0.24,26.48,860.8,46.52,26.0,-1.0,,,,,,,,,,,,,,,,,,,,,,,2023-08-10 18:55:56.198434+00:00,1.0008104091086185,0.013409040657294312,,,,,,,,,,,,,,,,,,,,,,,,,,,,
2023-08-10 11:55:56.398912-07:00,29.26195,1.89,-1.72,-0.72,0.3,26.48,860.8,46.46,26.0,-1.0,,,,,,,,,,,,,,,,,,,,,,,2023-08-10 18:55:56.398912+00:00,1.0008104091086185,0.013409040657294312,,,,,,,,,,,,,,,,,,,,,,,,,,,,
2023-08-10 11:55:56.598284-07:00,29.461322,1.75,-1.67,-0.26,0.43,26.66,860.8,46.04,27.0,-1.0,,,,,,,,,,,,,,,,,,,,,,,2023-08-10 18:55:56.598284+00:00,1.0002095423141835,0.013398993663933814,,,,,,,,,,,,,,,,,,,,,,,,,,,,
2023-08-10 11:55:56.799185-07:00,29.662223,2.36,-2.34,-0.21,0.24,26.55,860.8,46.37,28.0,-1.0,,,,,,,,,,,,,,,,,,,,,,,2023-08-10 18:55:56.799185+00:00,1.0005766529236413,0.013405131666897316,,,,,,,,,,,,,,,,,,,,,,,,,,,,
2023-08-10 11:55:56.998998-07:00,29.862036,2.16,-2.16,-0.06,-0.0,26.49,860.82,46.59,29.0,-1.0,,,,,,,,,,,,,,,,,,,,,,,2023-08-10 18:55:56.998998+00:00,1.0008002609350544,0.013408559406814676,,,,,,,,,,,,,,,,,,,,,,,,,,,,
2023-08-10 11:55:57.198335-07:00,30.061373,1.77,-1.73,-0.31,0.21,26.49,860.81,46.5,30.0,-1.0,,,,,,,,,,,,,,,,,,,,,,,2023-08-10 18:55:57.198335+00:00,1.0007886348080948,0.013408520747080037,,,,,,,,,,,,,,,,,,,,,,,,,,,,
2023-08-10 11:55:57.399063-07:00,30.262101,1.86,-1.83,-0.21,0.22,26.51,860.81,46.54,31.0,-1.0,,,,,,,,,,,,,,,,,,,,,,,2023-08-10 18:55:57.399063+00:00,1.0007218398648388,0.013407403743193233,,,,,,,,,,,,,,,,,,,,,,,,,,,,
2023-08-10 11:55:57.598433-07:00,30.461471,2.05,-2.04,-0.04,0.2,26.74,860.82,45.81,32.0,-1.0,,,,,,,,,,,,,,,,,,,,,,,2023-08-10 18:55:57.598433+00:00,0.9999659548053609,0.013394610404912006,,,,,,,,,,,,,,,,,,,,,,,,,,,,
2023-08-10 11:55:57.798933-07:00,30.661971,2.35,-2.33,-0.06,0.28,26.41,860.81,46.7,33.0,-1.0,,,,,,,,,,,,,,,,,,,,,,,2023-08-10 18:55:57.798933+00:00,1.0010559037718572,0.013412990662344903,,,,,,,,,,,,,,,,,,,,,,,,,,,,
2023-08-10 11:55:57.998378-07:00,30.861416,3.13,-2.72,-1.46,0.5,26.44,860.81,46.69,33.0,-1.0,,,,,,,,,,,,,,,,,,,,,,,2023-08-10 18:55:57.998378+00:00,1.0009556611832755,0.01341131408781874,,,,,,,,,,,,,,,,,,,,,,,,,,,,
2023-08-10 11:55:58.198843-07:00,31.061881,2.02,-1.83,-0.57,0.64,26.68,860.79,46.08,32.0,-1.0,,,,,,,,,,,,,,,,,,,,,,,2023-08-10 18:55:58.198843+00:00,1.0001312051113405,0.01339783968787411,,,,,,,,,,,,,,,,,,,,,,,,,,,,
2023-08-10 11:55:58.398953-07:00,31.261991,1.9,-1.83,-0.32,0.4,26.9,860.8,45.47,30.0,-1.0,,,,,,,,,,,,,,,,,,,,,,,2023-08-10 18:55:58.398953+00:00,0.9994095080193813,0.013385621545776482,,,,,,,,,,,,,,,,,,,,,,,,,,,,
2023-08-10 11:55:58.598470-07:00,31.461508,3.08,-2.75,-1.24,0.59,26.61,860.79,46.27,29.0,-1.0,,,,,,,,,,,,,,,,,,,,,,,2023-08-10 18:55:58.598470+00:00,1.0003647558998303,0.013401744337633057,,,,,,,,,,,,,,,,,,,,,,,,,,,,
2023-08-10 11:55:58.798400-07:00,31.661438,3.2,-2.99,-1.12,-0.17,26.19,860.79,47.47,27.0,-1.0,,,,,,,,,,1.82941,9.54121,18004.5,41.3773,10876.0,-0.0829317,-1.0,17.0,-1420.0,58.0,,0.0,,2023-08-10 18:55:58.798400+00:00,1.0017683544749554,0.013425221091227119,,,,,,,,,,,,,,,,,,,,,,,,,,,,
2023-08-10 11:55:58.998780-07:00,31.861818,3.05,-2.91,-0.91,0.11,26.23,860.78,47.21,27.0,-1.0,,,,,,,,,,,,,,,,,,,,,,,2023-08-10 18:55:58.998780+00:00,1.001622872522717,0.013422942843586676,,,,,,,,,,,,,,,,,,,,,,,,,,,,
2023-08-10 11:55:59.198320-07:00,32.061358,2.51,-1.93,-1.56,0.4,26.21,860.8,47.31,27.0,-1.0,,,,,,,,,,,,,,,,,,,,,,,2023-08-10 18:55:59.198320+00:00,1.0017130641408851,0.013424140006335647,,,,,,,,,,,,,,,,,,,,,,,,,,,,
2023-08-10 11:55:59.398924-07:00,32.261962,2.04,-1.13,-1.69,0.16,26.36,860.81,46.95,27.0,-1.0,,,,,,,,,,,,,,,,,,,,,,,2023-08-10 18:55:59.398924+00:00,1.0012230193779756,0.013415785903879318,,,,,,,,,,,,,,,,,,,,,,,,,,,,
2023-08-10 11:55:59.599030-07:00,32.462068,2.31,-2.04,-1.04,0.35,26.47,860.81,46.64,27.0,-1.0,,,,,,,,,,,,,,,,,,,,,,,2023-08-10 18:55:59.599030+00:00,1.0008554386686386,0.013409637940890711,,,,,,,,,,,,,,,,,,,,,,,,,,,,
2023-08-10 11:55:59.798231-07:00,32.661269,2.42,-1.95,-1.35,0.49,26.41,860.8,46.87,28.0,-1.0,,,,,,,,,,1.82627,9.4656,18015.4,41.3768,10857.0,-0.040488,-1.0,16.0,-1400.0,58.0,,0.0,,2023-08-10 18:55:59.798231+00:00,1.0010442745400432,0.013412951974531195,,,,,,,,,,,,,,,,,,,,,,,,,,,,
2023-08-10 11:55:59.998929-07:00,32.861967,2.21,-1.54,-1.54,0.34,26.45,860.82,46.6,28.0,-1.0,,,,,,,,,,,,,,,,,,,,,,,2023-08-10 18:55:59.998929+00:00,1.0009338791274356,0.013410793998612813,,,,,,,,,,,,,,,,,,,,,,,,,,,,
2023-08-10 11:56:00.198475-07:00,33.061513,1.52,-0.66,-1.36,0.13,26.67,860.83,46.1,30.0,-1.0,,,,,,,,,,,,,,,,,,,,,,,2023-08-10 18:56:00.198475+00:00,1.0002110394211923,0.013398551735747844,,,,,,,,,,,,,,,,,,,,,,,,,,,,
2023-08-10 11:56:00.398747-07:00,33.261785,1.5,-0.49,-1.41,0.18,26.5,860.83,46.56,31.0,-1.0,,,,,,,,,,,,,,,,,,,,,,,2023-08-10 18:56:00.398747+00:00,1.000778487699856,0.013408039534105666,,,,,,,,,,,,,,,,,,,,,,,,,,,,
2023-08-10 11:56:00.598859-07:00,33.461897,1.58,-0.09,-1.55,0.31,26.57,860.84,46.32,33.0,-1.0,,,,,,,,,,1.82545,8.41117,18020.9,41.3769,10846.0,0.0210273,-1.0,14.0,-1398.0,58.0,,0.0,,2023-08-10 18:56:00.598859+00:00,1.000556377592233,0.013404169765645178,,,,,,,,,,,,,,,,,,,,,,,,,,,,
2023-08-10 11:56:00.798857-07:00,33.661895,2.18,0.13,-2.17,0.21,26.22,860.83,47.28,33.0,-1.0,,,,,,,,,,,,,,,,,,,,,,,2023-08-10 18:56:00.798857+00:00,1.001714513275418,0.013423696419739665,,,,,,,,,,,,,,,,,,,,,,,,,,,,
2023-08-10 11:56:00.998760-07:00,33.861798,2.14,0.02,-2.13,0.23,26.55,860.85,46.38,33.0,-1.0,,,,,,,,,,,,,,,,,,,,,,,2023-08-10 18:56:00.998760+00:00,1.0006347719206747,0.013405324860784494,,,,,,,,,,,,,,,,,,,,,,,,,,,,
2023-08-10 11:56:01.198765-07:00,34.061803,1.57,-0.49,-1.48,0.24,26.96,860.86,45.32,32.0,-1.0,,,,,,,,,,,,,,,,,,,,,,,2023-08-10 18:56:01.198765+00:00,0.9992793468971657,0.013382513733745827,,,,,,,,,,,,,,,,,,,,,,,,,,,,
2023-08-10 11:56:01.398566-07:00,34.261604,0.97,-0.24,-0.93,0.15,26.82,860.86,45.69,32.0,-1.0,,,,,,,,,,,,,,,,,,,,,,,2023-08-10 18:56:01.398566+00:00,0.9997457238967509,0.0133903071511871,,,,,,,,,,,,,,,,,,,,,,,,,,,,
2023-08-10 11:56:01.598761-07:00,34.461799,1.34,-0.83,-1.01,0.28,26.78,860.85,45.8,30.0,-1.0,,,,,,,,,,1.83064,8.04651,18013.5,41.376,10846.0,-0.0441348,-1.0,14.0,-1398.0,58.0,,0.0,,2023-08-10 18:56:01.598761+00:00,0.9998674395513162,0.013392496985171106,,,,,,,,,,,,,,,,,,,,,,,,,,,,
2023-08-10 11:56:01.799025-07:00,34.662063,2.11,-1.73,-1.12,0.42,26.42,860.87,46.84,29.0,-1.0,,,,,,,,,,,,,,,,,,,,,,,2023-08-10 18:56:01.799025+00:00,1.001092260406551,0.013412663869303478,,,,,,,,,,,,,,,,,,,,,,,,,,,,
2023-08-10 11:56:01.998926-07:00,34.861964,2.43,-2.11,-1.21,0.19,26.28,860.86,47.17,28.0,-1.0,,,,,,,,,,,,,,,,,,,,,,,2023-08-10 18:56:01.998926+00:00,1.0015486918388552,0.013420454439026563,,,,,,,,,,,,,,,,,,,,,,,,,,,,
2023-08-10 11:56:02.198639-07:00,35.061677,2.48,-2.33,-0.85,0.04,26.23,860.84,47.32,27.0,-1.0,,,,,,,,,,,,,,,,,,,,,,,2023-08-10 18:56:02.198639+00:00,1.0016926898655356,0.013423175355712023,,,,,,,,,,,,,,,,,,,,,,,,,,,,
2023-08-10 11:56:02.398879-07:00,35.261917,2.23,-2.03,-0.92,0.09,26.41,860.85,46.81,27.0,-1.0,,,,,,,,,,,,,,,,,,,,,,,2023-08-10 18:56:02.398879+00:00,1.0011024206991126,0.013413145416978172,,,,,,,,,,,,,,,,,,,,,,,,,,,,
2023-08-10 11:56:02.599127-07:00,35.462165,2.14,-1.95,-0.82,0.29,26.59,860.86,46.28,27.0,-1.0,,,,,,,,,,1.82068,10.1349,18017.0,41.3764,10858.0,-0.168181,-1.0,12.0,-1402.0,58.0,,0.0,,2023-08-10 18:56:02.599127+00:00,1.0005128604701021,0.013403130750561678,,,,,,,,,,,,,,,,,,,,,,,,,,,,
2023-08-10 11:56:02.798732-07:00,35.66177,1.9,-1.84,-0.45,0.21,26.56,860.84,46.45,27.0,-1.0,,,,,,,,,,,,,,,,,,,,,,,2023-08-10 18:56:02.798732+00:00,1.0005897617428314,0.01340472796976844,,,,,,,,,,,,,,,,,,,,,,,,,,,,
2023-08-10 11:56:02.998410-07:00,35.861448,2.34,-2.07,-1.02,0.43,26.57,860.85,46.48,28.0,-1.0,,,,,,,,,,,,,,,,,,,,,,,2023-08-10 18:56:02.998410+00:00,1.0005680006159956,0.013404208398002626,,,,,,,,,,,,,,,,,,,,,,,,,,,,
2023-08-10 11:56:03.198363-07:00,36.061401,2.38,-2.08,-1.06,0.46,26.63,860.85,46.24,29.0,-1.0,,,,,,,,,,,,,,,,,,,,,,,2023-08-10 18:56:03.198363+00:00,1.0003677401582034,0.013400860147901802,,,,,,,,,,,,,,,,,,,,,,,,,,,,
2023-08-10 11:56:03.398881-07:00,36.261919,2.49,-1.69,-1.8,0.32,27.07,860.86,45.07,29.0,-1.0,,,,,,,,,,,,,,,,,,,,,,,2023-08-10 18:56:03.398881+00:00,0.9989132129681845,0.013376396825544083,,,,,,,,,,,,,,,,,,,,,,,,,,,,
2023-08-10 11:56:03.598991-07:00,36.462029,2.14,-1.2,-1.67,0.61,27.13,860.87,44.88,31.0,-1.0,,,,,,,,,,,,,,,,,,,,,,,2023-08-10 18:56:03.598991+00:00,0.9987252179632029,0.013373101169748235,,,,,,,,,,,,,,,,,,,,,,,,,,,,
2023-08-10 11:56:03.798410-07:00,36.661448,1.92,-0.95,-1.52,0.67,27.16,860.88,44.89,32.0,-1.0,,,,,,,,,,1.82857,8.27608,18019.6,41.3759,10879.0,-0.246537,-1.0,11.0,-1397.0,58.0,,0.0,,2023-08-10 18:56:03.798410+00:00,0.9986370487252262,0.013371473174540512,,,,,,,,,,,,,,,,,,,,,,,,,,,,
2023-08-10 11:56:03.998788-07:00,36.861826,1.79,-0.79,-1.52,0.51,27.26,860.88,44.58,33.0,-1.0,,,,,,,,,,,,,,,,,,,,,,,2023-08-10 18:56:03.998788+00:00,0.9983046240227446,0.01336592146548626,,,,,,,,,,,,,,,,,,,,,,,,,,,,
2023-08-10 11:56:04.198673-07:00,37.061711,1.77,-0.87,-1.46,0.47,27.19,860.89,44.75,34.0,-1.0,,,,,,,,,,,,,,,,,,,,,,,2023-08-10 18:56:04.198673+00:00,0.998548897101135,0.013369845582303131,,,,,,,,,,,,,,,,,,,,,,,,,,,,
2023-08-10 11:56:04.398604-07:00,37.261642,1.91,-0.87,-1.63,0.48,26.92,860.87,45.44,33.0,-1.0,,,,,,,,,,,,,,,,,,,,,,,2023-08-10 18:56:04.398604+00:00,0.9994241625287118,0.013384777988817771,,,,,,,,,,,,,,,,,,,,,,,,,,,,
2023-08-10 11:56:04.598781-07:00,37.461819,2.08,-0.74,-1.89,0.43,26.78,860.88,45.9,32.0,-1.0,,,,,,,,,,1.82826,9.49256,18075.4,41.375,10898.0,-0.284288,-1.0,13.0,-1389.0,58.0,,0.0,,2023-08-10 18:56:04.598781+00:00,0.9999022842085578,0.013392612661083462,,,,,,,,,,,,,,,,,,,,,,,,,,,,
2023-08-10 11:56:04.798392-07:00,37.66143,2.52,-0.97,-2.27,0.48,26.58,860.88,46.35,31.0,-1.0,,,,,,,,,,1.82826,9.49256,18075.4,41.375,10898.0,-0.284288,-1.0,13.0,-1389.0,58.0,,0.0,,2023-08-10 18:56:04.798392+00:00,1.0005694862131675,0.013403766126223177,,,,,,,,,,,,,,,,,,,,,,,,,,,,
2023-08-10 11:56:04.998330-07:00,37.861368,2.56,-0.93,-2.33,0.48,26.47,860.88,46.74,29.0,-1.0,,,,,,,,,,,,,,,,,,,,,,,2023-08-10 18:56:04.998330+00:00,1.0009368269897627,0.013409908615836193,,,,,,,,,,,,,,,,,,,,,,,,,,,,
2023-08-10 11:56:05.198485-07:00,38.061523,2.5,-0.57,-2.4,0.41,26.47,860.88,46.7,28.0,-1.0,,,,,,,,,,,,,,,,,,,,,,,2023-08-10 18:56:05.198485+00:00,1.0009368269897627,0.013409908615836193,,,,,,,,,,,,,,,,,,,,,,,,,,,,
2023-08-10 11:56:05.398607-07:00,38.261645,2.68,-0.65,-2.57,0.46,26.35,860.86,47.03,27.0,-1.0,,,,,,,,,,,,,,,,,,,,,,,2023-08-10 18:56:05.398607+00:00,1.001314607002699,0.01341653864562999,,,,,,,,,,,,,,,,,,,,,,,,,,,,
2023-08-10 11:56:05.598655-07:00,38.461693,2.24,-0.23,-2.21,0.26,26.35,860.87,47.01,27.0,-1.0,,,,,,,,,,,,,,,,,,,,,,,2023-08-10 18:56:05.598655+00:00,1.001326238564242,0.013416577356802198,,,,,,,,,,,,,,,,,,,,,,,,,,,,
2023-08-10 11:56:05.799132-07:00,38.66217,2.11,-0.03,-2.09,0.29,26.37,860.88,46.92,27.0,-1.0,,,,,,,,,,,,,,,,,,,,,,,2023-08-10 18:56:05.799132+00:00,1.0012710072872353,0.013415497684167608,,,,,,,,,,,,,,,,,,,,,,,,,,,,
2023-08-10 11:56:05.998273-07:00,38.861311,2.38,-0.54,-2.31,0.19,26.61,860.88,46.3,28.0,-1.0,,,,,,,,,,,,,,,,,,,,,,,2023-08-10 18:56:05.998273+00:00,1.0004693491548995,0.013402091898151045,,,,,,,,,,,,,,,,,,,,,,,,,,,,
2023-08-10 11:56:06.198289-07:00,39.061327,2.05,-0.28,-2.02,0.24,26.68,860.89,46.13,28.0,-1.0,,,,,,,,,,,,,,,,,,,,,,,2023-08-10 18:56:06.198289+00:00,1.0002473927070503,0.013398225619845983,,,,,,,,,,,,,,,,,,,,,,,,,,,,
2023-08-10 11:56:06.399149-07:00,39.262187,1.62,-0.23,-1.57,0.29,26.64,860.88,46.28,29.0,-1.0,,,,,,,,,,,,,,,,,,,,,,,2023-08-10 18:56:06.399149+00:00,1.0003692321380724,0.01340041809678886,,,,,,,,,,,,,,,,,,,,,,,,,,,,
2023-08-10 11:56:06.598691-07:00,39.461729,1.93,-0.31,-1.88,0.3,26.6,860.89,46.44,30.0,-1.0,,,,,,,,,,,,,,,,,,,,,,,2023-08-10 18:56:06.598691+00:00,1.0005143478076894,0.013402688549822522,,,,,,,,,,,,,,,,,,,,,,,,,,,,
2023-08-10 11:56:06.799122-07:00,39.66216,2.09,-0.18,-2.08,0.13,26.54,860.89,46.6,31.0,-1.0,,,,,,,,,,,,,,,,,,,,,,,2023-08-10 18:56:06.799122+00:00,1.0007146576641024,0.01340603773871974,,,,,,,,,,,,,,,,,,,,,,,,,,,,
2023-08-10 11:56:06.999111-07:00,39.862149,2.2,-0.26,-2.17,0.25,26.48,860.89,46.72,33.0,-1.0,,,,,,,,,,,,,,,,,,,,,,,2023-08-10 18:56:06.999111+00:00,1.0009150477433997,0.013409388635978398,,,,,,,,,,,,,,,,,,,,,,,,,,,,
2023-08-10 11:56:07.198439-07:00,40.061477,1.58,0.22,-1.55,0.2,26.72,860.88,46.12,33.0,-1.0,,,,,,,,,,,,,,,,,,,,,,,2023-08-10 18:56:07.198439+00:00,1.0001023513611655,0.013395956711401227,,,,,,,,,,,,,,,,,,,,,,,,,,,,
2023-08-10 11:56:07.398929-07:00,40.261967,1.83,0.02,-1.82,0.21,26.61,860.87,46.37,33.0,-1.0,,,,,,,,,,,,,,,,,,,,,,,2023-08-10 18:56:07.398929+00:00,1.0004577276821143,0.013402053278966403,,,,,,,,,,,,,,,,,,,,,,,,,,,,
2023-08-10 11:56:07.598965-07:00,40.462003,1.84,0.27,-1.81,0.22,26.69,860.88,46.14,32.0,-1.0,,,,,,,,,,,,,,,,,,,,,,,2023-08-10 18:56:07.598965+00:00,1.0002024149635562,0.013397629375658304,,,,,,,,,,,,,,,,,,,,,,,,,,,,
2023-08-10 11:56:07.799094-07:00,40.662132,1.14,0.39,-1.03,0.3,26.81,860.88,45.82,31.0,-1.0,,,,,,,,,,,,,,,,,,,,,,,2023-08-10 18:56:07.799094+00:00,0.9998022806463286,0.013390941274700944,,,,,,,,,,,,,,,,,,,,,,,,,,,,
2023-08-10 11:56:07.998220-07:00,40.861258,1.24,0.57,-1.03,0.38,26.68,860.88,46.11,30.0,-1.0,,,,,,,,,,,,,,,,,,,,,,,2023-08-10 18:56:07.998220+00:00,1.0002357739474792,0.01339818702513163,,,,,,,,,,,,,,,,,,,,,,,,,,,,
2023-08-10 11:56:08.198592-07:00,41.06163,1.49,0.18,-1.45,0.26,26.68,860.87,46.17,28.0,-1.0,,,,,,,,,,,,,,,,,,,,,,,2023-08-10 18:56:08.198592+00:00,1.0002241551879083,0.013398148430754415,,,,,,,,,,,,,,,,,,,,,,,,,,,,
2023-08-10 11:56:08.398341-07:00,41.261379,1.5,-0.51,-1.37,0.37,26.85,860.87,45.71,27.0,-1.0,,,,,,,,,,,,,,,,,,,,,,,2023-08-10 18:56:08.398341+00:00,0.9996573614999683,0.013388674887379968,,,,,,,,,,,,,,,,,,,,,,,,,,,,
2023-08-10 11:56:08.598228-07:00,41.461266,1.41,-0.27,-1.36,0.29,26.94,860.88,45.46,26.0,-1.0,,,,,,,,,,1.82662,8.20331,18039.7,41.3733,10847.0,-0.341704,-1.0,14.0,-1412.0,58.0,,0.0,,2023-08-10 18:56:08.598228+00:00,0.9993691629266978,0.01338370351677997,,,,,,,,,,,,,,,,,,,,,,,,,,,,
2023-08-10 11:56:08.798179-07:00,41.661217,1.37,-0.31,-1.26,0.43,27.2,860.88,44.84,26.0,-1.0,,,,,,,,,,1.82662,8.20331,18039.7,41.3733,10847.0,-0.341704,-1.0,14.0,-1412.0,58.0,,0.0,,2023-08-10 18:56:08.798179+00:00,0.9985040522812475,0.013369251926228306,,,,,,,,,,,,,,,,,,,,,,,,,,,,
2023-08-10 11:56:08.998540-07:00,41.861578,1.45,-0.55,-1.31,0.3,27.18,860.89,44.89,27.0,-1.0,,,,,,,,,,,,,,,,,,,,,,,2023-08-10 18:56:08.998540+00:00,0.9985821454911428,0.013370400874362516,,,,,,,,,,,,,,,,,,,,,,,,,,,,
2023-08-10 11:56:09.198487-07:00,42.061525,1.49,-0.35,-1.44,0.16,27.0,860.88,45.25,27.0,-1.0,,,,,,,,,,,,,,,,,,,,,,,2023-08-10 18:56:09.198487+00:00,0.9991693889810851,0.013380365705205557,,,,,,,,,,,,,,,,,,,,,,,,,,,,
2023-08-10 11:56:09.398636-07:00,42.261674,1.42,0.12,-1.4,0.23,26.98,860.88,45.3,28.0,-1.0,,,,,,,,,,,,,,,,,,,,,,,2023-08-10 18:56:09.398636+00:00,0.9992359714212932,0.013381478120280382,,,,,,,,,,,,,,,,,,,,,,,,,,,,
2023-08-10 11:56:09.599022-07:00,42.46206,1.45,-0.11,-1.43,0.18,26.88,860.89,45.65,29.0,-1.0,,,,,,,,,,1.82636,8.55839,18043.6,41.3738,10844.0,-0.342493,-1.0,12.0,-1419.0,58.0,,0.0,,2023-08-10 18:56:09.599022+00:00,0.9995806277884042,0.013387081552067777,,,,,,,,,,,,,,,,,,,,,,,,,,,,
2023-08-10 11:56:09.798911-07:00,42.661949,1.64,-0.46,-1.54,0.3,27.04,860.87,45.25,31.0,-1.0,,,,,,,,,,,,,,,,,,,,,,,2023-08-10 18:56:09.798911+00:00,0.9990246458909041,0.013378102974042,,,,,,,,,,,,,,,,,,,,,,,,,,,,
2023-08-10 11:56:09.998901-07:00,42.861939,1.76,-0.13,-1.74,0.24,27.1,860.9,45.05,33.0,-1.0,,,,,,,,,,,,,,,,,,,,,,,2023-08-10 18:56:09.998901+00:00,0.9988598148477502,0.01337488335263327,,,,,,,,,,,,,,,,,,,,,,,,,,,,
2023-08-10 11:56:10.199022-07:00,43.06206,1.92,0.26,-1.83,0.52,27.1,860.88,45.14,33.0,-1.0,,,,,,,,,,,,,,,,,,,,,,,2023-08-10 18:56:10.199022+00:00,0.9988366098340473,0.01337480645968195,,,,,,,,,,,,,,,,,,,,,,,,,,,,
2023-08-10 11:56:10.399077-07:00,43.262115,2.12,-0.02,-2.08,0.42,27.07,860.88,45.17,33.0,-1.0,,,,,,,,,,,,,,,,,,,,,,,2023-08-10 18:56:10.399077+00:00,0.9989364203006886,0.01337647373830204,,,,,,,,,,,,,,,,,,,,,,,,,,,,
2023-08-10 11:56:10.599152-07:00,43.46219,1.93,0.26,-1.87,0.39,27.15,860.88,44.95,33.0,-1.0,,,,,,,,,,1.82693,8.86743,18074.4,41.3734,10844.0,-0.491427,-1.0,12.0,-1419.0,58.0,,0.0,,2023-08-10 18:56:10.599152+00:00,0.9986703033722035,0.01337202860431666,,,,,,,,,,,,,,,,,,,,,,,,,,,,
2023-08-10 11:56:10.798460-07:00,43.661498,2.04,1.07,-1.7,0.35,27.31,860.88,44.49,32.0,-1.0,,,,,,,,,,1.82693,8.86743,18074.4,41.3734,10844.0,-0.491427,-1.0,12.0,-1419.0,58.0,,0.0,,2023-08-10 18:56:10.798460+00:00,0.9981384946504449,0.01336314737480396,,,,,,,,,,,,,,,,,,,,,,,,,,,,
2023-08-10 11:56:10.999069-07:00,43.862107,2.23,0.95,-1.99,0.35,27.2,860.86,44.83,30.0,-1.0,,,,,,,,,,,,,,,,,,,,,,,2023-08-10 18:56:10.999069+00:00,0.9984808549935354,0.013369175105069254,,,,,,,,,,,,,,,,,,,,,,,,,,,,
2023-08-10 11:56:11.198193-07:00,44.061231,2.36,1.19,-2.02,0.26,27.58,860.86,43.79,29.0,-1.0,,,,,,,,,,,,,,,,,,,,,,,2023-08-10 18:56:11.198193+00:00,0.9972191826465879,0.01334811101467807,,,,,,,,,,,,,,,,,,,,,,,,,,,,
2023-08-10 11:56:11.398961-07:00,44.261999,2.33,1.62,-1.67,0.2,27.89,860.86,42.97,28.0,-1.0,,,,,,,,,,,,,,,,,,,,,,,2023-08-10 18:56:11.398961+00:00,0.9961922827441815,0.013330977257913686,,,,,,,,,,,,,,,,,,,,,,,,,,,,
2023-08-10 11:56:11.598724-07:00,44.461762,2.3,2.15,-0.48,0.66,27.47,860.87,44.17,27.0,-1.0,,,,,,,,,,1.82715,7.29044,18087.7,41.3728,10857.0,-0.479378,-1.0,13.0,-1409.0,58.0,,0.0,,2023-08-10 18:56:11.598724+00:00,0.9975956637947925,0.013354239860538263,,,,,,,,,,,,,,,,,,,,,,,,,,,,
2023-08-10 11:56:11.798481-07:00,44.661519,1.45,1.31,-0.5,0.38,27.3,860.88,44.61,27.0,-1.0,,,,,,,,,,1.82715,7.29044,18087.7,41.3728,10857.0,-0.479378,-1.0,13.0,-1409.0,58.0,,0.0,,2023-08-10 18:56:11.798481+00:00,0.9981717161014235,0.013363702098923859,,,,,,,,,,,,,,,,,,,,,,,,,,,,
2023-08-10 11:56:11.998444-07:00,44.861482,1.41,1.37,-0.28,0.17,26.77,860.88,46.02,27.0,-1.0,,,,,,,,,,,,,,,,,,,,,,,2023-08-10 18:56:11.998444+00:00,0.9999356231750892,0.013393169884491312,,,,,,,,,,,,,,,,,,,,,,,,,,,,
2023-08-10 11:56:12.198313-07:00,45.061351,0.65,0.57,0.25,0.18,27.15,860.86,44.92,27.0,-1.0,,,,,,,,,,,,,,,,,,,,,,,2023-08-10 18:56:12.198313+00:00,0.998647102222139,0.013371951747944234,,,,,,,,,,,,,,,,,,,,,,,,,,,,
2023-08-10 11:56:12.398566-07:00,45.261604,0.54,-0.47,0.24,0.09,27.32,860.85,44.52,28.0,-1.0,,,,,,,,,,,,,,,,,,,,,,,2023-08-10 18:56:12.398566+00:00,0.9980704933757987,0.013362477593083693,,,,,,,,,,,,,,,,,,,,,,,,,,,,
2023-08-10 11:56:12.598361-07:00,45.461399,1.05,1.02,0.12,0.18,27.15,860.86,44.96,29.0,-1.0,,,,,,,,,,,,,,,,,,,,,,,2023-08-10 18:56:12.598361+00:00,0.998647102222139,0.013371951747944234,,,,,,,,,,,,,,,,,,,,,,,,,,,,
2023-08-10 11:56:12.798693-07:00,45.661731,0.84,0.66,-0.46,0.24,27.09,860.86,45.13,30.0,-1.0,,,,,,,,,,,,,,,,,,,,,,,2023-08-10 18:56:12.798693+00:00,0.998846671986772,0.013375285273436911,,,,,,,,,,,,,,,,,,,,,,,,,,,,
2023-08-10 11:56:12.998676-07:00,45.861714,0.87,0.78,-0.01,0.38,27.18,860.87,44.87,31.0,-1.0,,,,,,,,,,,,,,,,,,,,,,,2023-08-10 18:56:12.998676+00:00,0.9985589466586441,0.013370324038448907,,,,,,,,,,,,,,,,,,,,,,,,,,,,
2023-08-10 11:56:13.198546-07:00,46.061584,0.96,0.17,-0.91,0.26,27.16,860.86,44.94,32.0,-1.0,,,,,,,,,,,,,,,,,,,,,,,2023-08-10 18:56:13.198546+00:00,0.9986138483477351,0.013371396325212458,,,,,,,,,,,,,,,,,,,,,,,,,,,,
2023-08-10 11:56:13.398844-07:00,46.261882,1.05,-0.26,-0.92,0.44,27.5,860.85,44.06,33.0,-1.0,,,,,,,,,,,,,,,,,,,,,,,2023-08-10 18:56:13.398844+00:00,0.9974729457662604,0.0133525016241454,,,,,,,,,,,,,,,,,,,,,,,,,,,,
2023-08-10 11:56:13.598976-07:00,46.462014,0.83,-0.0,-0.78,0.27,27.28,860.86,44.62,33.0,-1.0,,,,,,,,,,,,,,,,,,,,,,,2023-08-10 18:56:13.598976+00:00,0.9982149745275385,0.013364734923314943,,,,,,,,,,,,,,,,,,,,,,,,,,,,
2023-08-10 11:56:13.798701-07:00,46.661739,1.3,-0.99,-0.8,0.27,27.9,860.86,43.08,33.0,-1.0,,,,,,,,,,1.82239,8.37854,18102.9,41.3724,10906.0,-0.392427,-1.0,12.0,-1434.0,58.0,,0.0,,2023-08-10 18:56:13.798701+00:00,0.9961591921518299,0.013330425303495546,,,,,,,,,,,,,,,,,,,,,,,,,,,,
2023-08-10 11:56:13.999310-07:00,46.862348,0.94,-0.55,-0.7,0.31,28.01,860.86,42.75,31.0,-1.0,,,,,,,,,,,,,,,,,,,,,,,2023-08-10 18:56:13.999310+00:00,0.9957953406737561,0.013324356882436923,,,,,,,,,,,,,,,,,,,,,,,,,,,,
2023-08-10 11:56:14.198370-07:00,47.061408,1.11,-0.66,-0.69,0.55,28.22,860.85,42.29,29.0,-1.0,,,,,,,,,,,,,,,,,,,,,,,2023-08-10 18:56:14.198370+00:00,0.9950898933026717,0.013312749307657709,,,,,,,,,,,,,,,,,,,,,,,,,,,,
2023-08-10 11:56:14.398538-07:00,47.261576,1.36,-0.43,-1.26,0.28,27.44,860.86,44.2,28.0,-1.0,,,,,,,,,,,,,,,,,,,,,,,2023-08-10 18:56:14.398538+00:00,0.9976836381692948,0.013355863583345779,,,,,,,,,,,,,,,,,,,,,,,,,,,,
2023-08-10 11:56:14.599151-07:00,47.462189,1.78,-0.84,-1.49,0.46,27.14,860.87,45.13,27.0,-1.0,,,,,,,,,,,,,,,,,,,,,,,2023-08-10 18:56:14.599151+00:00,0.9986919592726715,0.013372545649307068,,,,,,,,,,,,,,,,,,,,,,,,,,,,
2023-08-10 11:56:14.814288-07:00,47.677326,1.82,-0.75,-1.61,0.4,27.15,860.86,45.06,27.0,-1.0,,,,,,,,,,,,,,,,,,,,,,,2023-08-10 18:56:14.814288+00:00,0.998647102222139,0.013371951747944234,,,,,,,,,,,,,,,,,,,,,,,,,,,,
2023-08-10 11:56:14.998194-07:00,47.861232,1.75,-0.57,-1.62,0.34,27.25,860.87,44.8,27.0,-1.0,,,,,,,,,,,,,,,,,,,,,,,2023-08-10 18:56:14.998194+00:00,0.9983262598202082,0.013366438031525813,,,,,,,,,,,,,,,,,,,,,,,,,,,,
2023-08-10 11:56:15.199105-07:00,48.062143,1.62,-0.55,-1.5,0.26,27.34,860.87,44.51,27.0,-1.0,,,,,,,,,,,,,,,,,,,,,,,2023-08-10 18:56:15.199105+00:00,0.9980272503244387,0.01336144512289455,,,,,,,,,,,,,,,,,,,,,,,,,,,,
2023-08-10 11:56:15.398979-07:00,48.262017,1.37,-0.33,-1.32,0.16,27.25,860.85,44.8,28.0,-1.0,,,,,,,,,,,,,,,,,,,,,,,2023-08-10 18:56:15.398979+00:00,0.9983030663935627,0.01336636124623034,,,,,,,,,,,,,,,,,,,,,,,,,,,,
2023-08-10 11:56:15.598798-07:00,48.461836,1.15,0.23,-1.11,0.19,27.05,860.87,45.22,28.0,-1.0,,,,,,,,,,,,,,,,,,,,,,,2023-08-10 18:56:15.598798+00:00,0.9989913672551317,0.013377547029465064,,,,,,,,,,,,,,,,,,,,,,,,,,,,
2023-08-10 11:56:15.840571-07:00,48.703609,1.64,-0.27,-1.6,0.24,27.11,860.86,45.16,30.0,-1.0,,,,,,,,,,,,,,,,,,,,,,,2023-08-10 18:56:15.840571+00:00,0.9987801398698075,0.01337417390983281,,,,,,,,,,,,,,,,,,,,,,,,,,,,
2023-08-10 11:56:15.998225-07:00,48.861263,1.19,0.21,-1.11,0.37,27.11,860.87,45.2,31.0,-1.0,,,,,,,,,,,,,,,,,,,,,,,2023-08-10 18:56:15.998225+00:00,0.9987917419902435,0.013374212351943979,,,,,,,,,,,,,,,,,,,,,,,,,,,,
2023-08-10 11:56:16.198600-07:00,49.061638,1.58,-0.02,-1.55,0.34,27.13,860.86,45.06,32.0,-1.0,,,,,,,,,,,,,,,,,,,,,,,2023-08-10 18:56:16.198600+00:00,0.99871361661552,0.013373062734684379,,,,,,,,,,,,,,,,,,,,,,,,,,,,
2023-08-10 11:56:16.398560-07:00,49.261598,1.44,-0.1,-1.36,0.45,27.22,860.87,44.88,34.0,-1.0,,,,,,,,,,,,,,,,,,,,,,,2023-08-10 18:56:16.398560+00:00,0.9984259694709542,0.013368103180757065,,,,,,,,,,,,,,,,,,,,,,,,,,,,
2023-08-10 11:56:16.598450-07:00,49.461488,1.44,-0.51,-1.26,0.46,27.22,860.86,44.87,34.0,-1.0,,,,,,,,,,,,,,,,,,,,,,,2023-08-10 18:56:16.598450+00:00,0.9984143715993886,0.013368064777385136,,,,,,,,,,,,,,,,,,,,,,,,,,,,
2023-08-10 11:56:16.871509-07:00,49.734547,1.45,-0.53,-1.29,0.38,27.44,860.85,44.3,34.0,-1.0,,,,,,,,,,,,,,,,,,,,,,,2023-08-10 18:56:16.871509+00:00,0.9976720487861414,0.01335582525763378,,,,,,,,,,,,,,,,,,,,,,,,,,,,
2023-08-10 11:56:16.998287-07:00,49.861325,1.46,-0.8,-1.11,0.49,27.33,860.86,44.58,32.0,-1.0,,,,,,,,,,,,,,,,,,,,,,,2023-08-10 18:56:16.998287+00:00,0.9980488711305524,0.01336196133784421,,,,,,,,,,,,,,,,,,,,,,,,,,,,
2023-08-10 11:56:17.198419-07:00,50.061457,1.38,-0.65,-1.15,0.4,27.45,860.86,44.27,30.0,-1.0,,,,,,,,,,,,,,,,,,,,,,,2023-08-10 18:56:17.198419+00:00,0.9976504484275063,0.013355309523659261,,,,,,,,,,,,,,,,,,,,,,,,,,,,
2023-08-10 11:56:17.398453-07:00,50.261491,1.46,-1.01,-0.92,0.52,27.5,860.86,44.11,29.0,-1.0,,,,,,,,,,,,,,,,,,,,,,,2023-08-10 18:56:17.398453+00:00,0.9974845328365487,0.01335253992880451,,,,,,,,,,,,,,,,,,,,,,,,,,,,
2023-08-10 11:56:17.598386-07:00,50.461424,1.8,-1.05,-1.38,0.47,27.55,860.87,43.92,28.0,-1.0,,,,,,,,,,,,,,,,,,,,,,,2023-08-10 18:56:17.598386+00:00,0.9973302575656485,0.013349809793501338,,,,,,,,,,,,,,,,,,,,,,,,,,,,
2023-08-10 11:56:17.892809-07:00,50.755847,2.07,-0.96,-1.73,0.6,27.33,860.86,44.57,27.0,-1.0,,,,,,,,,,,,,,,,,,,,,,,2023-08-10 18:56:17.892809+00:00,0.9980488711305524,0.01336196133784421,,,,,,,,,,,,,,,,,,,,,,,,,,,,
2023-08-10 11:56:17.998386-07:00,50.861424,3.21,-1.35,-2.85,0.63,26.92,860.87,45.72,27.0,-1.0,,,,,,,,,,,,,,,,,,,,,,,2023-08-10 18:56:17.998386+00:00,0.9994241625287118,0.013384777988817771,,,,,,,,,,,,,,,,,,,,,,,,,,,,
2023-08-10 11:56:18.198731-07:00,51.061769,2.66,-1.47,-2.04,0.85,27.04,860.87,45.36,27.0,-1.0,,,,,,,,,,,,,,,,,,,,,,,2023-08-10 18:56:18.198731+00:00,0.9990246458909041,0.013378102974042,,,,,,,,,,,,,,,,,,,,,,,,,,,,
2023-08-10 11:56:18.398266-07:00,51.261304,2.22,-0.61,-2.03,0.65,27.2,860.86,44.96,27.0,-1.0,,,,,,,,,,,,,,,,,,,,,,,2023-08-10 18:56:18.398266+00:00,0.9984808549935354,0.013369175105069254,,,,,,,,,,,,,,,,,,,,,,,,,,,,
2023-08-10 11:56:18.598478-07:00,51.461516,3.82,1.21,-3.56,0.65,27.64,860.85,43.77,28.0,-1.0,,,,,,,,,,1.82069,8.32732,18123.0,41.3709,10863.0,-0.262245,-1.0,16.0,-1399.0,58.0,,0.0,,2023-08-10 18:56:18.598478+00:00,0.997008680955571,0.013344753040787683,,,,,,,,,,,,,,,,,,,,,,,,,,,,
2023-08-10 11:56:18.919121-07:00,51.782159,5.03,2.29,-4.47,0.3,27.81,860.79,43.45,29.0,-1.0,,,,,,,,,,,,,,,,,,,,,,,2023-08-10 18:56:18.919121+00:00,0.9963760607008678,0.013335127207448061,,,,,,,,,,,,,,,,,,,,,,,,,,,,
2023-08-10 11:56:18.998466-07:00,51.861504,3.78,0.61,-3.69,0.5,27.53,860.82,44.12,31.0,-1.0,,,,,,,,,,,,,,,,,,,,,,,2023-08-10 18:56:18.998466+00:00,0.9973386663116259,0.013350725559998503,,,,,,,,,,,,,,,,,,,,,,,,,,,,
2023-08-10 11:56:19.198858-07:00,52.061896,2.77,0.8,-2.61,0.51,27.79,860.83,43.53,32.0,-1.0,,,,,,,,,,,,,,,,,,,,,,,2023-08-10 18:56:19.198858+00:00,0.9964885819075624,0.013336384760722166,,,,,,,,,,,,,,,,,,,,,,,,,,,,
