Timestamp,Seconds,S,Um,Vm,Wm,T,P,H,MD,Sts,Vx,Vy,Vz,Lat,Lon,Alt,Yaw,Roll,Pitch,CH4,C2H6,H20,T_a,Batt,R,C2C1,Power,Current,SOC,Lat_a,Lon_a,TS,Timestamp_UTC
2023-08-10 11:55:27.136962-07:00,0.0,3.82,-1.43,-3.53,0.28,26.39,860.92,46.42,26.0,-1.0,,,,,,,,,,,,,,,,,,,,,,,2023-08-10 18:55:27.136962+00:00
2023-08-10 11:55:27.346554-07:00,0.209592,3.27,-1.26,-2.98,0.41,26.34,860.93,46.47,26.0,-1.0,,,,,,,,,,,,,,,,,,,,,,,2023-08-10 18:55:27.346554+00:00
2023-08-10 11:55:27.556813-07:00,0.419851,3.59,-1.52,-3.22,0.46,26.46,860.94,46.12,27.0,-1.0,,,,,,,,,,,,,,,,,,,,,,,2023-08-10 18:55:27.556813+00:00
2023-08-10 11:55:27.766750-07:00,0.629788,3.5,-1.01,-3.34,0.32,26.38,860.93,46.45,27.0,-1.0,,,,,,,,,,1.82925,8.56083,17919.6,41.3912,10881.0,-0.39525,-1.0,13.0,-1412.0,58.0,,0.0,,2023-08-10 18:55:27.766750+00:00
2023-08-10 11:55:27.977047-07:00,0.840085,2.68,-0.69,-2.53,0.54,26.28,860.92,46.61,27.0,-1.0,,,,,,,,,,,,,,,,,,,,,,,2023-08-10 18:55:27.977047+00:00
2023-08-10 11:55:28.186920-07:00,1.049958,2.93,-0.18,-2.84,0.72,26.31,860.93,46.53,28.0,-1.0,,,,,,,,,,,,,,,,,,,,,,,2023-08-10 18:55:28.186920+00:00
2023-08-10 11:55:28.397056-07:00,1.260094,3.28,-1.01,-3.08,0.51,26.47,860.93,46.21,30.0,-1.0,,,,,,,,,,,,,,,,,,,,,,,2023-08-10 18:55:28.397056+00:00
2023-08-10 11:55:28.598826-07:00,1.461864,3.65,-1.47,-3.3,0.48,26.55,860.93,45.95,31.0,-1.0,,,,,,,,,,1.82519,9.92881,17956.9,41.3909,10907.0,-0.390521,-1.0,14.0,-1412.0,58.0,,0.0,,2023-08-10 18:55:28.598826+00:00
2023-08-10 11:55:28.798228-07:00,1.661266,4.02,-1.46,-3.73,0.32,26.48,860.93,46.19,32.0,-1.0,,,,,,,,,,1.82519,9.92881,17956.9,41.3909,10907.0,-0.390521,-1.0,14.0,-1412.0,58.0,,0.0,,2023-08-10 18:55:28.798228+00:00
2023-08-10 11:55:28.998453-07:00,1.861491,3.73,-1.69,-3.3,0.42,26.47,860.92,46.14,32.0,-1.0,,,,,,,,,,,,,,,,,,,,,,,2023-08-10 18:55:28.998453+00:00
2023-08-10 11:55:29.198793-07:00,2.061831,3.39,-1.55,-2.97,0.52,26.53,860.95,45.99,32.0,-1.0,,,,,,,,,,,,,,,,,,,,,,,2023-08-10 18:55:29.198793+00:00
2023-08-10 11:55:29.398803-07:00,2.261841,3.62,-1.36,-3.33,0.4,26.52,860.93,46.02,33.0,-1.0,,,,,,,,,,,,,,,,,,,,,,,2023-08-10 18:55:29.398803+00:00
2023-08-10 11:55:29.598671-07:00,2.461709,3.21,-1.31,-2.89,0.49,26.52,860.92,45.96,31.0,-1.0,,,,,,,,,,,,,,,,,,,,,,,2023-08-10 18:55:29.598671+00:00
2023-08-10 11:55:29.798727-07:00,2.661765,3.18,-1.38,-2.82,0.54,26.43,860.94,46.2,30.0,-1.0,,,,,,,,,,1.8228,10.2284,17975.3,41.3906,10904.0,-0.37374,-1.0,15.0,-1407.0,58.0,,0.0,,2023-08-10 18:55:29.798727+00:00
2023-08-10 11:55:29.998930-07:00,2.861968,3.28,-1.5,-2.86,0.57,26.54,860.92,45.96,29.0,-1.0,,,,,,,,,,,,,,,,,,,,,,,2023-08-10 18:55:29.998930+00:00
2023-08-10 11:55:30.198671-07:00,3.061709,2.64,-1.17,-2.31,0.54,26.59,860.92,45.77,27.0,-1.0,,,,,,,,,,,,,,,,,,,,,,,2023-08-10 18:55:30.198671+00:00
2023-08-10 11:55:30.398852-07:00,3.26189,2.77,-1.48,-2.26,0.64,26.64,860.91,45.7,26.0,-1.0,,,,,,,,,,,,,,,,,,,,,,,2023-08-10 18:55:30.398852+00:00
2023-08-10 11:55:30.599072-07:00,3.46211,2.93,-1.57,-2.38,0.69,26.76,860.9,45.31,26.0,-1.0,,,,,,,,,,1.82062,9.95495,17980.5,41.3904,10904.0,-0.365019,-1.0,14.0,-1418.0,58.0,,0.0,,2023-08-10 18:55:30.599072+00:00
2023-08-10 11:55:30.798871-07:00,3.661909,2.51,-1.38,-1.96,0.75,26.88,860.92,45.14,26.0,-1.0,,,,,,,,,,1.82062,9.95495,17980.5,41.3904,10904.0,-0.365019,-1.0,14.0,-1418.0,58.0,,0.0,,2023-08-10 18:55:30.798871+00:00
2023-08-10 11:55:30.998226-07:00,3.861264,2.49,-1.29,-2.0,0.74,26.88,860.92,45.09,27.0,-1.0,,,,,,,,,,,,,,,,,,,,,,,2023-08-10 18:55:30.998226+00:00
2023-08-10 11:55:31.199177-07:00,4.062215,2.38,-1.15,-1.92,0.8,26.93,860.92,44.98,27.0,-1.0,,,,,,,,,,,,,,,,,,,,,,,2023-08-10 18:55:31.199177+00:00
2023-08-10 11:55:31.398218-07:00,4.261256,2.86,-1.62,-2.15,0.96,26.74,860.92,45.43,28.0,-1.0,,,,,,,,,,,,,,,,,,,,,,,2023-08-10 18:55:31.398218+00:00
2023-08-10 11:55:31.598962-07:00,4.462,2.7,-1.62,-1.98,0.86,26.71,860.93,45.6,29.0,-1.0,,,,,,,,,,1.82455,8.58504,17999.6,41.389,10890.0,-0.375063,-1.0,16.0,-1415.0,58.0,,0.0,,2023-08-10 18:55:31.598962+00:00
2023-08-10 11:55:31.798289-07:00,4.661327,2.46,-1.41,-1.9,0.67,26.92,860.92,45.04,29.0,-1.0,,,,,,,,,,1.82455,8.58504,17999.6,41.389,10890.0,-0.375063,-1.0,16.0,-1415.0,58.0,,0.0,,2023-08-10 18:55:31.798289+00:00
2023-08-10 11:55:31.998383-07:00,4.861421,1.8,-1.04,-1.34,0.6,27.26,860.91,44.11,30.0,-1.0,,,,,,,,,,,,,,,,,,,,,,,2023-08-10 18:55:31.998383+00:00
2023-08-10 11:55:32.199268-07:00,5.062306,2.23,-1.23,-1.75,0.63,27.42,860.91,43.8,31.0,-1.0,,,,,,,,,,,,,,,,,,,,,,,2023-08-10 18:55:32.199268+00:00
2023-08-10 11:55:32.398295-07:00,5.261333,2.65,-1.19,-2.22,0.84,26.99,860.92,44.85,31.0,-1.0,,,,,,,,,,,,,,,,,,,,,,,2023-08-10 18:55:32.398295+00:00
2023-08-10 11:55:32.598377-07:00,5.461415,2.96,-1.55,-2.4,0.77,26.7,860.92,45.66,31.0,-1.0,,,,,,,,,,1.82856,10.1517,18024.1,41.3889,10863.0,-0.342958,-1.0,17.0,-1394.0,58.0,,0.0,,2023-08-10 18:55:32.598377+00:00
2023-08-10 11:55:32.798421-07:00,5.661459,2.67,-1.19,-2.28,0.72,26.81,860.91,45.39,34.0,-1.0,,,,,,,,,,,,,,,,,,,,,,,2023-08-10 18:55:32.798421+00:00
2023-08-10 11:55:32.999066-07:00,5.862104,2.21,-1.09,-1.83,0.56,26.95,860.9,44.92,30.0,-1.0,,,,,,,,,,,,,,,,,,,,,,,2023-08-10 18:55:32.999066+00:00
2023-08-10 11:55:33.199092-07:00,6.06213,2.86,-1.57,-2.34,0.47,26.76,860.9,45.46,29.0,-1.0,,,,,,,,,,,,,,,,,,,,,,,2023-08-10 18:55:33.199092+00:00
2023-08-10 11:55:33.398552-07:00,6.26159,3.07,-1.82,-2.41,0.55,26.58,860.91,45.95,28.0,-1.0,,,,,,,,,,,,,,,,,,,,,,,2023-08-10 18:55:33.398552+00:00
2023-08-10 11:55:33.599169-07:00,6.462207,2.57,-1.58,-1.98,0.4,26.79,860.92,45.35,27.0,-1.0,,,,,,,,,,1.8299,9.64782,18034.8,41.3877,10863.0,-0.433688,-1.0,17.0,-1394.0,58.0,,0.0,,2023-08-10 18:55:33.599169+00:00
2023-08-10 11:55:33.799073-07:00,6.662111,2.52,-1.8,-1.75,0.29,27.06,860.92,44.68,27.0,-1.0,,,,,,,,,,,,,,,,,,,,,,,2023-08-10 18:55:33.799073+00:00
2023-08-10 11:55:33.998880-07:00,6.861918,2.65,-2.03,-1.67,0.35,27.08,860.92,44.63,26.0,-1.0,,,,,,,,,,,,,,,,,,,,,,,2023-08-10 18:55:33.998880+00:00
2023-08-10 11:55:34.198956-07:00,7.061994,3.29,-2.36,-2.24,0.46,26.64,860.91,45.73,25.0,-1.0,,,,,,,,,,,,,,,,,,,,,,,2023-08-10 18:55:34.198956+00:00
2023-08-10 11:55:34.399102-07:00,7.26214,3.08,-2.26,-2.07,0.34,26.85,860.92,45.23,25.0,-1.0,,,,,,,,,,,,,,,,,,,,,,,2023-08-10 18:55:34.399102+00:00
2023-08-10 11:55:34.598787-07:00,7.461825,2.61,-2.18,-1.35,0.49,26.93,860.89,45.07,27.0,-1.0,,,,,,,,,,,,,,,,,,,,,,,2023-08-10 18:55:34.598787+00:00
2023-08-10 11:55:34.798697-07:00,7.661735,2.44,-1.48,-1.92,0.28,27.53,860.91,43.41,28.0,-1.0,,,,,,,,,,1.82159,7.80982,18055.5,41.3879,10841.0,-0.315763,-1.0,17.0,-1387.0,58.0,,0.0,,2023-08-10 18:55:34.798697+00:00
2023-08-10 11:55:34.999038-07:00,7.862076,3.91,-2.41,-3.08,0.24,26.87,860.9,45.17,29.0,-1.0,,,,,,,,,,,,,,,,,,,,,,,2023-08-10 18:55:34.999038+00:00
2023-08-10 11:55:35.198495-07:00,8.061533,4.27,-2.23,-3.63,0.13,26.61,860.91,45.82,29.0,-1.0,,,,,,,,,,,,,,,,,,,,,,,2023-08-10 18:55:35.198495+00:00
2023-08-10 11:55:35.398615-07:00,8.261653,4.1,-1.78,-3.67,0.32,26.55,860.93,46.07,31.0,-1.0,,,,,,,,,,,,,,,,,,,,,,,2023-08-10 18:55:35.398615+00:00
2023-08-10 11:55:35.598474-07:00,8.461512,4.15,-1.78,-3.74,0.25,26.55,860.93,46.08,31.0,-1.0,,,,,,,,,,,,,,,,,,,,,,,2023-08-10 18:55:35.598474+00:00
2023-08-10 11:55:35.798725-07:00,8.661763,3.97,-2.21,-3.3,0.13,26.72,860.91,45.62,32.0,-1.0,,,,,,,,,,1.82296,9.53739,18097.9,41.3872,10863.0,-0.273214,-1.0,16.0,-1387.0,58.0,,0.0,,2023-08-10 18:55:35.798725+00:00
2023-08-10 11:55:35.998956-07:00,8.861994,4.27,-2.01,-3.76,0.13,26.67,860.91,45.81,35.0,-1.0,,,,,,,,,,,,,,,,,,,,,,,2023-08-10 18:55:35.998956+00:00
2023-08-10 11:55:36.198841-07:00,9.061879,4.43,-2.09,-3.91,0.14,26.68,860.91,45.68,31.0,-1.0,,,,,,,,,,,,,,,,,,,,,,,2023-08-10 18:55:36.198841+00:00
2023-08-10 11:55:36.398699-07:00,9.261737,4.31,-1.78,-3.93,0.06,26.56,860.91,46.02,25.0,-1.0,,,,,,,,,,,,,,,,,,,,,,,2023-08-10 18:55:36.398699+00:00
2023-08-10 11:55:36.598874-07:00,9.461912,4.04,-1.48,-3.76,-0.07,26.47,860.89,46.24,26.0,-1.0,,,,,,,,,,1.82382,7.93065,18126.7,41.3863,10891.0,-0.256925,-1.0,15.0,-1388.0,58.0,,0.0,,2023-08-10 18:55:36.598874+00:00
2023-08-10 11:55:36.798635-07:00,9.661673,3.76,-1.64,-3.38,0.18,26.7,860.89,45.73,27.0,-1.0,,,,,,,,,,,,,,,,,,,,,,,2023-08-10 18:55:36.798635+00:00
2023-08-10 11:55:36.998927-07:00,9.861965,3.65,-2.04,-3.0,0.44,26.87,860.89,45.17,25.0,-1.0,,,,,,,,,,,,,,,,,,,,,,,2023-08-10 18:55:36.998927+00:00
2023-08-10 11:55:37.199156-07:00,10.062194,3.84,-1.91,-3.31,0.38,26.89,860.91,45.16,25.0,-1.0,,,,,,,,,,,,,,,,,,,,,,,2023-08-10 18:55:37.199156+00:00
2023-08-10 11:55:37.399093-07:00,10.262131,3.34,-1.74,-2.78,0.64,26.72,860.92,45.69,27.0,-1.0,,,,,,,,,,,,,,,,,,,,,,,2023-08-10 18:55:37.399093+00:00
2023-08-10 11:55:37.598428-07:00,10.461466,2.68,-1.54,-2.11,0.59,26.64,860.91,45.88,26.0,-1.0,,,,,,,,,,,,,,,,,,,,,,,2023-08-10 18:55:37.598428+00:00
2023-08-10 11:55:37.798699-07:00,10.661737,2.56,-1.35,-2.1,0.57,26.68,860.91,45.82,28.0,-1.0,,,,,,,,,,1.82696,8.56741,18094.9,41.3862,10909.0,-0.265194,-1.0,14.0,-1387.0,58.0,,0.0,,2023-08-10 18:55:37.798699+00:00
2023-08-10 11:55:37.998244-07:00,10.861282,2.86,-1.95,-2.03,0.51,26.79,860.9,45.44,30.0,-1.0,,,,,,,,,,,,,,,,,,,,,,,2023-08-10 18:55:37.998244+00:00
2023-08-10 11:55:38.198579-07:00,11.061617,2.27,-1.46,-1.59,0.69,27.09,860.91,44.68,32.0,-1.0,,,,,,,,,,,,,,,,,,,,,,,2023-08-10 18:55:38.198579+00:00
2023-08-10 11:55:38.398915-07:00,11.261953,2.83,-1.5,-2.34,0.54,27.03,860.92,44.81,33.0,-1.0,,,,,,,,,,,,,,,,,,,,,,,2023-08-10 18:55:38.398915+00:00
2023-08-10 11:55:38.599060-07:00,11.462098,3.63,-1.52,-3.27,0.41,26.77,860.94,45.49,33.0,-1.0,,,,,,,,,,1.82464,8.52643,18116.9,41.3862,10916.0,-0.271729,-1.0,15.0,-1403.0,58.0,,0.0,,2023-08-10 18:55:38.599060+00:00
2023-08-10 11:55:38.799078-07:00,11.662116,3.59,-1.48,-3.25,0.4,26.54,860.94,46.17,33.0,-1.0,,,,,,,,,,,,,,,,,,,,,,,2023-08-10 18:55:38.799078+00:00
2023-08-10 11:55:38.998650-07:00,11.861688,3.97,-1.82,-3.52,0.28,26.65,860.93,45.87,31.0,-1.0,,,,,,,,,,,,,,,,,,,,,,,2023-08-10 18:55:38.998650+00:00
2023-08-10 11:55:39.198883-07:00,12.061921,3.49,-1.74,-3.01,0.37,26.55,860.93,46.09,31.0,-1.0,,,,,,,,,,,,,,,,,,,,,,,2023-08-10 18:55:39.198883+00:00
2023-08-10 11:55:39.398537-07:00,12.261575,3.39,-1.34,-3.08,0.41,26.46,860.92,46.41,29.0,-1.0,,,,,,,,,,,,,,,,,,,,,,,2023-08-10 18:55:39.398537+00:00
2023-08-10 11:55:39.598273-07:00,12.461311,3.58,-1.35,-3.29,0.39,26.47,860.92,46.41,27.0,-1.0,,,,,,,,,,,,,,,,,,,,,,,2023-08-10 18:55:39.598273+00:00
2023-08-10 11:55:39.798400-07:00,12.661438,3.68,-1.22,-3.46,0.22,26.31,860.92,46.74,26.0,-1.0,,,,,,,,,,1.82597,9.22591,18117.3,41.3863,10913.0,-0.272803,-1.0,17.0,-1424.0,58.0,,0.0,,2023-08-10 18:55:39.798400+00:00
2023-08-10 11:55:39.998821-07:00,12.861859,3.84,-2.55,-2.86,0.23,26.63,860.89,45.95,27.0,-1.0,,,,,,,,,,,,,,,,,,,,,,,2023-08-10 18:55:39.998821+00:00
2023-08-10 11:55:40.198510-07:00,13.061548,3.82,-1.72,-3.4,0.26,26.65,860.91,45.86,26.0,-1.0,,,,,,,,,,,,,,,,,,,,,,,2023-08-10 18:55:40.198510+00:00
2023-08-10 11:55:40.398600-07:00,13.261638,3.79,-1.72,-3.37,0.12,26.55,860.93,46.14,27.0,-1.0,,,,,,,,,,,,,,,,,,,,,,,2023-08-10 18:55:40.398600+00:00
2023-08-10 11:55:40.598268-07:00,13.461306,3.92,-2.19,-3.25,0.09,26.59,860.9,45.98,27.0,-1.0,,,,,,,,,,,,,,,,,,,,,,,2023-08-10 18:55:40.598268+00:00
2023-08-10 11:55:40.798477-07:00,13.661515,4.49,-3.02,-3.32,0.18,26.67,860.91,45.85,26.0,-1.0,,,,,,,,,,1.81976,7.51558,18100.5,41.3852,10889.0,-0.0544213,-1.0,17.0,-1428.0,58.0,,0.0,,2023-08-10 18:55:40.798477+00:00
2023-08-10 11:55:40.998687-07:00,13.861725,4.46,-1.97,-4.0,-0.06,26.35,860.9,46.68,30.0,-1.0,,,,,,,,,,,,,,,,,,,,,,,2023-08-10 18:55:40.998687+00:00
2023-08-10 11:55:41.198485-07:00,14.061523,4.1,-1.78,-3.69,0.07,26.53,860.91,46.34,26.0,-1.0,,,,,,,,,,,,,,,,,,,,,,,2023-08-10 18:55:41.198485+00:00
2023-08-10 11:55:41.399117-07:00,14.262155,4.16,-1.92,-3.68,0.24,26.59,860.93,46.12,31.0,-1.0,,,,,,,,,,,,,,,,,,,,,,,2023-08-10 18:55:41.399117+00:00
2023-08-10 11:55:41.599148-07:00,14.462186,4.05,-2.08,-3.48,0.16,26.61,860.92,46.02,32.0,-1.0,,,,,,,,,,1.8274,8.00939,18133.0,41.3841,10867.0,-0.0423445,-1.0,18.0,-1403.0,58.0,,0.0,,2023-08-10 18:55:41.599148+00:00
2023-08-10 11:55:41.798302-07:00,14.66134,3.94,-2.17,-3.28,0.17,26.55,860.91,46.19,28.0,-1.0,,,,,,,,,,1.8274,8.00939,18133.0,41.3841,10867.0,-0.0423445,-1.0,18.0,-1403.0,58.0,,0.0,,2023-08-10 18:55:41.798302+00:00
2023-08-10 11:55:41.998468-07:00,14.861506,3.64,-1.79,-3.16,0.2,26.44,860.92,46.37,36.0,-1.0,,,,,,,,,,,,,,,,,,,,,,,2023-08-10 18:55:41.998468+00:00
2023-08-10 11:55:42.198663-07:00,15.061701,4.2,-2.05,-3.66,0.17,26.51,860.92,46.25,33.0,-1.0,,,,,,,,,,,,,,,,,,,,,,,2023-08-10 18:55:42.198663+00:00
2023-08-10 11:55:42.398736-07:00,15.261774,4.28,-2.19,-3.68,0.02,26.35,860.91,46.77,31.0,-1.0,,,,,,,,,,,,,,,,,,,,,,,2023-08-10 18:55:42.398736+00:00
2023-08-10 11:55:42.598614-07:00,15.461652,4.48,-2.02,-3.99,0.13,26.39,860.9,46.65,27.0,-1.0,,,,,,,,,,1.83049,7.58453,18178.5,41.3842,10857.0,-0.0832674,-1.0,19.0,-1386.0,58.0,,0.0,,2023-08-10 18:55:42.598614+00:00
2023-08-10 11:55:42.799046-07:00,15.662084,5.01,-2.33,-4.44,0.09,26.18,860.92,47.14,31.0,-1.0,,,,,,,,,,,,,,,,,,,,,,,2023-08-10 18:55:42.799046+00:00
2023-08-10 11:55:42.998256-07:00,15.861294,4.41,-2.05,-3.89,-0.25,26.28,860.91,46.91,29.0,-1.0,,,,,,,,,,,,,,,,,,,,,,,2023-08-10 18:55:42.998256+00:00
2023-08-10 11:55:43.199004-07:00,16.062042,1.48,0.49,-1.39,0.15,26.48,860.88,46.42,27.0,-1.0,,,,,,,,,,,,,,,,,,,,,,,2023-08-10 18:55:43.199004+00:00
2023-08-10 11:55:43.399105-07:00,16.262143,1.34,0.07,-1.34,0.02,26.6,860.86,46.06,26.0,-1.0,,,,,,,,,,,,,,,,,,,,,,,2023-08-10 18:55:43.399105+00:00
2023-08-10 11:55:43.598902-07:00,16.46194,0.95,0.17,-0.85,0.38,26.68,860.86,45.82,26.0,-1.0,,,,,,,,,,,,,,,,,,,,,,,2023-08-10 18:55:43.598902+00:00
2023-08-10 11:55:43.798698-07:00,16.661736,2.3,-1.3,-1.85,0.41,26.55,860.91,46.27,26.0,-1.0,,,,,,,,,,1.82492,10.1816,18197.5,41.3836,10849.0,-0.0828215,-1.0,15.0,-1403.0,58.0,,0.0,,2023-08-10 18:55:43.798698+00:00
2023-08-10 11:55:43.998256-07:00,16.861294,3.47,-1.88,-2.9,0.31,26.53,860.92,46.28,27.0,-1.0,,,,,,,,,,,,,,,,,,,,,,,2023-08-10 18:55:43.998256+00:00
2023-08-10 11:55:44.198284-07:00,17.061322,4.03,-2.76,-2.93,0.15,26.72,860.9,45.77,28.0,-1.0,,,,,,,,,,,,,,,,,,,,,,,2023-08-10 18:55:44.198284+00:00
2023-08-10 11:55:44.399016-07:00,17.262054,4.01,-2.79,-2.86,0.2,26.83,860.89,45.47,28.0,-1.0,,,,,,,,,,,,,,,,,,,,,,,2023-08-10 18:55:44.399016+00:00
2023-08-10 11:55:44.598677-07:00,17.461715,3.91,-2.73,-2.79,0.22,26.72,860.89,45.78,30.0,-1.0,,,,,,,,,,1.82387,9.33729,18194.1,41.3826,10862.0,-0.0838102,-1.0,14.0,-1385.0,58.0,,0.0,,2023-08-10 18:55:44.598677+00:00
2023-08-10 11:55:44.798697-07:00,17.661735,3.88,-2.77,-2.71,0.14,26.57,860.89,46.13,31.0,-1.0,,,,,,,,,,,,,,,,,,,,,,,2023-08-10 18:55:44.798697+00:00
2023-08-10 11:55:44.998994-07:00,17.862032,4.09,-2.99,-2.78,0.2,26.45,860.87,46.51,33.0,-1.0,,,,,,,,,,,,,,,,,,,,,,,2023-08-10 18:55:44.998994+00:00
2023-08-10 11:55:45.198833-07:00,18.061871,4.15,-2.86,-2.99,0.19,26.42,860.87,46.53,35.0,-1.0,,,,,,,,,,,,,,,,,,,,,,,2023-08-10 18:55:45.198833+00:00
2023-08-10 11:55:45.398903-07:00,18.261941,3.53,-2.74,-2.21,0.26,26.53,860.86,46.32,34.0,-1.0,,,,,,,,,,,,,,,,,,,,,,,2023-08-10 18:55:45.398903+00:00
2023-08-10 11:55:45.598799-07:00,18.461837,3.85,-3.19,-2.15,0.09,26.35,860.85,46.72,33.0,-1.0,,,,,,,,,,,,,,,,,,,,,,,2023-08-10 18:55:45.598799+00:00
2023-08-10 11:55:45.799011-07:00,18.662049,4.14,-3.6,-2.02,-0.15,26.35,860.86,46.73,33.0,-1.0,,,,,,,,,,,,,,,,,,,,,,,2023-08-10 18:55:45.799011+00:00
2023-08-10 11:55:45.998374-07:00,18.861412,3.68,-3.16,-1.88,0.01,26.26,860.86,47.03,30.0,-1.0,,,,,,,,,,,,,,,,,,,,,,,2023-08-10 18:55:45.998374+00:00
2023-08-10 11:55:46.198930-07:00,19.061968,3.59,-3.01,-1.96,0.05,26.26,860.85,47.03,28.0,-1.0,,,,,,,,,,,,,,,,,,,,,,,2023-08-10 18:55:46.198930+00:00
2023-08-10 11:55:46.398368-07:00,19.261406,3.76,-3.22,-1.95,0.0,26.18,860.85,47.24,27.0,-1.0,,,,,,,,,,,,,,,,,,,,,,,2023-08-10 18:55:46.398368+00:00
2023-08-10 11:55:46.598490-07:00,19.461528,3.93,-3.2,-2.27,0.06,26.28,860.84,46.97,26.0,-1.0,,,,,,,,,,,,,,,,,,,,,,,2023-08-10 18:55:46.598490+00:00
2023-08-10 11:55:46.799098-07:00,19.662136,3.89,-2.96,-2.52,0.11,26.32,860.85,46.82,27.0,-1.0,,,,,,,,,,,,,,,,,,,,,,,2023-08-10 18:55:46.799098+00:00
2023-08-10 11:55:46.998236-07:00,19.861274,3.44,-2.63,-2.21,0.24,26.23,860.87,47.07,27.0,-1.0,,,,,,,,,,,,,,,,,,,,,,,2023-08-10 18:55:46.998236+00:00
2023-08-10 11:55:47.198542-07:00,20.06158,3.13,-2.5,-1.87,0.24,26.02,860.88,47.75,26.0,-1.0,,,,,,,,,,,,,,,,,,,,,,,2023-08-10 18:55:47.198542+00:00
2023-08-10 11:55:47.398437-07:00,20.261475,2.87,-2.32,-1.66,0.33,25.95,860.86,47.9,28.0,-1.0,,,,,,,,,,,,,,,,,,,,,,,2023-08-10 18:55:47.398437+00:00
2023-08-10 11:55:47.598467-07:00,20.461505,2.78,-2.21,-1.63,0.43,25.84,860.86,48.19,29.0,-1.0,,,,,,,,,,,,,,,,,,,,,,,2023-08-10 18:55:47.598467+00:00
2023-08-10 11:55:47.798870-07:00,20.661908,2.98,-2.65,-1.31,0.37,25.83,860.85,48.3,30.0,-1.0,,,,,,,,,,1.82364,9.15889,18032.1,41.3819,10910.0,-0.0142468,-1.0,14.0,-1416.0,58.0,,0.0,,2023-08-10 18:55:47.798870+00:00
2023-08-10 11:55:47.999166-07:00,20.862204,2.7,-2.41,-1.18,0.25,26.02,860.85,47.64,32.0,-1.0,,,,,,,,,,,,,,,,,,,,,,,2023-08-10 18:55:47.999166+00:00
2023-08-10 11:55:48.198314-07:00,21.061352,2.27,-2.16,-0.59,0.37,26.5,860.84,46.4,32.0,-1.0,,,,,,,,,,,,,,,,,,,,,,,2023-08-10 18:55:48.198314+00:00
2023-08-10 11:55:48.398535-07:00,21.261573,2.13,-1.93,-0.84,0.32,26.53,860.85,46.4,33.0,-1.0,,,,,,,,,,,,,,,,,,,,,,,2023-08-10 18:55:48.398535+00:00
2023-08-10 11:55:48.598995-07:00,21.462033,2.41,-2.19,-1.01,-0.05,26.14,860.86,47.42,34.0,-1.0,,,,,,,,,,1.82806,7.09139,17984.0,41.3815,10904.0,-0.054342,-1.0,15.0,-1431.0,58.0,,0.0,,2023-08-10 18:55:48.598995+00:00
2023-08-10 11:55:48.798318-07:00,21.661356,2.83,-2.78,-0.49,0.02,26.05,860.84,47.63,32.0,-1.0,,,,,,,,,,1.82806,7.09139,17984.0,41.3815,10904.0,-0.054342,-1.0,15.0,-1431.0,58.0,,0.0,,2023-08-10 18:55:48.798318+00:00
2023-08-10 11:55:48.998751-07:00,21.861789,3.0,-2.92,-0.7,0.07,25.93,860.82,48.0,31.0,-1.0,,,,,,,,,,,,,,,,,,,,,,,2023-08-10 18:55:48.998751+00:00
2023-08-10 11:55:49.198536-07:00,22.061574,2.67,-2.51,-0.91,0.07,25.99,860.82,47.79,29.0,-1.0,,,,,,,,,,,,,,,,,,,,,,,2023-08-10 18:55:49.198536+00:00
2023-08-10 11:55:49.399143-07:00,22.262181,2.73,-2.59,-0.87,0.05,26.05,860.84,47.72,27.0,-1.0,,,,,,,,,,,,,,,,,,,,,,,2023-08-10 18:55:49.399143+00:00
2023-08-10 11:55:49.598632-07:00,22.46167,2.4,-2.25,-0.82,0.06,26.13,860.84,47.51,26.0,-1.0,,,,,,,,,,1.82529,9.43798,17973.8,41.3805,10887.0,-0.0543417,-1.0,15.0,-1415.0,58.0,,0.0,,2023-08-10 18:55:49.598632+00:00
2023-08-10 11:55:49.799061-07:00,22.662099,2.61,-2.56,-0.51,0.06,26.14,860.83,47.42,26.0,-1.0,,,,,,,,,,,,,,,,,,,,,,,2023-08-10 18:55:49.799061+00:00
2023-08-10 11:55:49.999041-07:00,22.862079,2.65,-2.65,-0.09,0.08,26.3,860.83,46.97,26.0,-1.0,,,,,,,,,,,,,,,,,,,,,,,2023-08-10 18:55:49.999041+00:00
2023-08-10 11:55:50.198380-07:00,23.061418,2.56,-2.52,-0.32,0.27,26.1,860.78,47.58,26.0,-1.0,,,,,,,,,,,,,,,,,,,,,,,2023-08-10 18:55:50.198380+00:00
2023-08-10 11:55:50.398898-07:00,23.261936,2.31,-1.71,-1.47,0.48,26.58,860.81,46.18,26.0,-1.0,,,,,,,,,,,,,,,,,,,,,,,2023-08-10 18:55:50.398898+00:00
2023-08-10 11:55:50.598582-07:00,23.46162,2.06,-0.82,-1.86,0.35,26.71,860.82,45.93,27.0,-1.0,,,,,,,,,,1.82298,9.08103,17942.5,41.3822,10852.0,0.031021,-1.0,17.0,-1391.0,58.0,,0.0,,2023-08-10 18:55:50.598582+00:00
2023-08-10 11:55:50.798439-07:00,23.661477,2.08,-0.79,-1.89,0.34,26.82,860.82,45.53,29.0,-1.0,,,,,,,,,,,,,,,,,,,,,,,2023-08-10 18:55:50.798439+00:00
2023-08-10 11:55:50.998940-07:00,23.861978,2.88,-2.31,-1.56,0.72,26.75,860.81,45.68,31.0,-1.0,,,,,,,,,,,,,,,,,,,,,,,2023-08-10 18:55:50.998940+00:00
2023-08-10 11:55:51.198202-07:00,24.06124,2.37,-1.8,-1.5,0.37,26.2,860.8,47.34,32.0,-1.0,,,,,,,,,,,,,,,,,,,,,,,2023-08-10 18:55:51.198202+00:00
2023-08-10 11:55:51.399165-07:00,24.262203,2.2,-1.59,-1.5,0.28,26.21,860.79,47.26,32.0,-1.0,,,,,,,,,,,,,,,,,,,,,,,2023-08-10 18:55:51.399165+00:00
2023-08-10 11:55:51.598684-07:00,24.461722,3.09,-2.7,-1.47,0.33,26.43,860.79,46.67,34.0,-1.0,,,,,,,,,,,,,,,,,,,,,,,2023-08-10 18:55:51.598684+00:00
2023-08-10 11:55:51.798779-07:00,24.661817,3.23,-2.87,-1.41,0.41,26.17,860.77,47.31,33.0,-1.0,,,,,,,,,,1.82133,10.7931,17978.3,41.3799,10852.0,-0.136344,-1.0,17.0,-1391.0,58.0,,0.0,,2023-08-10 18:55:51.798779+00:00
2023-08-10 11:55:51.998921-07:00,24.861959,2.7,-2.48,-0.85,0.64,26.34,860.78,46.9,32.0,-1.0,,,,,,,,,,,,,,,,,,,,,,,2023-08-10 18:55:51.998921+00:00
2023-08-10 11:55:52.198877-07:00,25.061915,3.03,-2.88,-0.81,0.45,26.26,860.78,47.17,30.0,-1.0,,,,,,,,,,,,,,,,,,,,,,,2023-08-10 18:55:52.198877+00:00
2023-08-10 11:55:52.398524-07:00,25.261562,3.84,-3.43,-1.58,0.7,26.6,860.77,46.14,29.0,-1.0,,,,,,,,,,,,,,,,,,,,,,,2023-08-10 18:55:52.398524+00:00
2023-08-10 11:55:52.598546-07:00,25.461584,3.36,-3.13,-1.05,0.62,26.42,860.75,46.62,27.0,-1.0,,,,,,,,,,,,,,,,,,,,,,,2023-08-10 18:55:52.598546+00:00
2023-08-10 11:55:52.798422-07:00,25.66146,3.62,-3.21,-1.45,0.85,26.32,860.75,46.96,26.0,-1.0,,,,,,,,,,1.82478,8.97613,17978.4,41.3803,10847.0,-0.121174,-1.0,16.0,-1390.0,58.0,,0.0,,2023-08-10 18:55:52.798422+00:00
2023-08-10 11:55:52.998984-07:00,25.862022,4.57,-3.62,-2.73,0.57,26.35,860.75,46.79,26.0,-1.0,,,,,,,,,,,,,,,,,,,,,,,2023-08-10 18:55:52.998984+00:00
2023-08-10 11:55:53.198569-07:00,26.061607,4.47,-3.49,-2.78,0.19,26.39,860.76,46.78,26.0,-1.0,,,,,,,,,,,,,,,,,,,,,,,2023-08-10 18:55:53.198569+00:00
2023-08-10 11:55:53.398886-07:00,26.261924,4.35,-3.16,-2.97,0.32,26.56,860.78,46.3,26.0,-1.0,,,,,,,,,,,,,,,,,,,,,,,2023-08-10 18:55:53.398886+00:00
2023-08-10 11:55:53.598966-07:00,26.462004,4.0,-3.05,-2.58,0.18,26.3,860.77,47.02,27.0,-1.0,,,,,,,,,,1.82327,7.59828,17976.6,41.3797,10853.0,-0.0896779,-1.0,14.0,-1385.0,58.0,,0.0,,2023-08-10 18:55:53.598966+00:00
2023-08-10 11:55:53.798170-07:00,26.661208,3.78,-3.2,-2.0,0.04,26.27,860.78,47.15,29.0,-1.0,,,,,,,,,,1.82327,7.59828,17976.6,41.3797,10853.0,-0.0896779,-1.0,14.0,-1385.0,58.0,,0.0,,2023-08-10 18:55:53.798170+00:00
2023-08-10 11:55:53.998634-07:00,26.861672,3.72,-2.83,-2.41,0.22,26.26,860.79,47.19,30.0,-1.0,,,,,,,,,,,,,,,,,,,,,,,2023-08-10 18:55:53.998634+00:00
2023-08-10 11:55:54.198943-07:00,27.061981,3.45,-2.64,-2.2,0.26,26.24,860.79,47.18,32.0,-1.0,,,,,,,,,,,,,,,,,,,,,,,2023-08-10 18:55:54.198943+00:00
2023-08-10 11:55:54.398588-07:00,27.261626,3.03,-2.02,-2.24,0.3,26.2,860.8,47.2,33.0,-1.0,,,,,,,,,,,,,,,,,,,,,,,2023-08-10 18:55:54.398588+00:00
2023-08-10 11:55:54.598232-07:00,27.46127,3.11,-2.3,-2.07,0.33,26.25,860.8,47.1,34.0,-1.0,,,,,,,,,,,,,,,,,,,,,,,2023-08-10 18:55:54.598232+00:00
2023-08-10 11:55:54.798576-07:00,27.661614,3.03,-2.17,-2.11,0.11,26.19,860.82,47.27,33.0,-1.0,,,,,,,,,,,,,,,,,,,,,,,2023-08-10 18:55:54.798576+00:00
2023-08-10 11:55:54.999129-07:00,27.862167,3.24,-2.44,-2.13,0.13,26.28,860.81,47.11,32.0,-1.0,,,,,,,,,,,,,,,,,,,,,,,2023-08-10 18:55:54.999129+00:00
2023-08-10 11:55:55.198510-07:00,28.061548,3.55,-2.76,-2.23,0.2,26.31,860.82,47.03,30.0,-1.0,,,,,,,,,,,,,,,,,,,,,,,2023-08-10 18:55:55.198510+00:00
2023-08-10 11:55:55.398436-07:00,28.261474,3.47,-2.47,-2.43,0.13,26.31,860.82,46.98,29.0,-1.0,,,,,,,,,,,,,,,,,,,,,,,2023-08-10 18:55:55.398436+00:00
2023-08-10 11:55:55.598961-07:00,28.461999,3.14,-2.45,-1.94,0.28,26.22,860.81,47.34,28.0,-1.0,,,,,,,,,,1.82595,8.76932,17949.3,41.3782,10888.0,-0.170723,-1.0,12.0,-1379.0,58.0,,0.0,,2023-08-10 18:55:55.598961+00:00
2023-08-10 11:55:55.798598-07:00,28.661636,2.89,-2.22,-1.79,0.45,26.16,860.81,47.46,27.0,-1.0,,,,,,,,,,,,,,,,,,,,,,,2023-08-10 18:55:55.798598+00:00
2023-08-10 11:55:55.998591-07:00,28.861629,2.42,-2.05,-1.26,0.31,26.24,860.81,47.23,26.0,-1.0,,,,,,,,,,,,,,,,,,,,,,,2023-08-10 18:55:55.998591+00:00
2023-08-10 11:55:56.198434-07:00,29.061472,1.8,-1.55,-0.88,0.24,26.48,860.8,46.52,26.0,-1.0,,,,,,,,,,,,,,,,,,,,,,,2023-08-10 18:55:56.198434+00:00
2023-08-10 11:55:56.398912-07:00,29.26195,1.89,-1.72,-0.72,0.3,26.48,860.8,46.46,26.0,-1.0,,,,,,,,,,,,,,,,,,,,,,,2023-08-10 18:55:56.398912+00:00
2023-08-10 11:55:56.598284-07:00,29.461322,1.75,-1.67,-0.26,0.43,26.66,860.8,46.04,27.0,-1.0,,,,,,,,,,,,,,,,,,,,,,,2023-08-10 18:55:56.598284+00:00
2023-08-10 11:55:56.799185-07:00,29.662223,2.36,-2.34,-0.21,0.24,26.55,860.8,46.37,28.0,-1.0,,,,,,,,,,,,,,,,,,,,,,,2023-08-10 18:55:56.799185+00:00
2023-08-10 11:55:56.998998-07:00,29.862036,2.16,-2.16,-0.06,-0.0,26.49,860.82,46.59,29.0,-1.0,,,,,,,,,,,,,,,,,,,,,,,2023-08-10 18:55:56.998998+00:00
2023-08-10 11:55:57.198335-07:00,30.061373,1.77,-1.73,-0.31,0.21,26.49,860.81,46.5,30.0,-1.0,,,,,,,,,,,,,,,,,,,,,,,2023-08-10 18:55:57.198335+00:00
2023-08-10 11:55:57.399063-07:00,30.262101,1.86,-1.83,-0.21,0.22,26.51,860.81,46.54,31.0,-1.0,,,,,,,,,,,,,,,,,,,,,,,2023-08-10 18:55:57.399063+00:00
2023-08-10 11:55:57.598433-07:00,30.461471,2.05,-2.04,-0.04,0.2,26.74,860.82,45.81,32.0,-1.0,,,,,,,,,,,,,,,,,,,,,,,2023-08-10 18:55:57.598433+00:00
2023-08-10 11:55:57.798933-07:00,30.661971,2.35,-2.33,-0.06,0.28,26.41,860.81,46.7,33.0,-1.0,,,,,,,,,,,,,,,,,,,,,,,2023-08-10 18:55:57.798933+00:00
2023-08-10 11:55:57.998378-07:00,30.861416,3.13,-2.72,-1.46,0.5,26.44,860.81,46.69,33.0,-1.0,,,,,,,,,,,,,,,,,,,,,,,2023-08-10 18:55:57.998378+00:00
2023-08-10 11:55:58.198843-07:00,31.061881,2.02,-1.83,-0.57,0.64,26.68,860.79,46.08,32.0,-1.0,,,,,,,,,,,,,,,,,,,,,,,2023-08-10 18:55:58.198843+00:00
2023-08-10 11:55:58.398953-07:00,31.261991,1.9,-1.83,-0.32,0.4,26.9,860.8,45.47,30.0,-1.0,,,,,,,,,,,,,,,,,,,,,,,2023-08-10 18:55:58.398953+00:00
2023-08-10 11:55:58.598470-07:00,31.461508,3.08,-2.75,-1.24,0.59,26.61,860.79,46.27,29.0,-1.0,,,,,,,,,,,,,,,,,,,,,,,2023-08-10 18:55:58.598470+00:00
2023-08-10 11:55:58.798400-07:00,31.661438,3.2,-2.99,-1.12,-0.17,26.19,860.79,47.47,27.0,-1.0,,,,,,,,,,1.82941,9.54121,18004.5,41.3773,10876.0,-0.0829317,-1.0,17.0,-1420.0,58.0,,0.0,,2023-08-10 18:55:58.798400+00:00
2023-08-10 11:55:58.998780-07:00,31.861818,3.05,-2.91,-0.91,0.11,26.23,860.78,47.21,27.0,-1.0,,,,,,,,,,,,,,,,,,,,,,,2023-08-10 18:55:58.998780+00:00
2023-08-10 11:55:59.198320-07:00,32.061358,2.51,-1.93,-1.56,0.4,26.21,860.8,47.31,27.0,-1.0,,,,,,,,,,,,,,,,,,,,,,,2023-08-10 18:55:59.198320+00:00
2023-08-10 11:55:59.398924-07:00,32.261962,2.04,-1.13,-1.69,0.16,26.36,860.81,46.95,27.0,-1.0,,,,,,,,,,,,,,,,,,,,,,,2023-08-10 18:55:59.398924+00:00
2023-08-10 11:55:59.599030-07:00,32.462068,2.31,-2.04,-1.04,0.35,26.47,860.81,46.64,27.0,-1.0,,,,,,,,,,,,,,,,,,,,,,,2023-08-10 18:55:59.599030+00:00
2023-08-10 11:55:59.798231-07:00,32.661269,2.42,-1.95,-1.35,0.49,26.41,860.8,46.87,28.0,-1.0,,,,,,,,,,1.82627,9.4656,18015.4,41.3768,10857.0,-0.040488,-1.0,16.0,-1400.0,58.0,,0.0,,2023-08-10 18:55:59.798231+00:00
2023-08-10 11:55:59.998929-07:00,32.861967,2.21,-1.54,-1.54,0.34,26.45,860.82,46.6,28.0,-1.0,,,,,,,,,,,,,,,,,,,,,,,2023-08-10 18:55:59.998929+00:00
2023-08-10 11:56:00.198475-07:00,33.061513,1.52,-0.66,-1.36,0.13,26.67,860.83,46.1,30.0,-1.0,,,,,,,,,,,,,,,,,,,,,,,2023-08-10 18:56:00.198475+00:00
2023-08-10 11:56:00.398747-07:00,33.261785,1.5,-0.49,-1.41,0.18,26.5,860.83,46.56,31.0,-1.0,,,,,,,,,,,,,,,,,,,,,,,2023-08-10 18:56:00.398747+00:00
2023-08-10 11:56:00.598859-07:00,33.461897,1.58,-0.09,-1.55,0.31,26.57,860.84,46.32,33.0,-1.0,,,,,,,,,,1.82545,8.41117,18020.9,41.3769,10846.0,0.0210273,-1.0,14.0,-1398.0,58.0,,0.0,,2023-08-10 18:56:00.598859+00:00
2023-08-10 11:56:00.798857-07:00,33.661895,2.18,0.13,-2.17,0.21,26.22,860.83,47.28,33.0,-1.0,,,,,,,,,,,,,,,,,,,,,,,2023-08-10 18:56:00.798857+00:00
2023-08-10 11:56:00.998760-07:00,33.861798,2.14,0.02,-2.13,0.23,26.55,860.85,46.38,33.0,-1.0,,,,,,,,,,,,,,,,,,,,,,,2023-08-10 18:56:00.998760+00:00
2023-08-10 11:56:01.198765-07:00,34.061803,1.57,-0.49,-1.48,0.24,26.96,860.86,45.32,32.0,-1.0,,,,,,,,,,,,,,,,,,,,,,,2023-08-10 18:56:01.198765+00:00
2023-08-10 11:56:01.398566-07:00,34.261604,0.97,-0.24,-0.93,0.15,26.82,860.86,45.69,32.0,-1.0,,,,,,,,,,,,,,,,,,,,,,,2023-08-10 18:56:01.398566+00:00
2023-08-10 11:56:01.598761-07:00,34.461799,1.34,-0.83,-1.01,0.28,26.78,860.85,45.8,30.0,-1.0,,,,,,,,,,1.83064,8.04651,18013.5,41.376,10846.0,-0.0441348,-1.0,14.0,-1398.0,58.0,,0.0,,2023-08-10 18:56:01.598761+00:00
2023-08-10 11:56:01.799025-07:00,34.662063,2.11,-1.73,-1.12,0.42,26.42,860.87,46.84,29.0,-1.0,,,,,,,,,,,,,,,,,,,,,,,2023-08-10 18:56:01.799025+00:00
2023-08-10 11:56:01.998926-07:00,34.861964,2.43,-2.11,-1.21,0.19,26.28,860.86,47.17,28.0,-1.0,,,,,,,,,,,,,,,,,,,,,,,2023-08-10 18:56:01.998926+00:00
2023-08-10 11:56:02.198639-07:00,35.061677,2.48,-2.33,-0.85,0.04,26.23,860.84,47.32,27.0,-1.0,,,,,,,,,,,,,,,,,,,,,,,2023-08-10 18:56:02.198639+00:00
2023-08-10 11:56:02.398879-07:00,35.261917,2.23,-2.03,-0.92,0.09,26.41,860.85,46.81,27.0,-1.0,,,,,,,,,,,,,,,,,,,,,,,2023-08-10 18:56:02.398879+00:00
2023-08-10 11:56:02.599127-07:00,35.462165,2.14,-1.95,-0.82,0.29,26.59,860.86,46.28,27.0,-1.0,,,,,,,,,,1.82068,10.1349,18017.0,41.3764,10858.0,-0.168181,-1.0,12.0,-1402.0,58.0,,0.0,,2023-08-10 18:56:02.599127+00:00
2023-08-10 11:56:02.798732-07:00,35.66177,1.9,-1.84,-0.45,0.21,26.56,860.84,46.45,27.0,-1.0,,,,,,,,,,,,,,,,,,,,,,,2023-08-10 18:56:02.798732+00:00
2023-08-10 11:56:02.998410-07:00,35.861448,2.34,-2.07,-1.02,0.43,26.57,860.85,46.48,28.0,-1.0,,,,,,,,,,,,,,,,,,,,,,,2023-08-10 18:56:02.998410+00:00
2023-08-10 11:56:03.198363-07:00,36.061401,2.38,-2.08,-1.06,0.46,26.63,860.85,46.24,29.0,-1.0,,,,,,,,,,,,,,,,,,,,,,,2023-08-10 18:56:03.198363+00:00
2023-08-10 11:56:03.398881-07:00,36.261919,2.49,-1.69,-1.8,0.32,27.07,860.86,45.07,29.0,-1.0,,,,,,,,,,,,,,,,,,,,,,,2023-08-10 18:56:03.398881+00:00
2023-08-10 11:56:03.598991-07:00,36.462029,2.14,-1.2,-1.67,0.61,27.13,860.87,44.88,31.0,-1.0,,,,,,,,,,,,,,,,,,,,,,,2023-08-10 18:56:03.598991+00:00
2023-08-10 11:56:03.798410-07:00,36.661448,1.92,-0.95,-1.52,0.67,27.16,860.88,44.89,32.0,-1.0,,,,,,,,,,1.82857,8.27608,18019.6,41.3759,10879.0,-0.246537,-1.0,11.0,-1397.0,58.0,,0.0,,2023-08-10 18:56:03.798410+00:00
2023-08-10 11:56:03.998788-07:00,36.861826,1.79,-0.79,-1.52,0.51,27.26,860.88,44.58,33.0,-1.0,,,,,,,,,,,,,,,,,,,,,,,2023-08-10 18:56:03.998788+00:00
2023-08-10 11:56:04.198673-07:00,37.061711,1.77,-0.87,-1.46,0.47,27.19,860.89,44.75,34.0,-1.0,,,,,,,,,,,,,,,,,,,,,,,2023-08-10 18:56:04.198673+00:00
2023-08-10 11:56:04.398604-07:00,37.261642,1.91,-0.87,-1.63,0.48,26.92,860.87,45.44,33.0,-1.0,,,,,,,,,,,,,,,,,,,,,,,2023-08-10 18:56:04.398604+00:00
2023-08-10 11:56:04.598781-07:00,37.461819,2.08,-0.74,-1.89,0.43,26.78,860.88,45.9,32.0,-1.0,,,,,,,,,,1.82826,9.49256,18075.4,41.375,10898.0,-0.284288,-1.0,13.0,-1389.0,58.0,,0.0,,2023-08-10 18:56:04.598781+00:00
2023-08-10 11:56:04.798392-07:00,37.66143,2.52,-0.97,-2.27,0.48,26.58,860.88,46.35,31.0,-1.0,,,,,,,,,,1.82826,9.49256,18075.4,41.375,10898.0,-0.284288,-1.0,13.0,-1389.0,58.0,,0.0,,2023-08-10 18:56:04.798392+00:00
2023-08-10 11:56:04.998330-07:00,37.861368,2.56,-0.93,-2.33,0.48,26.47,860.88,46.74,29.0,-1.0,,,,,,,,,,,,,,,,,,,,,,,2023-08-10 18:56:04.998330+00:00
2023-08-10 11:56:05.198485-07:00,38.061523,2.5,-0.57,-2.4,0.41,26.47,860.88,46.7,28.0,-1.0,,,,,,,,,,,,,,,,,,,,,,,2023-08-10 18:56:05.198485+00:00
2023-08-10 11:56:05.398607-07:00,38.261645,2.68,-0.65,-2.57,0.46,26.35,860.86,47.03,27.0,-1.0,,,,,,,,,,,,,,,,,,,,,,,2023-08-10 18:56:05.398607+00:00
2023-08-10 11:56:05.598655-07:00,38.461693,2.24,-0.23,-2.21,0.26,26.35,860.87,47.01,27.0,-1.0,,,,,,,,,,,,,,,,,,,,,,,2023-08-10 18:56:05.598655+00:00
2023-08-10 11:56:05.799132-07:00,38.66217,2.11,-0.03,-2.09,0.29,26.37,860.88,46.92,27.0,-1.0,,,,,,,,,,,,,,,,,,,,,,,2023-08-10 18:56:05.799132+00:00
2023-08-10 11:56:05.998273-07:00,38.861311,2.38,-0.54,-2.31,0.19,26.61,860.88,46.3,28.0,-1.0,,,,,,,,,,,,,,,,,,,,,,,2023-08-10 18:56:05.998273+00:00
2023-08-10 11:56:06.198289-07:00,39.061327,2.05,-0.28,-2.02,0.24,26.68,860.89,46.13,28.0,-1.0,,,,,,,,,,,,,,,,,,,,,,,2023-08-10 18:56:06.198289+00:00
2023-08-10 11:56:06.399149-07:00,39.262187,1.62,-0.23,-1.57,0.29,26.64,860.88,46.28,29.0,-1.0,,,,,,,,,,,,,,,,,,,,,,,2023-08-10 18:56:06.399149+00:00
2023-08-10 11:56:06.598691-07:00,39.461729,1.93,-0.31,-1.88,0.3,26.6,860.89,46.44,30.0,-1.0,,,,,,,,,,,,,,,,,,,,,,,2023-08-10 18:56:06.598691+00:00
2023-08-10 11:56:06.799122-07:00,39.66216,2.09,-0.18,-2.08,0.13,26.54,860.89,46.6,31.0,-1.0,,,,,,,,,,,,,,,,,,,,,,,2023-08-10 18:56:06.799122+00:00
2023-08-10 11:56:06.999111-07:00,39.862149,2.2,-0.26,-2.17,0.25,26.48,860.89,46.72,33.0,-1.0,,,,,,,,,,,,,,,,,,,,,,,2023-08-10 18:56:06.999111+00:00
2023-08-10 11:56:07.198439-07:00,40.061477,1.58,0.22,-1.55,0.2,26.72,860.88,46.12,33.0,-1.0,,,,,,,,,,,,,,,,,,,,,,,2023-08-10 18:56:07.198439+00:00
2023-08-10 11:56:07.398929-07:00,40.261967,1.83,0.02,-1.82,0.21,26.61,860.87,46.37,33.0,-1.0,,,,,,,,,,,,,,,,,,,,,,,2023-08-10 18:56:07.398929+00:00
2023-08-10 11:56:07.598965-07:00,40.462003,1.84,0.27,-1.81,0.22,26.69,860.88,46.14,32.0,-1.0,,,,,,,,,,,,,,,,,,,,,,,2023-08-10 18:56:07.598965+00:00
2023-08-10 11:56:07.799094-07:00,40.662132,1.14,0.39,-1.03,0.3,26.81,860.88,45.82,31.0,-1.0,,,,,,,,,,,,,,,,,,,,,,,2023-08-10 18:56:07.799094+00:00
2023-08-10 11:56:07.998220-07:00,40.861258,1.24,0.57,-1.03,0.38,26.68,860.88,46.11,30.0,-1.0,,,,,,,,,,,,,,,,,,,,,,,2023-08-10 18:56:07.998220+00:00
2023-08-10 11:56:08.198592-07:00,41.06163,1.49,0.18,-1.45,0.26,26.68,860.87,46.17,28.0,-1.0,,,,,,,,,,,,,,,,,,,,,,,2023-08-10 18:56:08.198592+00:00
2023-08-10 11:56:08.398341-07:00,41.261379,1.5,-0.51,-1.37,0.37,26.85,860.87,45.71,27.0,-1.0,,,,,,,,,,,,,,,,,,,,,,,2023-08-10 18:56:08.398341+00:00
2023-08-10 11:56:08.598228-07:00,41.461266,1.41,-0.27,-1.36,0.29,26.94,860.88,45.46,26.0,-1.0,,,,,,,,,,1.82662,8.20331,18039.7,41.3733,10847.0,-0.341704,-1.0,14.0,-1412.0,58.0,,0.0,,2023-08-10 18:56:08.598228+00:00
2023-08-10 11:56:08.798179-07:00,41.661217,1.37,-0.31,-1.26,0.43,27.2,860.88,44.84,26.0,-1.0,,,,,,,,,,1.82662,8.20331,18039.7,41.3733,10847.0,-0.341704,-1.0,14.0,-1412.0,58.0,,0.0,,2023-08-10 18:56:08.798179+00:00
2023-08-10 11:56:08.998540-07:00,41.861578,1.45,-0.55,-1.31,0.3,27.18,860.89,44.89,27.0,-1.0,,,,,,,,,,,,,,,,,,,,,,,2023-08-10 18:56:08.998540+00:00
2023-08-10 11:56:09.198487-07:00,42.061525,1.49,-0.35,-1.44,0.16,27.0,860.88,45.25,27.0,-1.0,,,,,,,,,,,,,,,,,,,,,,,2023-08-10 18:56:09.198487+00:00
2023-08-10 11:56:09.398636-07:00,42.261674,1.42,0.12,-1.4,0.23,26.98,860.88,45.3,28.0,-1.0,,,,,,,,,,,,,,,,,,,,,,,2023-08-10 18:56:09.398636+00:00
2023-08-10 11:56:09.599022-07:00,42.46206,1.45,-0.11,-1.43,0.18,26.88,860.89,45.65,29.0,-1.0,,,,,,,,,,1.82636,8.55839,18043.6,41.3738,10844.0,-0.342493,-1.0,12.0,-1419.0,58.0,,0.0,,2023-08-10 18:56:09.599022+00:00
2023-08-10 11:56:09.798911-07:00,42.661949,1.64,-0.46,-1.54,0.3,27.04,860.87,45.25,31.0,-1.0,,,,,,,,,,,,,,,,,,,,,,,2023-08-10 18:56:09.798911+00:00
2023-08-10 11:56:09.998901-07:00,42.861939,1.76,-0.13,-1.74,0.24,27.1,860.9,45.05,33.0,-1.0,,,,,,,,,,,,,,,,,,,,,,,2023-08-10 18:56:09.998901+00:00
2023-08-10 11:56:10.199022-07:00,43.06206,1.92,0.26,-1.83,0.52,27.1,860.88,45.14,33.0,-1.0,,,,,,,,,,,,,,,,,,,,,,,2023-08-10 18:56:10.199022+00:00
2023-08-10 11:56:10.399077-07:00,43.262115,2.12,-0.02,-2.08,0.42,27.07,860.88,45.17,33.0,-1.0,,,,,,,,,,,,,,,,,,,,,,,2023-08-10 18:56:10.399077+00:00
2023-08-10 11:56:10.599152-07:00,43.46219,1.93,0.26,-1.87,0.39,27.15,860.88,44.95,33.0,-1.0,,,,,,,,,,1.82693,8.86743,18074.4,41.3734,10844.0,-0.491427,-1.0,12.0,-1419.0,58.0,,0.0,,2023-08-10 18:56:10.599152+00:00
2023-08-10 11:56:10.798460-07:00,43.661498,2.04,1.07,-1.7,0.35,27.31,860.88,44.49,32.0,-1.0,,,,,,,,,,1.82693,8.86743,18074.4,41.3734,10844.0,-0.491427,-1.0,12.0,-1419.0,58.0,,0.0,,2023-08-10 18:56:10.798460+00:00
2023-08-10 11:56:10.999069-07:00,43.862107,2.23,0.95,-1.99,0.35,27.2,860.86,44.83,30.0,-1.0,,,,,,,,,,,,,,,,,,,,,,,2023-08-10 18:56:10.999069+00:00
2023-08-10 11:56:11.198193-07:00,44.061231,2.36,1.19,-2.02,0.26,27.58,860.86,43.79,29.0,-1.0,,,,,,,,,,,,,,,,,,,,,,,2023-08-10 18:56:11.198193+00:00
2023-08-10 11:56:11.398961-07:00,44.261999,2.33,1.62,-1.67,0.2,27.89,860.86,42.97,28.0,-1.0,,,,,,,,,,,,,,,,,,,,,,,2023-08-10 18:56:11.398961+00:00
2023-08-10 11:56:11.598724-07:00,44.461762,2.3,2.15,-0.48,0.66,27.47,860.87,44.17,27.0,-1.0,,,,,,,,,,1.82715,7.29044,18087.7,41.3728,10857.0,-0.479378,-1.0,13.0,-1409.0,58.0,,0.0,,2023-08-10 18:56:11.598724+00:00
2023-08-10 11:56:11.798481-07:00,44.661519,1.45,1.31,-0.5,0.38,27.3,860.88,44.61,27.0,-1.0,,,,,,,,,,1.82715,7.29044,18087.7,41.3728,10857.0,-0.479378,-1.0,13.0,-1409.0,58.0,,0.0,,2023-08-10 18:56:11.798481+00:00
2023-08-10 11:56:11.998444-07:00,44.861482,1.41,1.37,-0.28,0.17,26.77,860.88,46.02,27.0,-1.0,,,,,,,,,,,,,,,,,,,,,,,2023-08-10 18:56:11.998444+00:00
2023-08-10 11:56:12.198313-07:00,45.061351,0.65,0.57,0.25,0.18,27.15,860.86,44.92,27.0,-1.0,,,,,,,,,,,,,,,,,,,,,,,2023-08-10 18:56:12.198313+00:00
2023-08-10 11:56:12.398566-07:00,45.261604,0.54,-0.47,0.24,0.09,27.32,860.85,44.52,28.0,-1.0,,,,,,,,,,,,,,,,,,,,,,,2023-08-10 18:56:12.398566+00:00
2023-08-10 11:56:12.598361-07:00,45.461399,1.05,1.02,0.12,0.18,27.15,860.86,44.96,29.0,-1.0,,,,,,,,,,,,,,,,,,,,,,,2023-08-10 18:56:12.598361+00:00
2023-08-10 11:56:12.798693-07:00,45.661731,0.84,0.66,-0.46,0.24,27.09,860.86,45.13,30.0,-1.0,,,,,,,,,,,,,,,,,,,,,,,2023-08-10 18:56:12.798693+00:00
2023-08-10 11:56:12.998676-07:00,45.861714,0.87,0.78,-0.01,0.38,27.18,860.87,44.87,31.0,-1.0,,,,,,,,,,,,,,,,,,,,,,,2023-08-10 18:56:12.998676+00:00
2023-08-10 11:56:13.198546-07:00,46.061584,0.96,0.17,-0.91,0.26,27.16,860.86,44.94,32.0,-1.0,,,,,,,,,,,,,,,,,,,,,,,2023-08-10 18:56:13.198546+00:00
2023-08-10 11:56:13.398844-07:00,46.261882,1.05,-0.26,-0.92,0.44,27.5,860.85,44.06,33.0,-1.0,,,,,,,,,,,,,,,,,,,,,,,2023-08-10 18:56:13.398844+00:00
2023-08-10 11:56:13.598976-07:00,46.462014,0.83,-0.0,-0.78,0.27,27.28,860.86,44.62,33.0,-1.0,,,,,,,,,,,,,,,,,,,,,,,2023-08-10 18:56:13.598976+00:00
2023-08-10 11:56:13.798701-07:00,46.661739,1.3,-0.99,-0.8,0.27,27.9,860.86,43.08,33.0,-1.0,,,,,,,,,,1.82239,8.37854,18102.9,41.3724,10906.0,-0.392427,-1.0,12.0,-1434.0,58.0,,0.0,,2023-08-10 18:56:13.798701+00:00
2023-08-10 11:56:13.999310-07:00,46.862348,0.94,-0.55,-0.7,0.31,28.01,860.86,42.75,31.0,-1.0,,,,,,,,,,,,,,,,,,,,,,,2023-08-10 18:56:13.999310+00:00
2023-08-10 11:56:14.198370-07:00,47.061408,1.11,-0.66,-0.69,0.55,28.22,860.85,42.29,29.0,-1.0,,,,,,,,,,,,,,,,,,,,,,,2023-08-10 18:56:14.198370+00:00
2023-08-10 11:56:14.398538-07:00,47.261576,1.36,-0.43,-1.26,0.28,27.44,860.86,44.2,28.0,-1.0,,,,,,,,,,,,,,,,,,,,,,,2023-08-10 18:56:14.398538+00:00
2023-08-10 11:56:14.599151-07:00,47.462189,1.78,-0.84,-1.49,0.46,27.14,860.87,45.13,27.0,-1.0,,,,,,,,,,,,,,,,,,,,,,,2023-08-10 18:56:14.599151+00:00
2023-08-10 11:56:14.814288-07:00,47.677326,1.82,-0.75,-1.61,0.4,27.15,860.86,45.06,27.0,-1.0,,,,,,,,,,,,,,,,,,,,,,,2023-08-10 18:56:14.814288+00:00
2023-08-10 11:56:14.998194-07:00,47.861232,1.75,-0.57,-1.62,0.34,27.25,860.87,44.8,27.0,-1.0,,,,,,,,,,,,,,,,,,,,,,,2023-08-10 18:56:14.998194+00:00
2023-08-10 11:56:15.199105-07:00,48.062143,1.62,-0.55,-1.5,0.26,27.34,860.87,44.51,27.0,-1.0,,,,,,,,,,,,,,,,,,,,,,,2023-08-10 18:56:15.199105+00:00
2023-08-10 11:56:15.398979-07:00,48.262017,1.37,-0.33,-1.32,0.16,27.25,860.85,44.8,28.0,-1.0,,,,,,,,,,,,,,,,,,,,,,,2023-08-10 18:56:15.398979+00:00
2023-08-10 11:56:15.598798-07:00,48.461836,1.15,0.23,-1.11,0.19,27.05,860.87,45.22,28.0,-1.0,,,,,,,,,,,,,,,,,,,,,,,2023-08-10 18:56:15.598798+00:00
2023-08-10 11:56:15.840571-07:00,48.703609,1.64,-0.27,-1.6,0.24,27.11,860.86,45.16,30.0,-1.0,,,,,,,,,,,,,,,,,,,,,,,2023-08-10 18:56:15.840571+00:00
2023-08-10 11:56:15.998225-07:00,48.861263,1.19,0.21,-1.11,0.37,27.11,860.87,45.2,31.0,-1.0,,,,,,,,,,,,,,,,,,,,,,,2023-08-10 18:56:15.998225+00:00
2023-08-10 11:56:16.198600-07:00,49.061638,1.58,-0.02,-1.55,0.34,27.13,860.86,45.06,32.0,-1.0,,,,,,,,,,,,,,,,,,,,,,,2023-08-10 18:56:16.198600+00:00
2023-08-10 11:56:16.398560-07:00,49.261598,1.44,-0.1,-1.36,0.45,27.22,860.87,44.88,34.0,-1.0,,,,,,,,,,,,,,,,,,,,,,,2023-08-10 18:56:16.398560+00:00
2023-08-10 11:56:16.598450-07:00,49.461488,1.44,-0.51,-1.26,0.46,27.22,860.86,44.87,34.0,-1.0,,,,,,,,,,,,,,,,,,,,,,,2023-08-10 18:56:16.598450+00:00
2023-08-10 11:56:16.871509-07:00,49.734547,1.45,-0.53,-1.29,0.38,27.44,860.85,44.3,34.0,-1.0,,,,,,,,,,,,,,,,,,,,,,,2023-08-10 18:56:16.871509+00:00
2023-08-10 11:56:16.998287-07:00,49.861325,1.46,-0.8,-1.11,0.49,27.33,860.86,44.58,32.0,-1.0,,,,,,,,,,,,,,,,,,,,,,,2023-08-10 18:56:16.998287+00:00
2023-08-10 11:56:17.198419-07:00,50.061457,1.38,-0.65,-1.15,0.4,27.45,860.86,44.27,30.0,-1.0,,,,,,,,,,,,,,,,,,,,,,,2023-08-10 18:56:17.198419+00:00
2023-08-10 11:56:17.398453-07:00,50.261491,1.46,-1.01,-0.92,0.52,27.5,860.86,44.11,29.0,-1.0,,,,,,,,,,,,,,,,,,,,,,,2023-08-10 18:56:17.398453+00:00
2023-08-10 11:56:17.598386-07:00,50.461424,1.8,-1.05,-1.38,0.47,27.55,860.87,43.92,28.0,-1.0,,,,,,,,,,,,,,,,,,,,,,,2023-08-10 18:56:17.598386+00:00
2023-08-10 11:56:17.892809-07:00,50.755847,2.07,-0.96,-1.73,0.6,27.33,860.86,44.57,27.0,-1.0,,,,,,,,,,,,,,,,,,,,,,,2023-08-10 18:56:17.892809+00:00
2023-08-10 11:56:17.998386-07:00,50.861424,3.21,-1.35,-2.85,0.63,26.92,860.87,45.72,27.0,-1.0,,,,,,,,,,,,,,,,,,,,,,,2023-08-10 18:56:17.998386+00:00
2023-08-10 11:56:18.198731-07:00,51.061769,2.66,-1.47,-2.04,0.85,27.04,860.87,45.36,27.0,-1.0,,,,,,,,,,,,,,,,,,,,,,,2023-08-10 18:56:18.198731+00:00
2023-08-10 11:56:18.398266-07:00,51.261304,2.22,-0.61,-2.03,0.65,27.2,860.86,44.96,27.0,-1.0,,,,,,,,,,,,,,,,,,,,,,,2023-08-10 18:56:18.398266+00:00
2023-08-10 11:56:18.598478-07:00,51.461516,3.82,1.21,-3.56,0.65,27.64,860.85,43.77,28.0,-1.0,,,,,,,,,,1.82069,8.32732,18123.0,41.3709,10863.0,-0.262245,-1.0,16.0,-1399.0,58.0,,0.0,,2023-08-10 18:56:18.598478+00:00
2023-08-10 11:56:18.919121-07:00,51.782159,5.03,2.29,-4.47,0.3,27.81,860.79,43.45,29.0,-1.0,,,,,,,,,,,,,,,,,,,,,,,2023-08-10 18:56:18.919121+00:00
2023-08-10 11:56:18.998466-07:00,51.861504,3.78,0.61,-3.69,0.5,27.53,860.82,44.12,31.0,-1.0,,,,,,,,,,,,,,,,,,,,,,,2023-08-10 18:56:18.998466+00:00
2023-08-10 11:56:19.198858-07:00,52.061896,2.77,0.8,-2.61,0.51,27.79,860.83,43.53,32.0,-1.0,,,,,,,,,,,,,,,,,,,,,,,2023-08-10 18:56:19.198858+00:00
2023-08-10 11:56:19.399087-07:00,52.262125,3.0,0.62,-2.87,0.63,27.52,860.85,44.18,33.0,-1.0,,,,,,,,,,,,,,,,,,,,,,,2023-08-10 18:56:19.399087+00:00
2023-08-10 11:56:19.598925-07:00,52.461963,3.67,1.41,-3.36,0.46,27.46,860.81,44.19,33.0,-1.0,,,,,,,,,,1.82047,8.17784,18129.0,41.3699,10837.0,-0.182052,-1.0,17.0,-1381.0,58.0,,0.0,,2023-08-10 18:56:19.598925+00:00
2023-08-10 11:56:19.804989-07:00,52.668027,4.99,2.2,-4.47,0.14,27.65,860.81,43.85,34.0,-1.0,,,,,,,,,,,,,,,,,,,,,,,2023-08-10 18:56:19.804989+00:00
2023-08-10 11:56:19.998689-07:00,52.861727,4.79,2.41,-4.14,0.1,27.6,860.79,43.94,33.0,-1.0,,,,,,,,,,,,,,,,,,,,,,,2023-08-10 18:56:19.998689+00:00
2023-08-10 11:56:20.198686-07:00,53.061724,4.27,2.37,-3.55,0.11,27.42,860.79,44.39,30.0,-1.0,,,,,,,,,,,,,,,,,,,,,,,2023-08-10 18:56:20.198686+00:00
2023-08-10 11:56:20.398355-07:00,53.261393,4.54,3.14,-3.27,0.23,27.8,860.79,43.52,31.0,-1.0,,,,,,,,,,,,,,,,,,,,,,,2023-08-10 18:56:20.398355+00:00
2023-08-10 11:56:20.598829-07:00,53.461867,3.72,2.36,-2.85,0.33,27.02,860.8,45.49,28.0,-1.0,,,,,,,,,,1.8249,8.77229,18143.7,41.3681,10835.0,-0.180396,-1.0,14.0,-1387.0,58.0,,0.0,,2023-08-10 18:56:20.598829+00:00
2023-08-10 11:56:20.799018-07:00,53.662056,3.8,1.95,-3.25,0.24,27.02,860.81,45.5,27.0,-1.0,,,,,,,,,,,,,,,,,,,,,,,2023-08-10 18:56:20.799018+00:00
2023-08-10 11:56:20.998240-07:00,53.861278,3.38,2.27,-2.49,0.19,27.72,860.82,43.63,26.0,-1.0,,,,,,,,,,,,,,,,,,,,,,,2023-08-10 18:56:20.998240+00:00
2023-08-10 11:56:21.198381-07:00,54.061419,3.52,2.87,-1.95,0.59,27.21,860.82,45.0,26.0,-1.0,,,,,,,,,,,,,,,,,,,,,,,2023-08-10 18:56:21.198381+00:00
2023-08-10 11:56:21.398248-07:00,54.261286,4.31,3.42,-2.56,0.58,27.25,860.8,44.85,26.0,-1.0,,,,,,,,,,,,,,,,,,,,,,,2023-08-10 18:56:21.398248+00:00
2023-08-10 11:56:21.598226-07:00,54.461264,3.78,3.22,-1.87,0.67,27.29,860.8,44.78,27.0,-1.0,,,,,,,,,,,,,,,,,,,,,,,2023-08-10 18:56:21.598226+00:00
2023-08-10 11:56:21.798799-07:00,54.661837,3.81,3.49,-1.22,0.93,27.25,860.81,44.86,28.0,-1.0,,,,,,,,,,,,,,,,,,,,,,,2023-08-10 18:56:21.798799+00:00
2023-08-10 11:56:21.998671-07:00,54.861709,3.6,3.1,-1.78,0.41,27.29,860.8,44.82,29.0,-1.0,,,,,,,,,,,,,,,,,,,,,,,2023-08-10 18:56:21.998671+00:00
2023-08-10 11:56:22.198259-07:00,55.061297,3.31,2.92,-1.21,0.99,27.36,860.82,44.65,30.0,-1.0,,,,,,,,,,,,,,,,,,,,,,,2023-08-10 18:56:22.198259+00:00
2023-08-10 11:56:22.398301-07:00,55.261339,2.86,1.88,-2.13,0.36,27.73,860.83,43.69,32.0,-1.0,,,,,,,,,,,,,,,,,,,,,,,2023-08-10 18:56:22.398301+00:00
2023-08-10 11:56:22.598712-07:00,55.46175,3.89,3.63,0.87,1.13,27.55,860.85,44.12,33.0,-1.0,,,,,,,,,,1.82503,9.31413,18139.4,41.3622,10868.0,0.0204062,-1.0,15.0,-1388.0,58.0,,0.0,,2023-08-10 18:56:22.598712+00:00
2023-08-10 11:56:22.798846-07:00,55.661884,3.47,3.37,0.54,0.61,28.35,860.88,42.11,33.0,-1.0,,,,,,,,,,,,,,,,,,,,,,,2023-08-10 18:56:22.798846+00:00
2023-08-10 11:56:22.998765-07:00,55.861803,3.2,3.18,0.19,0.29,28.44,860.87,41.88,33.0,-1.0,,,,,,,,,,,,,,,,,,,,,,,2023-08-10 18:56:22.998765+00:00
2023-08-10 11:56:23.198320-07:00,56.061358,3.29,3.29,0.2,0.05,27.68,860.87,43.78,33.0,-1.0,,,,,,,,,,,,,,,,,,,,,,,2023-08-10 18:56:23.198320+00:00
2023-08-10 11:56:23.399050-07:00,56.262088,3.69,3.67,0.43,0.04,27.48,860.85,44.3,31.0,-1.0,,,,,,,,,,,,,,,,,,,,,,,2023-08-10 18:56:23.399050+00:00
2023-08-10 11:56:23.599024-07:00,56.462062,3.0,2.97,0.38,-0.01,27.55,860.87,44.12,30.0,-1.0,,,,,,,,,,1.8244,8.13872,18141.8,41.3621,10888.0,0.0364565,-1.0,14.0,-1390.0,58.0,,0.0,,2023-08-10 18:56:23.599024+00:00
2023-08-10 11:56:23.798630-07:00,56.661668,2.58,2.55,0.34,-0.04,27.13,860.86,45.21,28.0,-1.0,,,,,,,,,,1.8244,8.13872,18141.8,41.3621,10888.0,0.0364565,-1.0,14.0,-1390.0,58.0,,0.0,,2023-08-10 18:56:23.798630+00:00
2023-08-10 11:56:23.998948-07:00,56.861986,3.25,3.25,0.09,0.02,27.18,860.85,45.11,27.0,-1.0,,,,,,,,,,,,,,,,,,,,,,,2023-08-10 18:56:23.998948+00:00
2023-08-10 11:56:24.198289-07:00,57.061327,3.94,3.92,0.3,0.25,27.83,860.85,43.4,26.0,-1.0,,,,,,,,,,,,,,,,,,,,,,,2023-08-10 18:56:24.198289+00:00
2023-08-10 11:56:24.398299-07:00,57.261337,3.9,3.83,0.64,0.31,27.35,860.84,44.62,26.0,-1.0,,,,,,,,,,,,,,,,,,,,,,,2023-08-10 18:56:24.398299+00:00
2023-08-10 11:56:24.598323-07:00,57.461361,3.9,3.89,-0.23,0.18,26.72,860.83,46.39,26.0,-1.0,,,,,,,,,,,,,,,,,,,,,,,2023-08-10 18:56:24.598323+00:00
2023-08-10 11:56:24.798207-07:00,57.661245,4.02,3.53,-1.93,-0.19,26.82,860.8,46.14,27.0,-1.0,,,,,,,,,,1.82155,8.41244,18162.1,41.3617,10906.0,0.00976414,-1.0,14.0,-1402.0,58.0,,0.0,,2023-08-10 18:56:24.798207+00:00
2023-08-10 11:56:24.998274-07:00,57.861312,3.54,3.27,-1.35,-0.06,26.71,860.8,46.42,28.0,-1.0,,,,,,,,,,,,,,,,,,,,,,,2023-08-10 18:56:24.998274+00:00
2023-08-10 11:56:25.198606-07:00,58.061644,2.56,2.4,-0.86,0.21,26.58,860.82,46.78,29.0,-1.0,,,,,,,,,,,,,,,,,,,,,,,2023-08-10 18:56:25.198606+00:00
2023-08-10 11:56:25.399104-07:00,58.262142,1.76,1.72,-0.34,0.2,26.68,860.84,46.48,31.0,-1.0,,,,,,,,,,,,,,,,,,,,,,,2023-08-10 18:56:25.399104+00:00
2023-08-10 11:56:25.598863-07:00,58.461901,1.84,1.8,-0.03,0.35,26.71,860.86,46.38,33.0,-1.0,,,,,,,,,,1.81789,9.11448,18133.5,41.3616,10908.0,-0.0580794,-1.0,14.0,-1417.0,58.0,,0.0,,2023-08-10 18:56:25.598863+00:00
2023-08-10 11:56:25.798880-07:00,58.661918,1.97,1.9,0.49,0.2,26.71,860.87,46.39,33.0,-1.0,,,,,,,,,,,,,,,,,,,,,,,2023-08-10 18:56:25.798880+00:00
2023-08-10 11:56:25.998619-07:00,58.861657,1.4,1.27,-0.46,0.37,26.79,860.89,46.15,34.0,-1.0,,,,,,,,,,,,,,,,,,,,,,,2023-08-10 18:56:25.998619+00:00
2023-08-10 11:56:26.198343-07:00,59.061381,0.42,0.17,0.24,0.3,27.18,860.86,45.13,33.0,-1.0,,,,,,,,,,,,,,,,,,,,,,,2023-08-10 18:56:26.198343+00:00
2023-08-10 11:56:26.399019-07:00,59.262057,3.42,2.92,-1.78,-0.01,27.23,860.85,45.05,32.0,-1.0,,,,,,,,,,,,,,,,,,,,,,,2023-08-10 18:56:26.399019+00:00
2023-08-10 11:56:26.598443-07:00,59.461481,3.23,3.04,-1.1,-0.09,27.21,860.8,45.14,31.0,-1.0,,,,,,,,,,,,,,,,,,,,,,,2023-08-10 18:56:26.598443+00:00
2023-08-10 11:56:26.798314-07:00,59.661352,2.87,2.55,-1.31,-0.05,27.14,860.85,45.27,31.0,-1.0,,,,,,,,,,1.81561,9.73897,18088.3,41.3618,10898.0,-0.179356,-1.0,17.0,-1423.0,58.0,,0.0,,2023-08-10 18:56:26.798314+00:00
2023-08-10 11:56:26.998947-07:00,59.861985,2.82,2.42,-1.44,0.13,27.03,860.83,45.57,30.0,-1.0,,,,,,,,,,,,,,,,,,,,,,,2023-08-10 18:56:26.998947+00:00
2023-08-10 11:56:27.198415-07:00,60.061453,1.95,1.73,-0.86,0.3,27.28,860.85,44.96,29.0,-1.0,,,,,,,,,,,,,,,,,,,,,,,2023-08-10 18:56:27.198415+00:00
2023-08-10 11:56:27.399100-07:00,60.262138,2.55,2.28,-1.15,0.1,27.46,860.87,44.42,25.0,-1.0,,,,,,,,,,,,,,,,,,,,,,,2023-08-10 18:56:27.399100+00:00
2023-08-10 11:56:27.598924-07:00,60.461962,5.24,4.68,-2.35,-0.2,27.11,860.82,45.3,26.0,-1.0,,,,,,,,,,1.8168,9.69576,18156.1,41.3608,10879.0,-0.329297,-1.0,16.0,-1416.0,58.0,,0.0,,2023-08-10 18:56:27.598924+00:00
2023-08-10 11:56:27.799158-07:00,60.662196,3.62,3.15,-1.77,0.27,27.08,860.76,45.43,27.0,-1.0,,,,,,,,,,,,,,,,,,,,,,,2023-08-10 18:56:27.799158+00:00
2023-08-10 11:56:27.998651-07:00,60.861689,2.8,2.57,-0.98,0.55,27.21,860.84,45.14,30.0,-1.0,,,,,,,,,,,,,,,,,,,,,,,2023-08-10 18:56:27.998651+00:00
2023-08-10 11:56:28.198712-07:00,61.06175,2.18,2.17,0.13,0.02,27.28,860.87,44.89,30.0,-1.0,,,,,,,,,,,,,,,,,,,,,,,2023-08-10 18:56:28.198712+00:00
2023-08-10 11:56:28.398635-07:00,61.261673,3.17,2.54,1.9,-0.06,27.34,860.85,44.73,28.0,-1.0,,,,,,,,,,,,,,,,,,,,,,,2023-08-10 18:56:28.398635+00:00
2023-08-10 11:56:28.598689-07:00,61.461727,2.79,2.76,0.11,-0.38,27.14,860.84,45.27,29.0,-1.0,,,,,,,,,,,,,,,,,,,,,,,2023-08-10 18:56:28.598689+00:00
2023-08-10 11:56:28.798942-07:00,61.66198,2.27,2.05,-0.97,0.05,27.23,860.83,45.1,32.0,-1.0,,,,,,,,,,1.81615,8.17948,18258.5,41.3605,10861.0,-0.266493,-1.0,16.0,-1390.0,58.0,,0.0,,2023-08-10 18:56:28.798942+00:00
2023-08-10 11:56:28.998960-07:00,61.861998,1.41,1.38,-0.17,0.24,27.35,860.85,44.78,32.0,-1.0,,,,,,,,,,,,,,,,,,,,,,,2023-08-10 18:56:28.998960+00:00
2023-08-10 11:56:29.199084-07:00,62.062122,0.61,-0.33,-0.38,0.34,27.51,860.87,44.37,32.0,-1.0,,,,,,,,,,,,,,,,,,,,,,,2023-08-10 18:56:29.199084+00:00
2023-08-10 11:56:29.398315-07:00,62.261353,0.4,0.06,-0.32,0.23,27.71,860.87,43.84,31.0,-1.0,,,,,,,,,,,,,,,,,,,,,,,2023-08-10 18:56:29.398315+00:00
2023-08-10 11:56:29.598291-07:00,62.461329,3.0,2.86,-0.88,-0.12,27.63,860.89,43.99,32.0,-1.0,,,,,,,,,,1.82442,8.09911,18275.5,41.3603,10846.0,-0.334607,-1.0,15.0,-1374.0,58.0,,0.0,,2023-08-10 18:56:29.598291+00:00
2023-08-10 11:56:29.798905-07:00,62.661943,3.44,3.09,-1.47,0.3,27.66,860.83,44.05,33.0,-1.0,,,,,,,,,,,,,,,,,,,,,,,2023-08-10 18:56:29.798905+00:00
2023-08-10 11:56:29.998206-07:00,62.861244,1.77,1.75,-0.22,-0.01,27.95,860.87,43.19,31.0,-1.0,,,,,,,,,,,,,,,,,,,,,,,2023-08-10 18:56:29.998206+00:00
2023-08-10 11:56:30.199054-07:00,63.062092,2.35,1.57,-1.74,0.13,27.72,860.88,43.81,29.0,-1.0,,,,,,,,,,,,,,,,,,,,,,,2023-08-10 18:56:30.199054+00:00
2023-08-10 11:56:30.398916-07:00,63.261954,5.29,3.25,-4.17,0.22,26.85,860.83,46.11,27.0,-1.0,,,,,,,,,,,,,,,,,,,,,,,2023-08-10 18:56:30.398916+00:00
2023-08-10 11:56:30.599100-07:00,63.462138,5.67,3.32,-4.58,0.37,27.0,860.75,45.7,28.0,-1.0,,,,,,,,,,,,,,,,,,,,,,,2023-08-10 18:56:30.599100+00:00
2023-08-10 11:56:30.798772-07:00,63.66181,3.68,2.5,-2.7,0.13,27.15,860.8,45.29,28.0,-1.0,,,,,,,,,,1.82012,7.63978,18286.9,41.3601,10845.0,-0.313874,-1.0,16.0,-1381.0,58.0,,0.0,,2023-08-10 18:56:30.798772+00:00
2023-08-10 11:56:30.998771-07:00,63.861809,3.85,2.31,-3.07,0.08,27.38,860.83,44.69,25.0,-1.0,,,,,,,,,,,,,,,,,,,,,,,2023-08-10 18:56:30.998771+00:00
2023-08-10 11:56:31.198709-07:00,64.061747,2.92,2.03,-2.09,0.03,27.29,860.82,45.03,28.0,-1.0,,,,,,,,,,,,,,,,,,,,,,,2023-08-10 18:56:31.198709+00:00
2023-08-10 11:56:31.398771-07:00,64.261809,0.28,0.24,-0.12,0.08,27.52,860.83,44.34,29.0,-1.0,,,,,,,,,,,,,,,,,,,,,,,2023-08-10 18:56:31.398771+00:00
2023-08-10 11:56:31.598278-07:00,64.461316,4.18,3.62,-2.08,-0.11,26.83,860.82,46.24,27.0,-1.0,,,,,,,,,,,,,,,,,,,,,,,2023-08-10 18:56:31.598278+00:00
2023-08-10 11:56:31.798410-07:00,64.661448,4.28,3.35,-2.62,0.46,27.02,860.8,45.74,31.0,-1.0,,,,,,,,,,1.81274,9.64935,18317.3,41.3588,10860.0,-0.394839,-1.0,15.0,-1377.0,58.0,,0.0,,2023-08-10 18:56:31.798410+00:00
2023-08-10 11:56:31.998296-07:00,64.861334,3.47,3.04,-1.57,0.58,27.39,860.81,44.76,33.0,-1.0,,,,,,,,,,,,,,,,,,,,,,,2023-08-10 18:56:31.998296+00:00
2023-08-10 11:56:32.198433-07:00,65.061471,4.1,3.37,-2.2,0.76,27.05,860.81,45.56,31.0,-1.0,,,,,,,,,,,,,,,,,,,,,,,2023-08-10 18:56:32.198433+00:00
2023-08-10 11:56:32.399091-07:00,65.262129,4.86,4.18,-2.21,1.1,26.88,860.8,46.11,34.0,-1.0,,,,,,,,,,,,,,,,,,,,,,,2023-08-10 18:56:32.399091+00:00
2023-08-10 11:56:32.598840-07:00,65.461878,5.0,3.98,-2.92,0.79,26.88,860.76,46.11,34.0,-1.0,,,,,,,,,,,,,,,,,,,,,,,2023-08-10 18:56:32.598840+00:00
2023-08-10 11:56:32.798345-07:00,65.661383,5.49,4.82,-2.24,1.37,26.81,860.77,46.29,33.0,-1.0,,,,,,,,,,1.81411,8.77557,18290.7,41.3591,10874.0,-0.373886,-1.0,12.0,-1375.0,58.0,,0.0,,2023-08-10 18:56:32.798345+00:00
2023-08-10 11:56:32.998805-07:00,65.861843,4.85,4.0,-2.64,0.74,27.16,860.76,45.37,32.0,-1.0,,,,,,,,,,,,,,,,,,,,,,,2023-08-10 18:56:32.998805+00:00
2023-08-10 11:56:33.198457-07:00,66.061495,4.17,2.71,-3.16,0.16,27.27,860.8,45.06,31.0,-1.0,,,,,,,,,,,,,,,,,,,,,,,2023-08-10 18:56:33.198457+00:00
2023-08-10 11:56:33.398351-07:00,66.261389,4.34,3.87,-1.79,0.77,27.0,860.8,45.81,28.0,-1.0,,,,,,,,,,,,,,,,,,,,,,,2023-08-10 18:56:33.398351+00:00
2023-08-10 11:56:33.598532-07:00,66.46157,3.56,3.2,-1.14,1.09,27.16,860.8,45.36,28.0,-1.0,,,,,,,,,,,,,,,,,,,,,,,2023-08-10 18:56:33.598532+00:00
2023-08-10 11:56:33.798740-07:00,66.661778,2.93,2.82,-0.37,0.71,27.24,860.82,45.19,27.0,-1.0,,,,,,,,,,1.82002,8.58065,18200.2,41.3586,10897.0,-0.370142,-1.0,13.0,-1400.0,57.0,,0.0,,2023-08-10 18:56:33.798740+00:00
2023-08-10 11:56:33.998472-07:00,66.86151,4.26,4.16,0.6,0.68,27.79,860.83,43.81,27.0,-1.0,,,,,,,,,,,,,,,,,,,,,,,2023-08-10 18:56:33.998472+00:00
2023-08-10 11:56:34.198663-07:00,67.061701,3.4,3.4,0.1,0.02,27.98,860.83,43.28,26.0,-1.0,,,,,,,,,,,,,,,,,,,,,,,2023-08-10 18:56:34.198663+00:00
2023-08-10 11:56:34.398369-07:00,67.261407,3.28,3.26,-0.3,0.06,27.91,860.84,43.41,34.0,-1.0,,,,,,,,,,,,,,,,,,,,,,,2023-08-10 18:56:34.398369+00:00
2023-08-10 11:56:34.598439-07:00,67.461477,3.92,3.89,0.06,0.42,27.84,860.83,43.68,25.0,-1.0,,,,,,,,,,,,,,,,,,,,,,,2023-08-10 18:56:34.598439+00:00
2023-08-10 11:56:34.799069-07:00,67.662107,3.77,3.74,0.39,0.24,28.13,860.83,42.87,32.0,-1.0,,,,,,,,,,,,,,,,,,,,,,,2023-08-10 18:56:34.799069+00:00
2023-08-10 11:56:34.999007-07:00,67.862045,3.7,3.69,0.17,0.19,27.26,860.84,45.2,31.0,-1.0,,,,,,,,,,,,,,,,,,,,,,,2023-08-10 18:56:34.999007+00:00
2023-08-10 11:56:35.198603-07:00,68.061641,4.16,4.14,0.19,0.41,27.66,860.83,44.11,29.0,-1.0,,,,,,,,,,,,,,,,,,,,,,,2023-08-10 18:56:35.198603+00:00
2023-08-10 11:56:35.398391-07:00,68.261429,4.77,4.73,0.53,0.38,27.54,860.83,44.42,33.0,-1.0,,,,,,,,,,,,,,,,,,,,,,,2023-08-10 18:56:35.398391+00:00
2023-08-10 11:56:35.598641-07:00,68.461679,5.28,5.24,0.5,0.42,27.31,860.8,45.03,35.0,-1.0,,,,,,,,,,,,,,,,,,,,,,,2023-08-10 18:56:35.598641+00:00
2023-08-10 11:56:35.798450-07:00,68.661488,4.59,4.52,0.61,0.5,27.56,860.82,44.36,31.0,-1.0,,,,,,,,,,1.81939,8.5969,18131.2,41.358,10896.0,-0.497391,-1.0,17.0,-1426.0,57.0,,0.0,,2023-08-10 18:56:35.798450+00:00
2023-08-10 11:56:35.998556-07:00,68.861594,3.59,3.33,-0.68,1.16,27.95,860.83,43.4,33.0,-1.0,,,,,,,,,,,,,,,,,,,,,,,2023-08-10 18:56:35.998556+00:00
2023-08-10 11:56:36.199150-07:00,69.062188,3.34,2.91,-1.43,0.79,28.47,860.86,42.13,32.0,-1.0,,,,,,,,,,,,,,,,,,,,,,,2023-08-10 18:56:36.199150+00:00
2023-08-10 11:56:36.398780-07:00,69.261818,4.67,4.04,-2.35,0.06,27.19,860.82,45.33,29.0,-1.0,,,,,,,,,,,,,,,,,,,,,,,2023-08-10 18:56:36.398780+00:00
2023-08-10 11:56:36.599112-07:00,69.46215,4.32,3.89,-1.78,0.61,27.53,860.81,44.48,28.0,-1.0,,,,,,,,,,1.82331,10.9551,18121.6,41.3577,10881.0,-0.44151,-1.0,17.0,-1419.0,57.0,,0.0,,2023-08-10 18:56:36.599112+00:00
2023-08-10 11:56:36.798729-07:00,69.661767,3.53,3.03,-1.79,0.3,27.54,860.84,44.46,27.0,-1.0,,,,,,,,,,1.82331,10.9551,18121.6,41.3577,10881.0,-0.44151,-1.0,17.0,-1419.0,57.0,,0.0,,2023-08-10 18:56:36.798729+00:00
2023-08-10 11:56:36.998887-07:00,69.861925,4.6,4.22,-1.79,-0.38,27.04,860.82,45.78,27.0,-1.0,,,,,,,,,,,,,,,,,,,,,,,2023-08-10 18:56:36.998887+00:00
2023-08-10 11:56:37.198530-07:00,70.061568,5.16,4.99,-1.18,0.54,27.44,860.77,44.69,27.0,-1.0,,,,,,,,,,,,,,,,,,,,,,,2023-08-10 18:56:37.198530+00:00
2023-08-10 11:56:37.399107-07:00,70.262145,4.82,4.57,-1.51,-0.26,27.45,860.81,44.65,27.0,-1.0,,,,,,,,,,,,,,,,,,,,,,,2023-08-10 18:56:37.399107+00:00
2023-08-10 11:56:37.598393-07:00,70.461431,4.28,4.13,-1.1,-0.23,27.12,860.8,45.58,28.0,-1.0,,,,,,,,,,1.82019,8.98049,18118.3,41.3576,10843.0,-0.442198,-1.0,15.0,-1395.0,57.0,,0.0,,2023-08-10 18:56:37.598393+00:00
2023-08-10 11:56:37.798254-07:00,70.661292,3.33,3.33,-0.2,-0.07,27.52,860.84,44.53,30.0,-1.0,,,,,,,,,,,,,,,,,,,,,,,2023-08-10 18:56:37.798254+00:00
2023-08-10 11:56:37.998427-07:00,70.861465,2.91,2.9,0.2,0.06,27.14,860.85,45.56,30.0,-1.0,,,,,,,,,,,,,,,,,,,,,,,2023-08-10 18:56:37.998427+00:00
2023-08-10 11:56:38.198809-07:00,71.061847,2.76,2.72,-0.04,0.43,27.16,860.85,45.52,30.0,-1.0,,,,,,,,,,,,,,,,,,,,,,,2023-08-10 18:56:38.198809+00:00
2023-08-10 11:56:38.398785-07:00,71.261823,3.69,3.66,-0.14,0.46,27.01,860.86,45.92,32.0,-1.0,,,,,,,,,,,,,,,,,,,,,,,2023-08-10 18:56:38.398785+00:00
2023-08-10 11:56:38.598466-07:00,71.461504,4.46,4.45,-0.15,0.2,27.2,860.84,45.45,33.0,-1.0,,,,,,,,,,,,,,,,,,,,,,,2023-08-10 18:56:38.598466+00:00
2023-08-10 11:56:38.798711-07:00,71.661749,4.63,4.53,-0.93,0.12,27.17,860.83,45.39,33.0,-1.0,,,,,,,,,,1.81926,9.94726,18124.3,41.3566,10840.0,-0.409861,-1.0,17.0,-1385.0,57.0,,0.0,,2023-08-10 18:56:38.798711+00:00
2023-08-10 11:56:38.998854-07:00,71.861892,4.79,4.69,-0.94,0.18,27.2,860.83,45.37,32.0,-1.0,,,,,,,,,,,,,,,,,,,,,,,2023-08-10 18:56:38.998854+00:00
2023-08-10 11:56:39.199108-07:00,72.062146,4.17,4.06,-0.85,0.43,27.22,860.82,45.35,31.0,-1.0,,,,,,,,,,,,,,,,,,,,,,,2023-08-10 18:56:39.199108+00:00
2023-08-10 11:56:39.398699-07:00,72.261737,3.79,3.21,-2.02,-0.06,27.51,860.83,44.64,30.0,-1.0,,,,,,,,,,,,,,,,,,,,,,,2023-08-10 18:56:39.398699+00:00
2023-08-10 11:56:39.598441-07:00,72.461479,3.79,2.89,-2.45,0.02,27.72,860.82,43.95,29.0,-1.0,,,,,,,,,,,,,,,,,,,,,,,2023-08-10 18:56:39.598441+00:00
2023-08-10 11:56:39.798565-07:00,72.661603,3.1,2.04,-2.33,0.18,28.35,860.85,42.42,28.0,-1.0,,,,,,,,,,1.81955,7.12347,18102.6,41.3571,10840.0,-0.344231,-1.0,17.0,-1385.0,57.0,,0.0,,2023-08-10 18:56:39.798565+00:00
2023-08-10 11:56:39.999017-07:00,72.862055,3.87,3.24,-2.11,0.05,27.17,860.82,45.53,27.0,-1.0,,,,,,,,,,,,,,,,,,,,,,,2023-08-10 18:56:39.999017+00:00
2023-08-10 11:56:40.198557-07:00,73.061595,4.23,3.78,-1.88,-0.17,27.08,860.82,45.72,27.0,-1.0,,,,,,,,,,,,,,,,,,,,,,,2023-08-10 18:56:40.198557+00:00
2023-08-10 11:56:40.398600-07:00,73.261638,4.21,4.14,-0.72,0.2,27.56,860.82,44.46,28.0,-1.0,,,,,,,,,,,,,,,,,,,,,,,2023-08-10 18:56:40.398600+00:00
2023-08-10 11:56:40.599087-07:00,73.462125,4.51,4.5,-0.11,0.24,27.92,860.83,43.57,28.0,-1.0,,,,,,,,,,1.81869,9.45708,18114.1,41.3566,10840.0,-0.358214,-1.0,15.0,-1380.0,57.0,,0.0,,2023-08-10 18:56:40.599087+00:00
2023-08-10 11:56:40.798613-07:00,73.661651,3.64,3.61,-0.43,0.01,27.89,860.84,43.57,28.0,-1.0,,,,,,,,,,,,,,,,,,,,,,,2023-08-10 18:56:40.798613+00:00
2023-08-10 11:56:40.998444-07:00,73.861482,3.62,3.58,0.35,0.39,27.81,860.83,43.82,30.0,-1.0,,,,,,,,,,,,,,,,,,,,,,,2023-08-10 18:56:40.998444+00:00
2023-08-10 11:56:41.198737-07:00,74.061775,3.56,3.53,0.35,0.3,28.27,860.87,42.67,31.0,-1.0,,,,,,,,,,,,,,,,,,,,,,,2023-08-10 18:56:41.198737+00:00
2023-08-10 11:56:41.398461-07:00,74.261499,3.83,3.82,-0.31,0.1,28.12,860.86,43.0,32.0,-1.0,,,,,,,,,,,,,,,,,,,,,,,2023-08-10 18:56:41.398461+00:00
2023-08-10 11:56:41.599165-07:00,74.462203,3.57,3.55,-0.35,-0.07,27.63,860.83,44.33,33.0,-1.0,,,,,,,,,,1.81643,9.99181,18117.7,41.3555,10851.0,-0.415224,-1.0,13.0,-1384.0,57.0,,0.0,,2023-08-10 18:56:41.599165+00:00
