Timestamp,Seconds,S,Um,Vm,Wm,T,P,H,MD,Sts,Vx,Vy,Vz,Lat,Lon,Alt,Yaw,Roll,Pitch,CH4,C2H6,H2O,T_a,Batt,R,C2C1,Power,Current,SOC,Lat_a,Lon_a,TS,Timestamp_UTC,Rho,Rho_err,Sc,V,U,W,WD,V_err,U_err,Sc_avg,WD_avg,V_avg,U_avg,W_avg,U_err_avg,V_err_avg,Nx,Ny,cross_wind,cross_wind_err,CH4_sub,CH4_res,CH4_adj,CH4_adj_err,BG_Samples_CH4,C2H6_sub,C2H6_res,C2H6_adj,C2H6_adj_err,BG_Samples_C2H6,x_dist,y_dist,s_dist,z_dist,velocity_s,velocity_z,x_src_dist,y_src_dist,s_src_dist,collecting,group,transect_num
2023-02-28 08:51:58.269716-07:00,0.594277,0.69,0.62,-0.29,0.03,8.91,857.11,44.38,33.0,-1.0,,,,,,,,,,0.168834,3.21911,128.153,21.629,11822.0,0.545601,-1.0,19.0,-1172.0,96.0,,0.0,2023-02-28 08:51:54.147,2023-02-28 15:51:58.269716+00:00,1.058595174932619,0.014452806916141625,,,,,,,,,,,,,,,,,,,,,,,,,,,,,,,,,,,,,,False,,
2023-02-28 08:51:58.469525-07:00,0.794086,0.56,0.48,-0.29,0.06,9.1,857.1,43.86,33.0,-1.0,,,,,,,,,,0.168834,3.21911,128.153,21.629,11822.0,0.545601,-1.0,19.0,-1172.0,96.0,,0.0,2023-02-28 08:51:54.147,2023-02-28 15:51:58.469525+00:00,1.0578702263554023,0.014440410602255632,,,,,,,,,,,,,,,,,,,,,,,,,,,,,,,,,,,,,,False,,
2023-02-28 08:51:59.469343-07:00,1.793904,0.45,0.35,-0.15,0.24,10.61,857.1,39.59,32.0,-1.0,,,,,,,,,,0.324013,6.07485,793.887,21.6379,11865.0,0.659507,-1.0,17.0,-1203.0,96.0,,0.0,2023-02-28 08:51:55.171,2023-02-28 15:51:59.469343+00:00,1.0522408774626881,0.014343011373624983,,,,,,,,,,,,,,,,,,,,,,,,,,,,,,,,,,,,,,False,,
2023-02-28 08:52:05.869170-07:00,8.193731,0.45,0.02,-0.41,-0.17,8.08,857.11,47.55,32.0,-1.0,,,,,,,,,,0.65855,4.39289,1446.27,21.694,11796.0,0.827566,0.00779013,17.0,-1195.0,96.0,,0.0,2023-02-28 08:52:02.339,2023-02-28 15:52:05.869170+00:00,1.0617194290847156,0.014507013552026583,,,,,,,,,,,,,,,,,,,,,,,,,,,,,,,,,,,,,,False,,
2023-02-28 08:53:10.232902-07:00,72.557463,0.34,-0.2,-0.02,0.28,10.84,857.21,39.71,33.0,-1.0,,,,,,,,,,-0.500559,5.21512,-1499.59,22.2393,11837.0,-0.738242,-1.0,19.0,-1192.0,95.0,,0.0,2023-02-28 08:53:05.827,2023-02-28 15:53:10.232902+00:00,1.051523615508702,0.014328783886755549,,,,,,,,,,,,,,,,,,,,,,,,,,,,,,,,,,,,,,False,,
2023-02-28 08:53:11.469908-07:00,73.794469,0.76,-0.47,-0.58,0.16,9.02,857.23,44.93,32.0,-1.0,,,,,,,,,,-0.50334,5.17685,-1496.67,22.2437,11857.0,-0.761719,-1.0,16.0,-1210.0,95.0,,0.0,2023-02-28 08:53:06.851,2023-02-28 15:53:11.469908+00:00,1.0583306477431358,0.01444619901339042,,,,,,,,,,,,,,,,,,,,,,,,,,,,,,,,,,,,,,False,,
2023-02-28 08:53:12.469558-07:00,74.794119,0.93,-0.69,-0.45,0.42,8.37,857.22,46.82,32.0,-1.0,,,,,,,,,,-0.508941,5.27782,-1497.06,22.252,11803.0,-0.789851,-1.0,17.0,-1179.0,95.0,,0.0,2023-02-28 08:53:07.875,2023-02-28 15:53:12.469558+00:00,1.0607618471902471,0.014488529957636612,,,,,,,,,,,,,,,,,,,,,,,,,,,,,,,,,,,,,,False,,
2023-02-28 08:53:18.822978-07:00,81.147539,1.09,-0.74,-0.66,0.44,8.7,857.22,45.14,37.0,-1.0,,,,,,,,,,-0.363625,5.29297,-1431.48,22.3187,11797.0,-0.30638,-1.0,17.0,-1182.0,95.0,,0.0,,2023-02-28 15:53:18.822978+00:00,1.0595198695085983,0.014466984277871117,,,,,,,,,,,,,,,,,,,,,,,,,,,,,,,,,,,,,,False,,
2023-02-28 08:53:19.869144-07:00,82.193705,1.09,-0.69,-0.8,0.24,8.81,857.23,44.86,31.0,-1.0,,,,,,,,,,-0.362472,4.66156,-1427.62,22.328,11819.0,-0.225035,-1.0,20.0,-1188.0,95.0,,0.0,,2023-02-28 15:53:19.869144+00:00,1.0591188781163305,0.014459862374497834,,,,,,,,,,,,,,,,,,,,,,,,,,,,,,,,,,,,,,False,,
2023-02-28 08:53:20.870839-07:00,83.1954,0.72,-0.65,-0.22,0.19,9.68,857.21,42.29,42.0,-1.0,,,,,,,,,,-0.363776,5.85618,-1430.16,22.3376,11858.0,0.00440162,-1.0,18.0,-1185.0,95.0,,0.0,,2023-02-28 15:53:20.870839+00:00,1.0558363383244924,0.014403337000925831,,,,,,,,,,,,,,,,,,,,,,,,,,,,,,,,,,,,,,False,,
2023-02-28 08:53:21.871174-07:00,84.195735,1.06,-0.78,-0.61,0.36,8.81,857.23,44.79,33.0,-1.0,,,,,,,,,,-0.36817,5.07813,-1429.06,22.3471,11848.0,0.0858787,-1.0,16.0,-1195.0,95.0,,0.0,,2023-02-28 15:53:21.871174+00:00,1.0591188781163305,0.014459862374497834,,,,,,,,,,,,,,,,,,,,,,,,,,,,,,,,,,,,,,False,,
2023-02-28 08:53:22.871073-07:00,85.195634,0.98,-0.79,-0.46,0.35,10.19,857.23,40.92,32.0,-1.0,,,,,,,,,,-0.206029,4.54937,-1320.93,22.3567,11794.0,0.0480401,-1.0,16.0,-1182.0,95.0,,0.0,,2023-02-28 15:53:22.871073+00:00,1.0539604675431657,0.014370552290543442,,,,,,,,,,,,,,,,,,,,,,,,,,,,,,,,,,,,,,False,,
2023-02-28 08:53:23.870875-07:00,86.195436,0.94,-0.7,-0.59,0.18,9.42,857.22,43.22,43.0,-1.0,,,,,,,,,,-0.207144,5.75576,-1329.61,22.3663,11819.0,0.231128,-1.0,18.0,-1167.0,95.0,,0.0,,2023-02-28 15:53:23.870875+00:00,1.0568201692359358,0.014420200742840786,,,,,,,,,,,,,,,,,,,,,,,,,,,,,,,,,,,,,,False,,
2023-02-28 08:53:24.875395-07:00,87.199956,1.1,-0.74,-0.76,0.29,9.35,857.22,42.47,30.0,-1.0,,,,,,,,,,-0.208141,5.24635,-1323.15,22.3757,11858.0,0.28279,-1.0,18.0,-1182.0,95.0,,0.0,,2023-02-28 15:53:24.875395+00:00,1.057082036180525,0.014424735646758634,,,,,,,,,,,,,,,,,,,,,,,,,,,,,,,,,,,,,,False,,
2023-02-28 08:53:25.870574-07:00,88.195135,0.74,-0.01,-0.69,0.27,10.33,857.23,39.76,35.0,-1.0,,,,,,,,,,-0.219097,5.09101,-1330.39,22.3837,11804.0,0.301458,-1.0,14.0,-1206.0,95.0,,0.0,,2023-02-28 15:53:25.870574+00:00,1.0534399565178516,0.01436155444038871,,,,,,,,,,,,,,,,,,,,,,,,,,,,,,,,,,,,,,False,,
2023-02-28 08:53:26.870870-07:00,89.195431,0.6,-0.09,-0.53,0.26,9.8,857.24,41.2,40.0,-1.0,,,,,,,,,,-0.214641,5.80426,-1329.3,22.3895,11790.0,0.379158,-1.0,14.0,-1188.0,95.0,,0.0,,2023-02-28 15:53:26.870870+00:00,1.0554254904624942,0.014395723357440712,,,,,,,,,,,,,,,,,,,,,,,,,,,,,,,,,,,,,,False,,
2023-02-28 08:53:27.870655-07:00,90.195216,0.96,-0.32,-0.85,0.31,9.46,857.23,42.21,29.0,-1.0,,,,,,,,,,-0.223582,4.75361,-1343.07,22.3989,11842.0,0.348713,-1.0,17.0,-1185.0,95.0,,0.0,,2023-02-28 15:53:27.870655+00:00,1.0566829159395654,0.014417655915790731,,,,,,,,,,,,,,,,,,,,,,,,,,,,,,,,,,,,,,False,,
2023-02-28 08:53:28.870799-07:00,91.19536,1.03,-0.04,-0.94,0.43,9.54,857.23,41.97,40.0,-1.0,,,,,,,,,,-0.056861,5.28211,-1156.97,22.4083,11842.0,0.359812,-1.0,17.0,-1185.0,95.0,,0.0,,2023-02-28 15:53:28.870799+00:00,1.0563838794215592,0.014412478569911414,,,,,,,,,,,,,,,,,,,,,,,,,,,,,,,,,,,,,,False,,
2023-02-28 08:53:29.871243-07:00,92.195804,1.47,0.16,-1.46,0.1,9.53,857.22,42.01,35.0,-1.0,,,,,,,,,,0.642254,-2.07756,1443.73,22.4178,11849.0,-0.698757,-1.0,17.0,-1219.0,95.0,,0.0,,2023-02-28 15:53:29.871243+00:00,1.0564089260683402,0.014413080316076956,,,,,,,,,,,,,,,,,,,,,,,,,,,,,,,,,,,,,,False,,
2023-02-28 08:53:30.870592-07:00,93.195153,1.61,0.45,-1.55,0.06,9.67,857.23,41.54,31.0,-1.0,,,,,,,,,,0.362134,-3.02291,-743.97,22.428,11810.0,-0.781469,-1.0,15.0,-1219.0,95.0,,0.0,,2023-02-28 15:53:30.870592+00:00,1.0558983058966147,0.014404073436591815,,,,,,,,,,,,,,,,,,,,,,,,,,,,,,,,,,,,,,False,,
2023-02-28 08:53:31.870769-07:00,94.19533,2.3,1.34,-1.87,-0.09,10.21,857.21,40.12,43.0,-1.0,,,,,,,,,,-0.0037673,-3.13185,-556.045,22.437,11784.0,-0.754163,-1.0,14.0,-1180.0,95.0,,0.0,,2023-02-28 15:53:31.870769+00:00,1.0538614891597835,0.014369176342931897,,,,,,,,,,,,,,,,,,,,,,,,,,,,,,,,,,,,,,False,,
2023-02-28 08:53:32.870586-07:00,95.195147,1.85,1.81,-0.27,-0.29,9.72,857.21,41.52,31.0,-1.0,,,,,,,,,,-0.120471,-2.46327,50.845,22.4469,11851.0,-0.728599,-1.0,16.0,-1209.0,95.0,,0.0,,2023-02-28 15:53:32.870586+00:00,1.0556870349217529,0.014400753080308106,,,,,,,,,,,,,,,,,,,,,,,,,,,,,,,,,,,,,,False,,
2023-02-28 08:53:33.871126-07:00,96.195687,1.48,0.92,-1.05,-0.49,8.91,857.23,43.9,35.0,-1.0,,,,,,,,,,-0.119034,-2.17257,110.681,22.4564,11837.0,-0.714397,-1.0,16.0,-1233.0,95.0,,0.0,,2023-02-28 15:53:33.871126+00:00,1.0587433839384548,0.014453352738713877,,,,,,,,,,,,,,,,,,,,,,,,,,,,,,,,,,,,,,False,,
2023-02-28 08:53:34.870934-07:00,97.195495,0.95,0.84,-0.35,-0.27,8.9,857.23,43.87,41.0,-1.0,,,,,,,,,,-0.124179,-2.77358,188.679,22.4658,11782.0,-0.699784,-1.0,14.0,-1194.0,95.0,,0.0,,2023-02-28 15:53:34.870934+00:00,1.0587809213745103,0.014454003434328013,,,,,,,,,,,,,,,,,,,,,,,,,,,,,,,,,,,,,,False,,
2023-02-28 08:53:35.870469-07:00,98.19503,0.9,0.5,-0.71,-0.23,9.0,857.22,43.64,30.0,-1.0,,,,,,,,,,-0.145561,5.16389,743.839,22.4755,11830.0,-0.684516,-1.0,17.0,-1190.0,95.0,,0.0,,2023-02-28 15:53:35.870469+00:00,1.0583933199397428,0.014447453707798699,,,,,,,,,,,,,,,,,,,,,,,,,,,,,,,,,,,,,,False,,
2023-02-28 08:53:36.870494-07:00,99.195055,1.13,0.61,-0.93,-0.2,9.16,857.25,43.12,40.0,-1.0,,,,,,,,,,-0.191582,-1.24307,697.576,22.4845,11858.0,-0.673362,-1.0,16.0,-1218.0,95.0,,0.0,,2023-02-28 15:53:36.870494+00:00,1.0578304919380996,0.014437195426952952,,,,,,,,,,,,,,,,,,,,,,,,,,,,,,,,,,,,,,False,,
2023-02-28 08:53:37.870587-07:00,100.195148,0.52,0.44,-0.27,-0.03,9.21,857.25,43.09,34.0,-1.0,,,,,,,,,,-0.19332,-1.98659,702.641,22.4941,11858.0,-0.663068,-1.0,16.0,-1218.0,95.0,,0.0,,2023-02-28 15:53:37.870587+00:00,1.0576431724714723,0.014433950222351744,,,,,,,,,,,,,,,,,,,,,,,,,,,,,,,,,,,,,,False,,
2023-02-28 08:53:38.871177-07:00,101.195738,0.92,0.88,0.09,0.24,9.58,857.24,42.03,32.0,-1.0,,,,,,,,,,-0.19834,-1.70176,708.158,22.5033,11830.0,-0.64795,-1.0,15.0,-1221.0,95.0,,0.0,,2023-02-28 15:53:38.871177+00:00,1.05624674610534,0.014409936507568524,,,,,,,,,,,,,,,,,,,,,,,,,,,,,,,,,,,,,,False,,
2023-02-28 08:53:39.871111-07:00,102.195672,1.02,1.02,0.0,-0.01,9.4,857.24,42.43,42.0,-1.0,,,,,,,,,,-0.154823,-1.49438,682.292,22.5126,11808.0,-0.636525,-1.0,14.0,-1217.0,95.0,,0.0,,2023-02-28 15:53:39.871111+00:00,1.0569196337864546,0.01442158667893234,,,,,,,,,,,,,,,,,,,,,,,,,,,,,,,,,,,,,,False,,
2023-02-28 08:53:40.870470-07:00,103.195031,1.4,1.16,-0.77,-0.14,8.89,857.24,44.03,30.0,-1.0,,,,,,,,,,-0.162137,-1.3424,687.569,22.5227,11853.0,-0.623687,-1.0,16.0,-1198.0,95.0,,0.0,,2023-02-28 15:53:40.870470+00:00,1.0588308130987192,0.014454699686008484,,,,,,,,,,,,,,,,,,,,,,,,,,,,,,,,,,,,,,False,,
2023-02-28 08:53:41.870522-07:00,104.195083,1.13,0.77,-0.72,-0.39,8.45,857.23,45.29,38.0,-1.0,,,,,,,,,,-0.166634,-1.65623,703.782,22.5339,11824.0,-0.606459,-1.0,15.0,-1214.0,95.0,,0.0,,2023-02-28 15:53:41.870522+00:00,1.060472865318468,0.01448334646874669,,,,,,,,,,,,,,,,,,,,,,,,,,,,,,,,,,,,,,False,,
2023-02-28 08:53:42.870486-07:00,105.195047,1.3,0.84,-0.9,-0.43,8.29,857.25,45.77,37.0,-1.0,,,,,,,,,,-0.178846,-1.3995,701.265,22.5433,11796.0,-0.588985,-1.0,14.0,-1166.0,95.0,,0.0,,2023-02-28 15:53:42.870486+00:00,1.0611005051842128,0.014493900259413198,,,,,,,,,,,,,,,,,,,,,,,,,,,,,,,,,,,,,,False,,
2023-02-28 08:53:43.870299-07:00,106.19486,0.88,0.71,-0.42,-0.31,8.87,857.24,44.0,31.0,-1.0,,,,,,,,,,-0.153754,-1.58034,623.643,22.553,11826.0,-0.56956,-1.0,18.0,-1185.0,95.0,,0.0,,2023-02-28 15:53:43.870299+00:00,1.0589059021571616,0.014456001383709166,,,,,,,,,,,,,,,,,,,,,,,,,,,,,,,,,,,,,,False,,
2023-02-28 08:53:44.870511-07:00,107.195072,0.77,0.74,-0.1,-0.19,8.94,857.25,43.7,43.0,-1.0,,,,,,,,,,-0.144183,-2.24073,399.824,22.5626,11847.0,-0.543618,-1.0,17.0,-1214.0,95.0,,0.0,,2023-02-28 15:53:44.870511+00:00,1.0586554864725617,0.014451491958388758,,,,,,,,,,,,,,,,,,,,,,,,,,,,,,,,,,,,,,False,,
2023-02-28 08:53:45.870970-07:00,108.195531,1.15,0.81,-0.67,-0.46,8.35,857.24,45.67,32.0,-1.0,,,,,,,,,,-0.0105747,-2.49119,-514.331,22.5719,11794.0,-0.537617,-1.0,17.0,-1194.0,95.0,,0.0,,2023-02-28 15:53:45.870970+00:00,1.0608619627934732,0.014489929321823282,,,,,,,,,,,,,,,,,,,,,,,,,,,,,,,,,,,,,,False,,
2023-02-28 08:53:46.870530-07:00,109.195091,1.13,0.8,-0.69,-0.4,8.32,857.24,45.64,34.0,-1.0,,,,,,,,,,0.366947,-2.05117,-709.641,22.5815,11817.0,-0.524882,-1.0,15.0,-1180.0,95.0,,0.0,,2023-02-28 15:53:46.870530+00:00,1.0609750329568437,0.014491891639546605,,,,,,,,,,,,,,,,,,,,,,,,,,,,,,,,,,,,,,False,,
2023-02-28 08:53:47.911225-07:00,110.235786,1.24,0.7,-0.93,-0.43,8.01,857.23,46.61,40.0,-1.0,,,,,,,,,,-0.00456232,-4.95442,220.317,22.5902,11854.0,-0.513327,-1.0,16.0,-1189.0,95.0,,0.0,,2023-02-28 15:53:47.911225+00:00,1.062132447267323,0.014512154693763017,,,,,,,,,,,,,,,,,,,,,,,,,,,,,,,,,,,,,,False,,
2023-02-28 08:53:48.870772-07:00,111.195333,1.01,0.72,-0.68,-0.2,8.64,857.24,44.59,30.0,-1.0,,,,,,,,,,0.000825217,-5.49333,193.994,22.6004,11858.0,-0.492426,-1.0,16.0,-1215.0,95.0,,0.0,,2023-02-28 15:53:48.870772+00:00,1.0597701924353695,0.014470988044327966,,,,,,,,,,,,,,,,,,,,,,,,,,,,,,,,,,,,,,False,,
2023-02-28 08:53:49.871002-07:00,112.195563,1.24,0.94,-0.68,-0.45,8.18,857.23,46.11,41.0,-1.0,,,,,,,,,,-0.0306262,-1.59137,1044.26,22.6094,11786.0,-0.469715,-1.0,14.0,-1203.0,95.0,,0.0,,2023-02-28 15:53:49.871002+00:00,1.061490629771729,0.0145010104545589,,,,,,,,,,,,,,,,,,,,,,,,,,,,,,,,,,,,,,False,,
2023-02-28 08:53:50.870752-07:00,113.195313,1.14,0.61,-0.8,-0.53,8.17,857.25,46.17,32.0,-1.0,,,,,,,,,,-0.0458648,-1.27168,1129.46,22.6182,11827.0,-0.432082,-1.0,17.0,-1172.0,95.0,,0.0,,2023-02-28 15:53:50.870752+00:00,1.0615531287467828,0.014501757147362265,,,,,,,,,,,,,,,,,,,,,,,,,,,,,,,,,,,,,,False,,
2023-02-28 08:53:51.926641-07:00,114.251202,1.29,0.57,-1.04,-0.52,7.98,857.24,46.69,34.0,-1.0,,,,,,,,,,-0.0198764,-2.1284,1141.54,22.6281,11860.0,-0.391589,-1.0,17.0,-1181.0,95.0,,0.0,,2023-02-28 15:53:51.926641+00:00,1.0622581813622263,0.014514169030116025,,,,,,,,,,,,,,,,,,,,,,,,,,,,,,,,,,,,,,False,,
2023-02-28 08:53:52.870452-07:00,115.195013,1.09,0.62,-0.77,-0.44,8.26,857.24,45.88,40.0,-1.0,,,,,,,,,,-0.0175961,-1.63673,1151.18,22.6371,11790.0,-0.375732,-1.0,12.0,-1176.0,95.0,,0.0,,2023-02-28 15:53:52.870452+00:00,1.0612012456073443,0.014495817895078504,,,,,,,,,,,,,,,,,,,,,,,,,,,,,,,,,,,,,,False,,
2023-02-28 08:53:55.814730-07:00,118.139291,0.61,0.23,-0.47,-0.32,8.29,857.26,45.77,42.0,-1.0,,,,,,,,,,-0.0185665,-1.92524,1147.48,22.6561,11841.0,-0.3293,-1.0,16.0,-1230.0,95.0,,0.0,,2023-02-28 15:53:55.814730+00:00,1.061112883142862,0.014493946021990443,,,,,,,,,,,,,,,,,,,,,,,,,,,,,,,,,,,,,,False,,
2023-02-28 08:53:56.864364-07:00,119.188925,0.81,0.38,-0.63,-0.33,8.08,857.24,46.4,32.0,-1.0,,,,,,,,,,-0.0160663,-1.59267,1144.24,22.6645,11785.0,-0.293156,-1.0,12.0,-1222.0,95.0,,0.0,,2023-02-28 15:53:56.864364+00:00,1.0618804627044156,0.014507609638150867,,,,,,,,,,,,,,,,,,,,,,,,,,,,,,,,,,,,,,False,,
2023-02-28 08:53:57.871267-07:00,120.195828,0.58,0.32,-0.46,-0.15,8.76,857.25,44.36,34.0,-1.0,,,,,,,,,,-0.0126698,-2.08886,1185.05,22.6679,11785.0,-0.246726,-1.0,12.0,-1222.0,95.0,,0.0,,2023-02-28 15:53:57.871267+00:00,1.059331439746887,0.014463210534902604,,,,,,,,,,,,,,,,,,,,,,,,,,,,,,,,,,,,,,False,,
2023-02-28 08:53:58.870666-07:00,121.195227,0.83,0.4,-0.67,-0.29,8.65,857.26,44.58,42.0,-1.0,,,,,,,,,,-0.0171249,-2.28991,1177.67,22.6781,11803.0,-0.182565,-1.0,15.0,-1201.0,95.0,,0.0,,2023-02-28 15:53:58.870666+00:00,1.059757309551906,0.01447042699996643,,,,,,,,,,,,,,,,,,,,,,,,,,,,,,,,,,,,,,False,,
2023-02-28 08:53:59.870515-07:00,122.195076,0.8,0.22,-0.67,-0.38,8.06,857.24,46.38,30.0,-1.0,,,,,,,,,,-0.00749854,-2.33673,1182.42,22.6871,11835.0,-0.2142,-1.0,15.0,-1181.0,95.0,,0.0,,2023-02-28 15:53:59.870515+00:00,1.0619559849449263,0.014508921034761283,,,,,,,,,,,,,,,,,,,,,,,,,,,,,,,,,,,,,,False,,
2023-02-28 08:54:00.870921-07:00,123.195482,0.61,0.44,-0.36,-0.23,8.81,857.25,44.04,42.0,-1.0,,,,,,,,,,-0.0172557,-2.57736,1174.32,22.6967,11839.0,-0.284998,-1.0,14.0,-1201.0,95.0,,0.0,,2023-02-28 15:54:00.870921+00:00,1.0591435883779434,0.014459953438467734,,,,,,,,,,,,,,,,,,,,,,,,,,,,,,,,,,,,,,False,,
2023-02-28 08:54:01.871213-07:00,124.195774,0.8,0.18,-0.64,-0.44,8.02,857.25,46.53,31.0,-1.0,,,,,,,,,,-0.0193546,-1.71409,1173.94,22.7061,11775.0,-0.264269,-1.0,14.0,-1209.0,95.0,,0.0,,2023-02-28 15:54:01.871213+00:00,1.0621194515028094,0.014511590432743297,,,,,,,,,,,,,,,,,,,,,,,,,,,,,,,,,,,,,,False,,
2023-02-28 08:54:02.870616-07:00,125.195177,0.75,0.34,-0.61,-0.29,8.24,857.25,45.72,34.0,-1.0,,,,,,,,,,-0.0174451,-1.96538,1173.6,22.7152,11826.0,-0.253366,-1.0,18.0,-1181.0,95.0,,0.0,,2023-02-28 15:54:02.870616+00:00,1.0612890514198974,0.014497172911570409,,,,,,,,,,,,,,,,,,,,,,,,,,,,,,,,,,,,,,False,,
2023-02-28 08:54:03.871222-07:00,126.195783,0.4,0.16,-0.24,-0.28,8.51,857.24,44.93,39.0,-1.0,,,,,,,,,,-0.0138605,-2.23132,1176.48,22.7244,11854.0,-0.263563,-1.0,17.0,-1189.0,95.0,,0.0,,2023-02-28 15:54:03.871222+00:00,1.0602593287167605,0.01447947273750684,,,,,,,,,,,,,,,,,,,,,,,,,,,,,,,,,,,,,,False,,
2023-02-28 08:54:04.870790-07:00,127.195351,0.87,0.79,-0.35,-0.12,8.84,857.25,43.87,30.0,-1.0,,,,,,,,,,-0.0147255,-2.13972,1178.13,22.7329,11783.0,-0.269606,-1.0,14.0,-1187.0,95.0,,0.0,,2023-02-28 15:54:04.870790+00:00,1.0590309095324124,0.014457999895867126,,,,,,,,,,,,,,,,,,,,,,,,,,,,,,,,,,,,,,False,,
2023-02-28 08:54:05.870879-07:00,128.19544,0.9,0.73,-0.46,-0.24,8.27,857.24,45.61,43.0,-1.0,,,,,,,,,,-0.0144347,-2.23296,1172.17,22.742,11822.0,-0.286735,-1.0,17.0,-1195.0,95.0,,0.0,,2023-02-28 15:54:05.870879+00:00,1.0611635368003793,0.014495163369094509,,,,,,,,,,,,,,,,,,,,,,,,,,,,,,,,,,,,,,False,,
2023-02-28 08:54:06.871141-07:00,129.195702,0.78,0.63,-0.44,-0.08,8.4,857.25,45.16,30.0,-1.0,,,,,,,,,,-0.00180369,-2.1191,1180.46,22.7515,11822.0,-0.277361,-1.0,17.0,-1195.0,95.0,,0.0,,2023-02-28 15:54:06.871141+00:00,1.0606859391903567,0.014486705704995414,,,,,,,,,,,,,,,,,,,,,,,,,,,,,,,,,,,,,,False,,
2023-02-28 08:54:07.870773-07:00,130.195334,0.73,0.57,-0.44,-0.08,8.54,857.26,44.73,37.0,-1.0,,,,,,,,,,-0.0028693,-2.95366,1177.41,22.7606,11844.0,-0.252412,-1.0,20.0,-1197.0,95.0,,0.0,,2023-02-28 15:54:07.870773+00:00,1.0601711449882036,0.014477605137640516,,,,,,,,,,,,,,,,,,,,,,,,,,,,,,,,,,,,,,False,,
2023-02-28 08:54:08.870447-07:00,131.195008,0.85,0.49,-0.63,-0.28,8.4,857.25,45.26,37.0,-1.0,,,,,,,,,,-0.0195011,-2.92481,1172.72,22.7693,11804.0,-0.253899,-1.0,14.0,-1213.0,95.0,,0.0,,2023-02-28 15:54:08.870447+00:00,1.0606859391903567,0.014486705704995414,,,,,,,,,,,,,,,,,,,,,,,,,,,,,,,,,,,,,,False,,
2023-02-28 08:54:09.870552-07:00,132.195113,0.81,0.53,-0.57,-0.23,8.35,857.25,45.37,31.0,-1.0,,,,,,,,,,0.651092,-3.21281,1319.33,22.7788,11779.0,-0.293506,-1.0,16.0,-1204.0,95.0,,0.0,,2023-02-28 15:54:09.870552+00:00,1.0608743381138361,0.014489975057393913,,,,,,,,,,,,,,,,,,,,,,,,,,,,,,,,,,,,,,False,,
2023-02-28 08:54:10.871246-07:00,133.195807,0.85,0.66,-0.54,-0.06,8.38,857.25,45.25,42.0,-1.0,,,,,,,,,,0.655844,-3.15303,1316.97,22.7875,11837.0,-0.317248,-1.0,18.0,-1177.0,95.0,,0.0,,2023-02-28 15:54:10.871246+00:00,1.060761290729389,0.01448801326610589,,,,,,,,,,,,,,,,,,,,,,,,,,,,,,,,,,,,,,False,,
2023-02-28 08:54:11.870531-07:00,134.195092,0.98,0.8,-0.56,0.07,8.3,857.24,45.42,30.0,-1.0,,,,,,,,,,0.658921,-3.16087,1315.55,22.7967,11792.0,-0.330728,-1.0,14.0,-1236.0,95.0,,0.0,,2023-02-28 15:54:11.870531+00:00,1.0610504264571425,0.014493200151323828,,,,,,,,,,,,,,,,,,,,,,,,,,,,,,,,,,,,,,False,,
2023-02-28 08:54:12.871223-07:00,135.195784,0.61,0.49,-0.33,-0.15,8.53,857.23,44.77,38.0,-1.0,,,,,,,,,,0.820305,-3.36285,1550.57,22.8058,11793.0,-0.36039,-1.0,14.0,-1197.0,95.0,,0.0,,2023-02-28 15:54:12.871223+00:00,1.0601716801820527,0.014478121086835024,,,,,,,,,,,,,,,,,,,,,,,,,,,,,,,,,,,,,,False,,
2023-02-28 08:54:13.870733-07:00,136.195294,0.59,0.51,-0.26,-0.11,8.36,857.24,45.21,36.0,-1.0,,,,,,,,,,-0.00573593,-4.59888,1066.11,22.81,11822.0,-0.282847,-1.0,15.0,-1218.0,95.0,,0.0,,2023-02-28 15:54:13.870733+00:00,1.060824278094429,0.014489275335867722,,,,,,,,,,,,,,,,,,,,,,,,,,,,,,,,,,,,,,False,,
2023-02-28 08:54:14.870923-07:00,137.195484,0.51,0.43,-0.25,0.11,9.05,857.25,43.25,31.0,-1.0,,,,,,,,,,-0.000375729,-4.27753,1165.92,22.818,11830.0,-0.227294,-1.0,14.0,-1234.0,95.0,,0.0,,2023-02-28 15:54:14.870923+00:00,1.058242828416176,0.014444340098548624,,,,,,,,,,,,,,,,,,,,,,,,,,,,,,,,,,,,,,False,,
2023-02-28 08:54:15.870246-07:00,138.194807,0.52,0.41,-0.32,-0.04,8.85,857.24,43.8,43.0,-1.0,,,,,,,,,,0.657831,-3.53797,1315.58,22.8266,11775.0,-0.259833,-1.0,14.0,-1215.0,95.0,,0.0,,2023-02-28 15:54:15.870246+00:00,1.0589810018665344,0.014457303319613252,,,,,,,,,,,,,,,,,,,,,,,,,,,,,,,,,,,,,,False,,
2023-02-28 08:54:16.870383-07:00,139.194944,0.42,0.34,-0.25,-0.02,8.89,857.24,43.73,30.0,-1.0,,,,,,,,,,0.00507151,-3.40937,1170.98,22.8366,11775.0,-0.245443,-1.0,14.0,-1215.0,95.0,,0.0,,2023-02-28 15:54:16.870383+00:00,1.0588308130987192,0.014454699686008484,,,,,,,,,,,,,,,,,,,,,,,,,,,,,,,,,,,,,,False,,
2023-02-28 08:54:17.870466-07:00,140.195027,0.47,0.43,-0.17,0.05,9.18,857.24,43.69,35.0,-1.0,,,,,,,,,,0.829461,-3.75882,1558.6,22.8458,11813.0,-0.318627,-1.0,16.0,-1189.0,95.0,,0.0,,2023-02-28 15:54:17.870466+00:00,1.057743217250603,0.01443585179776931,,,,,,,,,,,,,,,,,,,,,,,,,,,,,,,,,,,,,,False,,
2023-02-28 08:54:18.871214-07:00,141.195775,0.37,0.35,-0.11,0.08,9.41,857.25,43.02,38.0,-1.0,,,,,,,,,,0.663866,-4.18138,1317.87,22.8546,11844.0,-0.435165,-1.0,15.0,-1207.0,95.0,,0.0,,2023-02-28 15:54:18.871214+00:00,1.05689455754192,0.01442098421370684,,,,,,,,,,,,,,,,,,,,,,,,,,,,,,,,,,,,,,False,,
2023-02-28 08:54:19.870568-07:00,142.195129,0.32,0.29,-0.07,0.12,10.04,857.25,41.24,30.0,-1.0,,,,,,,,,,0.662424,-4.60613,1317.13,22.8635,11779.0,-0.60892,-1.0,14.0,-1197.0,95.0,,0.0,,2023-02-28 15:54:19.870568+00:00,1.054543331964564,0.014380295556814351,,,,,,,,,,,,,,,,,,,,,,,,,,,,,,,,,,,,,,False,,
2023-02-28 08:54:20.871147-07:00,143.195708,0.6,0.4,-0.44,0.08,8.48,857.26,45.88,41.0,-1.0,,,,,,,,,,0.666409,-3.55273,1317.34,22.8731,11838.0,-0.614849,-1.0,14.0,-1189.0,95.0,,0.0,,2023-02-28 15:54:20.871147+00:00,1.0603970096641944,0.014481523535492893,,,,,,,,,,,,,,,,,,,,,,,,,,,,,,,,,,,,,,False,,
2023-02-28 08:54:21.871120-07:00,144.195681,0.53,0.46,-0.26,-0.06,8.57,857.25,45.53,33.0,-1.0,,,,,,,,,,0.666064,-4.12722,1319.05,22.8819,11849.0,-0.631927,-1.0,18.0,-1212.0,95.0,,0.0,,2023-02-28 15:54:21.871120+00:00,1.0600458830720039,0.01447560110782994,,,,,,,,,,,,,,,,,,,,,,,,,,,,,,,,,,,,,,False,,
2023-02-28 08:54:22.870947-07:00,145.195508,0.63,0.63,-0.06,-0.03,8.5,857.24,45.92,34.0,-1.0,,,,,,,,,,0.665245,-4.11743,1317.64,22.8906,11814.0,-0.645011,-1.0,17.0,-1217.0,95.0,,0.0,,2023-02-28 15:54:22.870947+00:00,1.0602969732872811,0.014480125824874322,,,,,,,,,,,,,,,,,,,,,,,,,,,,,,,,,,,,,,False,,
2023-02-28 08:54:23.870788-07:00,146.195349,0.47,0.33,-0.31,0.13,10.2,857.24,40.76,41.0,-1.0,,,,,,,,,,0.838771,-3.93897,1554.66,22.8996,11796.0,-0.652903,-1.0,16.0,-1195.0,95.0,,0.0,,2023-02-28 15:54:23.870788+00:00,1.053935565648007,0.014369954131328078,,,,,,,,,,,,,,,,,,,,,,,,,,,,,,,,,,,,,,False,,
2023-02-28 08:54:24.870849-07:00,147.19541,0.48,0.19,-0.44,0.01,9.83,857.25,41.87,30.0,-1.0,,,,,,,,,,0.840853,-4.127,1548.24,22.9087,11814.0,-0.66225,-1.0,17.0,-1188.0,95.0,,0.0,,2023-02-28 15:54:24.870849+00:00,1.055325910591013,0.014393832493237637,,,,,,,,,,,,,,,,,,,,,,,,,,,,,,,,,,,,,,False,,
2023-02-28 08:54:25.870898-07:00,148.195459,0.27,0.07,-0.2,0.16,10.8,857.25,39.28,42.0,-1.0,,,,,,,,,,0.846072,-4.23063,1542.2,22.9185,11849.0,-0.669946,-1.0,20.0,-1191.0,95.0,,0.0,,2023-02-28 15:54:25.870898+00:00,1.0517208176758053,0.014331520284572043,,,,,,,,,,,,,,,,,,,,,,,,,,,,,,,,,,,,,,False,,
2023-02-28 08:54:26.870999-07:00,149.19556,0.36,-0.09,-0.32,0.13,10.68,857.25,39.5,33.0,-1.0,,,,,,,,,,0.842985,-4.81681,1535.27,22.9271,11849.0,-0.682042,-1.0,20.0,-1191.0,95.0,,0.0,,2023-02-28 15:54:26.870999+00:00,1.0521654729205683,0.014339199273510912,,,,,,,,,,,,,,,,,,,,,,,,,,,,,,,,,,,,,,False,,
2023-02-28 08:54:27.870356-07:00,150.194917,0.61,-0.54,-0.02,0.29,9.28,857.26,43.45,34.0,-1.0,,,,,,,,,,0.854653,-4.46667,1555.02,22.9355,11801.0,-0.685998,-1.0,15.0,-1198.0,95.0,,0.0,,2023-02-28 15:54:27.870356+00:00,1.05739337121314,0.014429454751379522,,,,,,,,,,,,,,,,,,,,,,,,,,,,,,,,,,,,,,False,,
2023-02-28 08:54:28.871135-07:00,151.195696,0.69,-0.59,-0.25,0.26,9.29,857.25,43.42,42.0,-1.0,,,,,,,,,,0.92016,-4.4799,1739.25,22.9446,11790.0,-0.689312,-1.0,16.0,-1159.0,95.0,,0.0,,2023-02-28 15:54:28.871135+00:00,1.057343599274341,0.014428760977080062,,,,,,,,,,,,,,,,,,,,,,,,,,,,,,,,,,,,,,False,,
2023-02-28 08:54:29.870869-07:00,152.19543,0.64,-0.06,-0.59,0.23,9.93,857.24,41.53,30.0,-1.0,,,,,,,,,,0.724207,-4.66721,1472.19,22.9503,11830.0,-0.681482,-1.0,18.0,-1172.0,95.0,,0.0,,2023-02-28 15:54:29.870869+00:00,1.054940803046357,0.014387338062371177,,,,,,,,,,,,,,,,,,,,,,,,,,,,,,,,,,,,,,False,,
2023-02-28 08:54:30.870944-07:00,153.195505,0.49,0.15,-0.41,0.22,10.76,857.24,39.31,42.0,-1.0,,,,,,,,,,0.7041,-4.73922,1386.54,22.9573,11850.0,-0.672364,-1.0,19.0,-1187.0,95.0,,0.0,,2023-02-28 15:54:30.870944+00:00,1.0518567240546748,0.014334034335424841,,,,,,,,,,,,,,,,,,,,,,,,,,,,,,,,,,,,,,False,,
2023-02-28 08:54:32.870905-07:00,155.195466,0.24,0.12,-0.12,-0.17,8.44,857.23,46.07,35.0,-1.0,,,,,,,,,,0.0087197,-5.03095,957.983,22.9668,11843.0,-0.537018,-1.0,19.0,-1205.0,95.0,,0.0,,2023-02-28 15:54:32.870905+00:00,1.0605105254933789,0.014483999910901608,,,,,,,,,,,,,,,,,,,,,,,,,,,,,,,,,,,,,,False,,
2023-02-28 08:54:33.870311-07:00,156.194872,0.55,0.21,-0.5,0.04,9.22,857.24,43.68,40.0,-1.0,,,,,,,,,,0.878349,-5.23166,1610.71,22.976,11789.0,-0.522904,-1.0,15.0,-1189.0,95.0,,0.0,,2023-02-28 15:54:33.870311+00:00,1.0575933793475323,0.01443325600740529,,,,,,,,,,,,,,,,,,,,,,,,,,,,,,,,,,,,,,False,,
2023-02-28 08:54:34.870951-07:00,157.195512,0.2,-0.05,-0.03,0.19,10.72,857.24,39.45,30.0,-1.0,,,,,,,,,,0.913001,-4.74307,1701.21,22.9852,11788.0,-0.499413,-1.0,17.0,-1165.0,95.0,,0.0,,2023-02-28 15:54:34.870951+00:00,1.052004940734712,0.014336593981030297,,,,,,,,,,,,,,,,,,,,,,,,,,,,,,,,,,,,,,False,,
2023-02-28 08:54:35.870600-07:00,158.195161,0.46,0.33,-0.27,0.18,11.13,857.24,38.45,42.0,-1.0,,,,,,,,,,0.947945,-4.7153,1800.64,22.994,11843.0,-0.462423,-1.0,20.0,-1180.0,95.0,,0.0,,2023-02-28 15:54:35.870600+00:00,1.0504876970816193,0.014310401584732218,,,,,,,,,,,,,,,,,,,,,,,,,,,,,,,,,,,,,,False,,
2023-02-28 08:54:36.870577-07:00,159.195138,0.87,0.36,-0.74,0.29,9.97,857.23,41.49,31.0,-1.0,,,,,,,,,,0.184344,-1.28979,-1140.36,23.0034,11848.0,-0.432574,-1.0,18.0,-1205.0,95.0,,0.0,,2023-02-28 15:54:36.870577+00:00,1.0547794534956223,0.014384714944272995,,,,,,,,,,,,,,,,,,,,,,,,,,,,,,,,,,,,,,False,,
2023-02-28 08:54:37.870909-07:00,160.19547,0.94,0.84,0.0,-0.41,8.31,857.24,46.53,35.0,-1.0,,,,,,,,,,0.187741,-1.50039,-1125.1,23.0121,11814.0,-0.409975,-1.0,16.0,-1211.0,95.0,,0.0,,2023-02-28 15:54:37.870909+00:00,1.0610127283676642,0.01449254586543364,,,,,,,,,,,,,,,,,,,,,,,,,,,,,,,,,,,,,,False,,
2023-02-28 08:54:38.870304-07:00,161.194865,0.61,0.11,-0.57,0.19,9.54,857.24,42.86,39.0,-1.0,,,,,,,,,,-0.332821,-1.32421,-1611.05,23.0214,11787.0,-0.508735,-1.0,14.0,-1177.0,95.0,,0.0,,2023-02-28 15:54:38.870304+00:00,1.056396202647291,0.014412523781362482,,,,,,,,,,,,,,,,,,,,,,,,,,,,,,,,,,,,,,False,,
2023-02-28 08:54:39.871274-07:00,162.195835,0.5,-0.2,-0.43,0.16,8.8,857.23,44.95,30.0,-1.0,,,,,,,,,,-0.489592,-1.72686,-1609.21,23.031,11794.0,-0.57253,-1.0,16.0,-1175.0,95.0,,0.0,,2023-02-28 15:54:39.871274+00:00,1.0591564421836515,0.014460513665735496,,,,,,,,,,,,,,,,,,,,,,,,,,,,,,,,,,,,,,False,,
2023-02-28 08:54:40.870538-07:00,163.195099,0.29,0.01,-0.22,0.19,10.1,857.25,41.34,41.0,-1.0,,,,,,,,,,-0.498451,-2.18827,-1614.82,23.0402,11853.0,-0.619732,-1.0,20.0,-1185.0,95.0,,0.0,,2023-02-28 15:54:40.870538+00:00,1.0543199512058072,0.014376432612153735,,,,,,,,,,,,,,,,,,,,,,,,,,,,,,,,,,,,,,False,,
2023-02-28 08:54:41.871393-07:00,164.195954,0.66,0.42,-0.47,0.2,9.82,857.24,42.08,32.0,-1.0,,,,,,,,,,-0.663681,-1.86208,-1601.18,23.0489,11839.0,-0.672048,-1.0,17.0,-1198.0,95.0,,0.0,,2023-02-28 15:54:41.871393+00:00,1.055350894180877,0.014394432665576364,,,,,,,,,,,,,,,,,,,,,,,,,,,,,,,,,,,,,,False,,
2023-02-28 08:54:42.870708-07:00,165.195269,0.58,-0.03,-0.51,0.27,10.41,857.25,40.39,35.0,-1.0,,,,,,,,,,-0.828457,-2.02315,-1389.09,23.0585,11795.0,-0.707189,-1.0,14.0,-1192.0,95.0,,0.0,,2023-02-28 15:54:42.870708+00:00,1.0531673232439163,0.014356507619023939,,,,,,,,,,,,,,,,,,,,,,,,,,,,,,,,,,,,,,False,,
2023-02-28 08:54:43.870731-07:00,166.195292,0.46,-0.04,-0.38,0.26,9.83,857.24,42.09,40.0,-1.0,,,,,,,,,,-0.497847,-2.20068,-643.291,23.0677,11789.0,-0.738252,-1.0,15.0,-1164.0,95.0,,0.0,,2023-02-28 15:54:43.870731+00:00,1.0553135999942143,0.014393787407838568,,,,,,,,,,,,,,,,,,,,,,,,,,,,,,,,,,,,,,False,,
2023-02-28 08:54:44.870603-07:00,167.195164,0.63,-0.03,-0.6,0.2,10.24,857.24,40.96,30.0,-1.0,,,,,,,,,,-0.0901749,9.39218,34.5352,23.0779,11842.0,-0.487131,-1.0,19.0,-1211.0,95.0,,0.0,,2023-02-28 15:54:44.870603+00:00,1.0537868044968515,0.014367382364515393,,,,,,,,,,,,,,,,,,,,,,,,,,,,,,,,,,,,,,False,,
2023-02-28 08:54:45.871288-07:00,168.195849,0.68,-0.4,-0.54,0.07,9.1,857.24,44.26,42.0,-1.0,,,,,,,,,,-0.0705068,8.8719,74.3858,23.0875,11842.0,-0.476623,-1.0,19.0,-1211.0,95.0,,0.0,,2023-02-28 15:54:45.871288+00:00,1.0580430204654128,0.01444104622552291,,,,,,,,,,,,,,,,,,,,,,,,,,,,,,,,,,,,,,False,,
2023-02-28 08:54:46.870410-07:00,169.194971,0.55,0.26,-0.48,0.06,10.09,857.23,41.43,31.0,-1.0,,,,,,,,,,0.532202,8.95092,1038.81,23.0966,11833.0,-0.373907,-1.0,19.0,-1218.0,95.0,,0.0,,2023-02-28 15:54:46.870410+00:00,1.0543325761674924,0.014376986345296881,,,,,,,,,,,,,,,,,,,,,,,,,,,,,,,,,,,,,,False,,
2023-02-28 08:54:47.870547-07:00,170.195108,0.62,-0.01,-0.59,0.18,10.1,857.23,41.29,38.0,-1.0,,,,,,,,,,2.12111,5.10497,3399.8,23.1062,11803.0,-0.15933,-1.0,17.0,-1204.0,95.0,,0.0,,2023-02-28 15:54:47.870547+00:00,1.0542953534816613,0.014376342676340689,,,,,,,,,,,,,,,,,,,,,,,,,,,,,,,,,,,,,,False,,
2023-02-28 08:54:48.870324-07:00,171.194885,0.47,0.0,-0.33,0.33,11.02,857.23,38.88,34.0,-1.0,,,,,,,,,,2.11534,5.37479,3421.5,23.1151,11786.0,0.000679934,-1.0,16.0,-1174.0,95.0,,0.0,,2023-02-28 15:54:48.870324+00:00,1.050882073666047,0.014317374687826992,,,,,,,,,,,,,,,,,,,,,,,,,,,,,,,,,,,,,,False,,
2023-02-28 08:54:49.870916-07:00,172.195477,0.75,0.52,-0.53,0.1,10.6,857.24,40.1,32.0,-1.0,,,,,,,,,,2.10601,5.04237,3446.03,23.1244,11788.0,0.108216,-1.0,17.0,-1194.0,95.0,,0.0,,2023-02-28 15:54:49.870916+00:00,1.0524498415025998,0.014344278496261489,,,,,,,,,,,,,,,,,,,,,,,,,,,,,,,,,,,,,,False,,
2023-02-28 08:54:50.871002-07:00,173.195563,1.17,0.34,-1.09,-0.24,8.34,857.23,46.67,40.0,-1.0,,,,,,,,,,2.06972,5.37574,3447.86,23.1331,11838.0,0.192317,-1.0,18.0,-1204.0,95.0,,0.0,,2023-02-28 15:54:50.871002+00:00,1.0608872744100346,0.014490537628133302,,,,,,,,,,,,,,,,,,,,,,,,,,,,,,,,,,,,,,False,,
2023-02-28 08:54:51.870687-07:00,174.195248,1.6,0.49,-1.46,-0.42,8.15,857.23,47.32,30.0,-1.0,,,,,,,,,,2.00346,5.77241,3399.66,23.1435,11815.0,0.257581,-1.0,15.0,-1209.0,95.0,,0.0,,2023-02-28 15:54:51.870687+00:00,1.0616038353134751,0.014502975821594178,,,,,,,,,,,,,,,,,,,,,,,,,,,,,,,,,,,,,,False,,
2023-02-28 08:54:52.870824-07:00,175.195385,1.28,0.36,-1.15,-0.43,8.15,857.23,47.4,42.0,-1.0,,,,,,,,,,1.97227,6.42091,3355.35,23.1517,11782.0,0.314208,-1.0,16.0,-1181.0,95.0,,0.0,,2023-02-28 15:54:52.870824+00:00,1.0616038353134751,0.014502975821594178,,,,,,,,,,,,,,,,,,,,,,,,,,,,,,,,,,,,,,False,,
2023-02-28 08:54:53.870665-07:00,176.195226,1.26,0.21,-1.18,-0.39,8.55,857.23,46.06,30.0,-1.0,,,,,,,,,,1.96104,7.12018,3331.38,23.1613,11778.0,0.363744,-1.0,18.0,-1172.0,95.0,,0.0,,2023-02-28 15:54:53.870665+00:00,1.0600964106271942,0.014476815339762583,,,,,,,,,,,,,,,,,,,,,,,,,,,,,,,,,,,,,,False,,
2023-02-28 08:54:54.870876-07:00,177.195437,0.81,0.15,-0.79,0.08,9.52,857.24,43.16,36.0,-1.0,,,,,,,,,,1.97266,7.15866,3335.41,23.1706,11827.0,0.409454,-1.0,20.0,-1202.0,95.0,,0.0,,2023-02-28 15:54:54.870876+00:00,1.0564709467802127,0.01441381777232067,,,,,,,,,,,,,,,,,,,,,,,,,,,,,,,,,,,,,,False,,
2023-02-28 08:54:55.871125-07:00,178.195686,0.68,0.08,-0.62,0.25,10.31,857.22,40.1,35.0,-1.0,,,,,,,,,,1.96817,6.71661,3340.54,23.18,11827.0,0.446788,-1.0,20.0,-1202.0,95.0,,0.0,,2023-02-28 15:54:55.871125+00:00,1.0535019940062034,0.014362794269976378,,,,,,,,,,,,,,,,,,,,,,,,,,,,,,,,,,,,,,False,,
2023-02-28 08:54:56.871073-07:00,179.195634,1.03,-0.06,-1.0,0.26,10.1,857.24,40.69,32.0,-1.0,,,,,,,,,,1.97212,6.80423,3345.85,23.1891,11842.0,0.480247,-1.0,18.0,-1211.0,95.0,,0.0,,2023-02-28 15:54:56.871073+00:00,1.0543076523437342,0.014376387644055254,,,,,,,,,,,,,,,,,,,,,,,,,,,,,,,,,,,,,,False,,
2023-02-28 08:54:57.870810-07:00,180.195371,0.24,-0.06,-0.23,0.03,9.03,857.23,43.78,40.0,-1.0,,,,,,,,,,1.97818,7.46876,3367.84,23.198,11820.0,0.514406,-1.0,17.0,-1223.0,95.0,,0.0,,2023-02-28 15:54:57.870810+00:00,1.058293142227233,0.014445549031464392,,,,,,,,,,,,,,,,,,,,,,,,,,,,,,,,,,,,,,False,,
2023-02-28 08:54:58.870936-07:00,181.195497,0.41,0.24,-0.09,0.32,10.88,857.23,38.65,29.0,-1.0,,,,,,,,,,1.97622,7.63188,3386.24,23.2073,11780.0,0.545077,-1.0,14.0,-1193.0,95.0,,0.0,,2023-02-28 15:54:58.870936+00:00,1.0514000594080928,0.014326316338960692,,,,,,,,,,,,,,,,,,,,,,,,,,,,,,,,,,,,,,False,,
2023-02-28 08:54:59.870262-07:00,182.194823,0.9,0.5,-0.74,0.05,9.68,857.23,41.89,41.0,-1.0,,,,,,,,,,1.97583,7.19458,3396.31,23.2167,11836.0,0.575016,-1.0,19.0,-1189.0,95.0,,0.0,,2023-02-28 15:54:59.870262+00:00,1.055860972576037,0.014403427300479504,,,,,,,,,,,,,,,,,,,,,,,,,,,,,,,,,,,,,,False,,
2023-02-28 08:55:00.870951-07:00,183.195512,0.97,0.7,-0.64,0.2,9.56,857.23,42.18,31.0,-1.0,,,,,,,,,,1.96674,6.84728,3377.68,23.2259,11838.0,0.595706,-1.0,19.0,-1212.0,95.0,,0.0,,2023-02-28 15:55:00.870951+00:00,1.056309146735809,0.014411184823749921,,,,,,,,,,,,,,,,,,,,,,,,,,,,,,,,,,,,,,False,,
2023-02-28 08:55:01.870541-07:00,184.195102,0.61,-0.11,-0.6,-0.07,8.44,857.23,44.64,39.0,-1.0,,,,,,,,,,1.96238,8.11388,3350.1,23.2359,11798.0,0.61824,-1.0,14.0,-1214.0,95.0,,0.0,,2023-02-28 15:55:01.870541+00:00,1.0605105254933789,0.014483999910901608,,,,,,,,,,,,,,,,,,,,,,,,,,,,,,,,,,,,,,False,,
2023-02-28 08:55:02.870296-07:00,185.194857,0.82,0.38,-0.67,-0.28,8.29,857.23,45.11,33.0,-1.0,,,,,,,,,,1.96448,6.81014,3329.57,23.247,11782.0,0.610631,-1.0,14.0,-1189.0,95.0,,0.0,,2023-02-28 15:55:02.870296+00:00,1.061075749266915,0.014493808735426722,,,,,,,,,,,,,,,,,,,,,,,,,,,,,,,,,,,,,,False,,
2023-02-28 08:55:03.870908-07:00,186.195469,0.23,0.08,-0.21,-0.05,8.69,857.23,44.01,34.0,-1.0,,,,,,,,,,1.96055,7.44448,3313.8,23.2562,11802.0,0.644176,-1.0,16.0,-1185.0,95.0,,0.0,,2023-02-28 15:55:03.870908+00:00,1.0595698228558068,0.014467681805155624,,,,,,,,,,,,,,,,,,,,,,,,,,,,,,,,,,,,,,False,,
2023-02-28 08:55:04.870843-07:00,187.195404,0.64,-0.57,-0.29,0.01,8.55,857.23,44.36,37.0,-1.0,,,,,,,,,,1.96014,7.15603,3303.43,23.2654,11847.0,0.680884,-1.0,17.0,-1199.0,95.0,,0.0,,2023-02-28 15:55:04.870843+00:00,1.0600964106271942,0.014476815339762583,,,,,,,,,,,,,,,,,,,,,,,,,,,,,,,,,,,,,,False,,
2023-02-28 08:55:05.870885-07:00,188.195446,0.36,0.12,-0.28,-0.2,8.6,857.22,44.17,32.0,-1.0,,,,,,,,,,1.95582,7.32615,3281.99,23.2748,11847.0,0.729002,0.0026498,17.0,-1199.0,95.0,,0.0,,2023-02-28 15:55:05.870885+00:00,1.0598959191517245,0.014473506394476527,,,,,,,,,,,,,,,,,,,,,,,,,,,,,,,,,,,,,,False,,
2023-02-28 08:55:06.871188-07:00,189.195749,0.37,-0.36,-0.04,0.07,8.43,857.23,44.73,42.0,-1.0,,,,,,,,,,1.95906,6.95176,3267.37,23.2841,11841.0,0.723572,0.002557,17.0,-1214.0,95.0,,0.0,,2023-02-28 15:55:06.871188+00:00,1.0605481883432082,0.01448465341295372,,,,,,,,,,,,,,,,,,,,,,,,,,,,,,,,,,,,,,False,,
2023-02-28 08:55:07.871255-07:00,190.195816,0.5,-0.4,-0.12,0.28,10.25,857.23,39.58,30.0,-1.0,,,,,,,,,,1.95846,7.27727,3272.74,23.2928,11787.0,0.71761,0.00244827,16.0,-1201.0,95.0,,0.0,,2023-02-28 15:55:07.871255+00:00,1.0537373284180682,0.014366694666267707,,,,,,,,,,,,,,,,,,,,,,,,,,,,,,,,,,,,,,False,,
2023-02-28 08:55:08.871026-07:00,191.195587,0.5,-0.45,-0.21,0.07,10.34,857.22,39.32,43.0,-1.0,,,,,,,,,,1.95949,6.82694,3280.43,23.3032,11783.0,0.691949,-1.0,17.0,-1174.0,95.0,,0.0,,2023-02-28 15:55:08.871026+00:00,1.0533905083812425,0.014360867311597615,,,,,,,,,,,,,,,,,,,,,,,,,,,,,,,,,,,,,,False,,
2023-02-28 08:55:09.870406-07:00,192.194967,0.62,-0.3,-0.53,0.11,9.14,857.24,42.7,30.0,-1.0,,,,,,,,,,1.95809,7.7093,3284.28,23.312,11842.0,0.651949,-1.0,16.0,-1179.0,95.0,,0.0,,2023-02-28 15:55:09.870406+00:00,1.0578930976172118,0.01443844853697126,,,,,,,,,,,,,,,,,,,,,,,,,,,,,,,,,,,,,,False,,
2023-02-28 08:55:10.871137-07:00,193.195698,0.58,-0.15,-0.54,0.14,9.45,857.23,42.71,40.0,-1.0,,,,,,,,,,1.95981,7.93735,3288.91,23.3215,11848.0,0.589429,-1.0,17.0,-1194.0,95.0,,0.0,,2023-02-28 15:55:10.871137+00:00,1.0567203074086362,0.01441830334979555,,,,,,,,,,,,,,,,,,,,,,,,,,,,,,,,,,,,,,False,,
2023-02-28 08:55:11.870844-07:00,194.195405,0.36,-0.08,-0.28,0.22,10.09,857.23,40.09,32.0,-1.0,,,,,,,,,,1.96345,7.51579,3301.04,23.3301,11807.0,0.475083,-1.0,15.0,-1200.0,95.0,,0.0,,2023-02-28 15:55:11.870844+00:00,1.0543325761674924,0.014376986345296881,,,,,,,,,,,,,,,,,,,,,,,,,,,,,,,,,,,,,,False,,
2023-02-28 08:55:12.870726-07:00,195.195287,0.3,-0.23,-0.18,-0.04,8.75,857.24,43.84,37.0,-1.0,,,,,,,,,,1.96345,8.70868,3310.25,23.3393,11779.0,0.210959,-1.0,14.0,-1183.0,95.0,,0.0,,2023-02-28 15:55:12.870726+00:00,1.0593566602566966,0.014463816574436354,,,,,,,,,,,,,,,,,,,,,,,,,,,,,,,,,,,,,,False,,
2023-02-28 08:55:13.870889-07:00,196.19545,0.62,0.11,-0.59,0.15,9.85,857.22,40.74,35.0,-1.0,,,,,,,,,,1.95949,8.29707,3305.9,23.3483,11793.0,-0.631443,-1.0,15.0,-1167.0,95.0,,0.0,,2023-02-28 15:55:13.870889+00:00,1.0552144000741992,0.014392406916473442,,,,,,,,,,,,,,,,,,,,,,,,,,,,,,,,,,,,,,False,,
2023-02-28 08:55:14.870323-07:00,197.194884,0.45,0.4,-0.16,0.12,11.16,857.22,37.38,34.0,-1.0,,,,,,,,,,1.96239,8.70908,3310.6,23.358,11793.0,-0.514053,-1.0,15.0,-1167.0,95.0,,0.0,,2023-02-28 15:55:14.870323+00:00,1.050352345049412,0.014308399865466004,,,,,,,,,,,,,,,,,,,,,,,,,,,,,,,,,,,,,,False,,
2023-02-28 08:55:15.870569-07:00,198.19513,0.21,-0.05,-0.05,0.19,11.76,857.22,35.94,38.0,-1.0,,,,,,,,,,1.9614,8.1939,3305.69,23.3664,11839.0,-0.463371,-1.0,17.0,-1215.0,95.0,,0.0,,2023-02-28 15:55:15.870569+00:00,1.0481403784387997,0.01427025529106302,,,,,,,,,,,,,,,,,,,,,,,,,,,,,,,,,,,,,,False,,
2023-02-28 08:55:17.871078-07:00,200.195639,0.56,0.27,-0.49,0.06,10.46,857.23,39.18,41.0,-1.0,,,,,,,,,,1.96311,8.47221,3306.57,23.3739,11800.0,-0.794122,-1.0,17.0,-1193.0,95.0,,0.0,,2023-02-28 15:55:17.871078+00:00,1.0529570849888248,0.014353209542022516,,,,,,,,,,,,,,,,,,,,,,,,,,,,,,,,,,,,,,False,,
2023-02-28 08:55:18.869740-07:00,201.194301,1.04,0.55,-0.88,0.02,9.12,857.23,42.86,30.0,-1.0,,,,,,,,,,1.96313,9.03785,3321.61,23.3786,11786.0,-0.734259,-1.0,13.0,-1178.0,95.0,,0.0,,2023-02-28 15:55:18.869740+00:00,1.057955712168068,0.014439701867153095,,,,,,,,,,,,,,,,,,,,,,,,,,,,,,,,,,,,,,False,,
2023-02-28 08:55:19.870916-07:00,202.195477,0.62,0.25,-0.52,0.22,10.24,857.23,39.86,42.0,-1.0,,,,,,,,,,1.96311,9.05354,3344.27,23.388,11804.0,-0.681602,-1.0,17.0,-1179.0,95.0,,0.0,,2023-02-28 15:55:19.870916+00:00,1.053774511710648,0.014367337457465148,,,,,,,,,,,,,,,,,,,,,,,,,,,,,,,,,,,,,,False,,
2023-02-28 08:55:20.871152-07:00,203.195713,1.44,0.54,-1.3,-0.31,8.96,857.22,43.37,29.0,-1.0,,,,,,,,,,1.9659,9.00209,3359.68,23.3967,11850.0,-0.568744,-1.0,18.0,-1172.0,95.0,,0.0,,2023-02-28 15:55:20.871152+00:00,1.0585433881145596,0.014450054687917232,,,,,,,,,,,,,,,,,,,,,,,,,,,,,,,,,,,,,,False,,
2023-02-28 08:55:21.870439-07:00,204.195,1.19,0.61,-0.95,-0.38,8.78,857.22,43.93,42.0,-1.0,,,,,,,,,,1.967,8.45162,3366.49,23.4053,11841.0,-0.437293,-1.0,16.0,-1195.0,95.0,,0.0,,2023-02-28 15:55:21.870439+00:00,1.0592192218671246,0.014461770882407096,,,,,,,,,,,,,,,,,,,,,,,,,,,,,,,,,,,,,,False,,
2023-02-28 08:55:22.871213-07:00,205.195774,1.06,0.92,-0.4,0.37,9.83,857.22,41.02,30.0,-1.0,,,,,,,,,,1.96286,8.61024,3405.92,23.4157,11821.0,-0.215504,-1.0,14.0,-1209.0,95.0,,0.0,,2023-02-28 15:55:22.871213+00:00,1.0552889788006163,0.01439369723819458,,,,,,,,,,,,,,,,,,,,,,,,,,,,,,,,,,,,,,False,,
2023-02-28 08:55:23.870837-07:00,206.195398,0.61,-0.04,-0.61,-0.01,8.9,857.23,43.62,40.0,-1.0,,,,,,,,,,1.96253,8.53713,3452.96,23.4242,11783.0,-0.158992,-1.0,14.0,-1184.0,95.0,,0.0,,2023-02-28 15:55:23.870837+00:00,1.0587809213745103,0.014454003434328013,,,,,,,,,,,,,,,,,,,,,,,,,,,,,,,,,,,,,,False,,
2023-02-28 08:55:24.870378-07:00,207.194939,0.73,0.42,-0.59,0.08,8.94,857.23,43.61,31.0,-1.0,,,,,,,,,,1.96248,9.05655,3426.42,23.4332,11783.0,-0.188753,-1.0,14.0,-1184.0,95.0,,0.0,,2023-02-28 15:55:24.870378+00:00,1.0586307875985699,0.014451401008948282,,,,,,,,,,,,,,,,,,,,,,,,,,,,,,,,,,,,,,False,,
2023-02-28 08:55:25.870322-07:00,208.194883,0.89,0.55,-0.7,0.03,8.99,857.23,43.46,39.0,-1.0,,,,,,,,,,1.96488,9.00754,3406.15,23.4425,11814.0,-0.138576,-1.0,15.0,-1163.0,95.0,,0.0,,2023-02-28 15:55:25.870322+00:00,1.0584431802427183,0.014448149315779915,,,,,,,,,,,,,,,,,,,,,,,,,,,,,,,,,,,,,,False,,
2023-02-28 08:55:26.870617-07:00,209.195178,0.88,0.53,-0.65,-0.25,8.75,857.23,44.1,32.0,-1.0,,,,,,,,,,1.96428,8.06947,3407.9,23.4517,11838.0,-0.103455,-1.0,16.0,-1181.0,95.0,,0.0,,2023-02-28 15:55:26.870617+00:00,1.0593443024962064,0.014463771016183569,,,,,,,,,,,,,,,,,,,,,,,,,,,,,,,,,,,,,,False,,
2023-02-28 08:55:27.870698-07:00,210.195259,0.84,0.34,-0.69,-0.34,8.53,857.22,44.85,37.0,-1.0,,,,,,,,,,1.96513,8.62434,3445.35,23.4606,11847.0,-0.0169932,-1.0,16.0,-1197.0,95.0,,0.0,,2023-02-28 15:55:27.870698+00:00,1.0601593127698041,0.014478075431771561,,,,,,,,,,,,,,,,,,,,,,,,,,,,,,,,,,,,,,False,,
2023-02-28 08:55:28.870533-07:00,211.195094,1.04,0.79,-0.66,-0.06,9.3,857.22,42.62,33.0,-1.0,,,,,,,,,,1.96556,9.04534,3468.73,23.47,11840.0,0.0860335,-1.0,14.0,-1208.0,95.0,,0.0,,2023-02-28 15:55:28.870533+00:00,1.0572691634660945,0.01442797663865046,,,,,,,,,,,,,,,,,,,,,,,,,,,,,,,,,,,,,,False,,
2023-02-28 08:55:29.871101-07:00,212.195662,0.96,0.63,-0.71,-0.17,8.98,857.22,43.43,36.0,-1.0,,,,,,,,,,1.96567,8.38148,3501.36,23.4789,11838.0,0.18241,-1.0,14.0,-1212.0,95.0,,0.0,,2023-02-28 15:55:29.871101+00:00,1.0584683487080366,0.01444875407893515,,,,,,,,,,,,,,,,,,,,,,,,,,,,,,,,,,,,,,False,,
2023-02-28 08:55:30.871054-07:00,213.195615,1.3,0.19,-1.22,-0.41,8.16,857.24,45.99,35.0,-1.0,,,,,,,,,,1.96476,9.3349,3479.7,23.488,11788.0,0.466752,-1.0,14.0,-1193.0,95.0,,0.0,,2023-02-28 15:55:30.871054+00:00,1.061578481128871,0.014502366458666068,,,,,,,,,,,,,,,,,,,,,,,,,,,,,,,,,,,,,,False,,
2023-02-28 08:55:31.870376-07:00,214.194937,1.03,0.26,-0.9,-0.43,8.01,857.24,46.53,34.0,-1.0,,,,,,,,,,1.96469,8.41221,3445.73,23.4967,11807.0,0.611602,-1.0,14.0,-1184.0,95.0,,0.0,,2023-02-28 15:55:31.870376+00:00,1.0621448375528624,0.014512200580044066,,,,,,,,,,,,,,,,,,,,,,,,,,,,,,,,,,,,,,False,,
2023-02-28 08:55:32.870891-07:00,215.195452,0.88,0.35,-0.7,-0.4,8.08,857.22,46.29,35.0,-1.0,,,,,,,,,,1.96454,7.86862,3368.48,23.5058,11835.0,0.592135,-1.0,17.0,-1195.0,95.0,,0.0,,2023-02-28 15:55:32.870891+00:00,1.0618556883013848,0.014507517928303307,,,,,,,,,,,,,,,,,,,,,,,,,,,,,,,,,,,,,,False,,
2023-02-28 08:55:33.870641-07:00,216.195202,0.79,0.48,-0.59,-0.21,8.19,857.23,46.12,35.0,-1.0,,,,,,,,,,1.96295,8.22365,3310.27,23.5141,11846.0,0.688358,-1.0,19.0,-1216.0,95.0,,0.0,,2023-02-28 15:55:33.870641+00:00,1.0614528999562116,0.014500355452441107,,,,,,,,,,,,,,,,,,,,,,,,,,,,,,,,,,,,,,False,,
2023-02-28 08:55:34.870420-07:00,217.194981,0.63,0.12,-0.57,-0.24,8.69,857.23,44.4,35.0,-1.0,,,,,,,,,,1.964,8.5272,3269.54,23.5181,11846.0,0.683314,-1.0,19.0,-1216.0,95.0,,0.0,,2023-02-28 15:55:34.870420+00:00,1.0595698228558068,0.014467681805155624,,,,,,,,,,,,,,,,,,,,,,,,,,,,,,,,,,,,,,False,,
2023-02-28 08:55:35.871458-07:00,218.196019,0.84,0.15,-0.69,-0.45,7.95,857.23,46.8,34.0,-1.0,,,,,,,,,,1.96597,8.17856,3248.74,23.5268,11828.0,0.647107,-1.0,15.0,-1199.0,95.0,,0.0,,2023-02-28 15:55:35.871458+00:00,1.0623591564342958,0.014516092109620325,,,,,,,,,,,,,,,,,,,,,,,,,,,,,,,,,,,,,,False,,
2023-02-28 08:55:36.871130-07:00,219.195691,0.83,0.2,-0.73,-0.35,8.04,857.24,46.47,37.0,-1.0,,,,,,,,,,1.96391,7.22175,3236.93,23.5369,11788.0,0.554432,-1.0,14.0,-1185.0,95.0,,0.0,,2023-02-28 15:55:36.871130+00:00,1.0620315179286701,0.014510232672197764,,,,,,,,,,,,,,,,,,,,,,,,,,,,,,,,,,,,,,False,,
2023-02-28 08:55:37.870949-07:00,220.19551,0.83,0.53,-0.64,0.02,8.28,857.23,45.78,33.0,-1.0,,,,,,,,,,1.96728,7.81784,3242.8,23.5449,11784.0,0.413344,-1.0,18.0,-1184.0,95.0,,0.0,,2023-02-28 15:55:37.870949+00:00,1.0611134522747419,0.014494463136909419,,,,,,,,,,,,,,,,,,,,,,,,,,,,,,,,,,,,,,False,,
2023-02-28 08:55:38.870705-07:00,221.195266,0.51,0.3,-0.4,-0.11,8.9,857.23,43.91,40.0,-1.0,,,,,,,,,,1.96659,7.52607,3260.71,23.5544,11822.0,0.245119,-1.0,18.0,-1219.0,95.0,,0.0,,2023-02-28 15:55:38.870705+00:00,1.0587809213745103,0.014454003434328013,,,,,,,,,,,,,,,,,,,,,,,,,,,,,,,,,,,,,,False,,
2023-02-28 08:55:39.870611-07:00,222.195172,0.59,0.38,-0.45,-0.02,8.35,857.22,45.57,31.0,-1.0,,,,,,,,,,1.96905,7.83039,3263.88,23.5632,11832.0,0.00992424,-1.0,14.0,-1216.0,95.0,,0.0,,2023-02-28 15:55:39.870611+00:00,1.0608372121527472,0.014489837851849504,,,,,,,,,,,,,,,,,,,,,,,,,,,,,,,,,,,,,,False,,
2023-02-28 08:55:40.871202-07:00,223.195763,0.9,0.31,-0.83,-0.16,8.48,857.24,45.22,39.0,-1.0,,,,,,,,,,1.96503,7.28873,3248.51,23.5715,11810.0,-0.137382,-1.0,17.0,-1194.0,95.0,,0.0,,2023-02-28 15:55:40.871202+00:00,1.0603722704483285,0.014481432179164963,,,,,,,,,,,,,,,,,,,,,,,,,,,,,,,,,,,,,,False,,
2023-02-28 08:55:41.870679-07:00,224.19524,0.75,0.39,-0.63,-0.13,8.43,857.23,45.38,31.0,-1.0,,,,,,,,,,1.96227,7.38291,3249.58,23.5809,11784.0,-0.13991,-1.0,14.0,-1190.0,95.0,,0.0,,2023-02-28 15:55:41.870679+00:00,1.0605481883432082,0.01448465341295372,,,,,,,,,,,,,,,,,,,,,,,,,,,,,,,,,,,,,,False,,
2023-02-28 08:55:42.870653-07:00,225.195214,0.87,0.07,-0.85,-0.14,8.41,857.23,45.45,39.0,-1.0,,,,,,,,,,1.9625,7.6241,3245.02,23.5897,11774.0,-0.121341,-1.0,15.0,-1193.0,95.0,,0.0,,2023-02-28 15:55:42.870653+00:00,1.0606235220687616,0.014485960596781927,,,,,,,,,,,,,,,,,,,,,,,,,,,,,,,,,,,,,,False,,
2023-02-28 08:55:43.870941-07:00,226.195502,0.73,0.17,-0.71,-0.02,8.54,857.24,46.19,31.0,-1.0,,,,,,,,,,1.96175,6.97119,3248.37,23.599,11774.0,-0.0130531,-1.0,15.0,-1193.0,95.0,,0.0,,2023-02-28 15:55:43.870941+00:00,1.060146411041793,0.014477513834418693,,,,,,,,,,,,,,,,,,,,,,,,,,,,,,,,,,,,,,False,,
2023-02-28 08:55:44.870535-07:00,227.195096,0.79,0.39,-0.61,0.3,9.64,857.22,41.88,39.0,-1.0,,,,,,,,,,1.96441,7.49497,3275.07,23.607,11776.0,-0.0158527,-1.0,16.0,-1205.0,95.0,,0.0,,2023-02-28 15:55:44.870535+00:00,1.0559980028324851,0.014405967031016835,,,,,,,,,,,,,,,,,,,,,,,,,,,,,,,,,,,,,,False,,
2023-02-28 08:55:45.870749-07:00,228.19531,0.59,-0.13,-0.54,0.2,9.74,857.23,41.58,30.0,-1.0,,,,,,,,,,1.96446,7.1094,3321.27,23.6166,11830.0,0.00702397,-1.0,17.0,-1194.0,95.0,,0.0,,2023-02-28 15:55:45.870749+00:00,1.0556370280804572,0.01439955172050957,,,,,,,,,,,,,,,,,,,,,,,,,,,,,,,,,,,,,,False,,
2023-02-28 08:55:51.869343-07:00,234.193904,0.88,-0.3,-0.77,0.28,8.15,857.24,46.32,32.0,-1.0,,,,,,,,,,1.96593,6.77421,3189.64,23.657,11781.0,-0.185656,-1.0,17.0,-1159.0,95.0,,0.0,,2023-02-28 15:55:51.869343+00:00,1.0616162194325018,0.014503021645578464,,,,,,,,,,,,,,,,,,,,,,,,,,,,,,,,,,,,,,False,,
2023-02-28 08:55:52.869312-07:00,235.193873,0.57,-0.22,-0.42,0.31,8.37,857.22,45.8,37.0,-1.0,,,,,,,,,,1.97345,6.2067,3182.65,23.6644,11797.0,-0.37281,-1.0,16.0,-1167.0,95.0,,0.0,,2023-02-28 15:55:52.869312+00:00,1.0607618471902471,0.014488529957636612,,,,,,,,,,,,,,,,,,,,,,,,,,,,,,,,,,,,,,False,,
2023-02-28 08:55:53.869397-07:00,236.193958,0.73,-0.2,-0.7,0.03,8.82,857.23,44.36,32.0,-1.0,,,,,,,,,,1.97168,5.59274,3184.59,23.673,11827.0,-0.469207,-1.0,17.0,-1194.0,95.0,,0.0,,2023-02-28 15:55:53.869397+00:00,1.0590813167134112,0.01445921114285871,,,,,,,,,,,,,,,,,,,,,,,,,,,,,,,,,,,,,,False,,
2023-02-28 08:55:54.870565-07:00,237.195126,0.82,0.47,-0.67,0.09,9.04,857.24,43.66,39.0,-1.0,,,,,,,,,,1.97173,7.01728,3190.95,23.6828,11823.0,-0.46135,-1.0,18.0,-1189.0,95.0,,0.0,,2023-02-28 15:55:54.870565+00:00,1.0582679844302163,0.014444944539501504,,,,,,,,,,,,,,,,,,,,,,,,,,,,,,,,,,,,,,False,,
2023-02-28 08:55:55.870307-07:00,238.194868,0.46,-0.1,-0.37,0.25,8.21,857.23,46.3,30.0,-1.0,,,,,,,,,,1.97286,5.7655,3205.21,23.6919,11843.0,-0.509077,-1.0,15.0,-1206.0,95.0,,0.0,,2023-02-28 15:55:55.870307+00:00,1.061377448371057,0.01449904562849766,,,,,,,,,,,,,,,,,,,,,,,,,,,,,,,,,,,,,,False,,
2023-02-28 08:55:56.871006-07:00,239.195567,0.66,-0.26,-0.6,-0.04,8.58,857.22,45.09,39.0,-1.0,,,,,,,,,,1.97599,5.49091,3213.43,23.7008,11833.0,-0.596415,-1.0,13.0,-1204.0,95.0,,0.0,,2023-02-28 15:55:56.871006+00:00,1.0599711611152467,0.01447481153474628,,,,,,,,,,,,,,,,,,,,,,,,,,,,,,,,,,,,,,False,,
2023-02-28 08:55:57.870342-07:00,240.194903,0.47,0.24,-0.36,0.18,9.57,857.22,42.23,31.0,-1.0,,,,,,,,,,-0.969456,6.59192,2390.86,23.7107,11809.0,0.142972,-1.0,14.0,-1183.0,95.0,,0.0,,2023-02-28 15:55:57.870342+00:00,1.0562594624398642,0.014410492841207405,,,,,,,,,,,,,,,,,,,,,,,,,,,,,,,,,,,,,,False,,
2023-02-28 08:55:58.870404-07:00,241.194965,0.66,-0.09,-0.63,0.16,8.29,857.23,46.0,41.0,-1.0,,,,,,,,,,-0.966797,5.82399,2387.3,23.7197,11784.0,0.286255,-1.0,15.0,-1170.0,95.0,,0.0,,2023-02-28 15:55:58.870404+00:00,1.061075749266915,0.014493808735426722,,,,,,,,,,,,,,,,,,,,,,,,,,,,,,,,,,,,,,False,,
2023-02-28 08:55:59.870585-07:00,242.195146,0.6,0.09,-0.58,-0.1,8.4,857.24,45.63,31.0,-1.0,,,,,,,,,,-0.966208,5.44561,2380.99,23.7287,11781.0,0.405939,-1.0,12.0,-1181.0,95.0,,0.0,,2023-02-28 15:55:59.870585+00:00,1.0606735660677065,0.014486659991590316,,,,,,,,,,,,,,,,,,,,,,,,,,,,,,,,,,,,,,False,,
2023-02-28 08:56:00.870360-07:00,243.194921,1.14,0.1,-1.13,0.08,7.88,857.22,47.34,40.0,-1.0,,,,,,,,,,-0.963278,5.77017,2383.7,23.7384,11804.0,0.460666,-1.0,15.0,-1176.0,95.0,,0.0,,2023-02-28 15:56:00.870360+00:00,1.062611376796066,0.014520642561195684,,,,,,,,,,,,,,,,,,,,,,,,,,,,,,,,,,,,,,False,,
2023-02-28 08:56:01.870874-07:00,244.195435,1.08,-0.11,-1.04,0.23,7.85,857.22,47.39,30.0,-1.0,,,,,,,,,,-0.962722,5.44791,2367.11,23.7477,11846.0,0.538523,-1.0,13.0,-1216.0,95.0,,0.0,,2023-02-28 15:56:01.870874+00:00,1.062724822850528,0.014522613336688342,,,,,,,,,,,,,,,,,,,,,,,,,,,,,,,,,,,,,,False,,
2023-02-28 08:56:02.870270-07:00,245.194831,0.52,0.07,-0.51,-0.08,8.5,857.22,45.4,41.0,-1.0,,,,,,,,,,-0.964332,5.19871,2351.44,23.7567,11842.0,0.594936,-1.0,14.0,-1226.0,95.0,,0.0,,2023-02-28 15:56:02.870270+00:00,1.0602722358281498,0.014480034487807764,,,,,,,,,,,,,,,,,,,,,,,,,,,,,,,,,,,,,,False,,
2023-02-28 08:56:03.870976-07:00,246.195537,0.91,-0.28,-0.73,0.46,8.01,857.23,45.86,30.0,-1.0,,,,,,,,,,-0.963179,5.40636,2353.01,23.766,11842.0,0.625536,-1.0,14.0,-1226.0,95.0,,0.0,,2023-02-28 15:56:03.870976+00:00,1.062132447267323,0.014512154693763017,,,,,,,,,,,,,,,,,,,,,,,,,,,,,,,,,,,,,,False,,
2023-02-28 08:56:04.870387-07:00,247.194948,0.32,0.02,-0.31,-0.08,8.47,857.23,44.63,40.0,-1.0,,,,,,,,,,-0.679588,-2.58864,363.673,23.7748,11845.0,0.525595,-1.0,14.0,-1226.0,95.0,,0.0,,2023-02-28 15:56:04.870387+00:00,1.060397552992261,0.014482039764096056,,,,,,,,,,,,,,,,,,,,,,,,,,,,,,,,,,,,,,False,,
2023-02-28 08:56:05.870226-07:00,248.194787,0.48,-0.18,-0.44,0.03,8.51,857.22,45.42,30.0,-1.0,,,,,,,,,,-0.692676,-2.55193,355.08,23.784,11800.0,0.544526,-1.0,12.0,-1191.0,95.0,,0.0,,2023-02-28 15:56:05.870226+00:00,1.0602345921359029,0.014479381409291746,,,,,,,,,,,,,,,,,,,,,,,,,,,,,,,,,,,,,,False,,
2023-02-28 08:56:06.870705-07:00,249.195266,0.85,-0.04,-0.84,0.05,9.0,857.23,42.98,40.0,-1.0,,,,,,,,,,-0.74649,-2.66979,305.156,23.7924,11786.0,0.568552,-1.0,14.0,-1180.0,95.0,,0.0,,2023-02-28 15:56:06.870705+00:00,1.0584056667505959,0.014447499155540165,,,,,,,,,,,,,,,,,,,,,,,,,,,,,,,,,,,,,,False,,
2023-02-28 08:56:07.871261-07:00,250.195822,0.71,-0.02,-0.69,0.13,8.21,857.22,45.35,32.0,-1.0,,,,,,,,,,-0.777493,-2.92893,275.557,23.8016,11780.0,0.591513,-1.0,14.0,-1182.0,95.0,,0.0,,2023-02-28 15:56:07.871261+00:00,1.061365066892943,0.014498999831567569,,,,,,,,,,,,,,,,,,,,,,,,,,,,,,,,,,,,,,False,,
2023-02-28 08:56:08.871115-07:00,251.195676,0.28,-0.19,-0.2,-0.05,8.7,857.24,43.92,38.0,-1.0,,,,,,,,,,-0.815337,-2.69408,235.126,23.8108,11787.0,0.608942,-1.0,15.0,-1193.0,95.0,,0.0,,2023-02-28 15:56:08.871115+00:00,1.0595445894140951,0.014467075438122314,,,,,,,,,,,,,,,,,,,,,,,,,,,,,,,,,,,,,,False,,
2023-02-28 08:56:09.870781-07:00,252.195342,0.59,-0.37,-0.43,0.17,9.25,857.21,43.09,31.0,-1.0,,,,,,,,,,-0.833678,-2.86286,210.334,23.8187,11833.0,0.622688,-1.0,14.0,-1201.0,95.0,,0.0,,2023-02-28 15:56:09.870781+00:00,1.0574440211342642,0.014431173773097118,,,,,,,,,,,,,,,,,,,,,,,,,,,,,,,,,,,,,,False,,
2023-02-28 08:56:10.870277-07:00,253.194838,0.57,-0.07,-0.53,0.2,10.09,857.23,39.96,36.0,-1.0,,,,,,,,,,-0.869174,-2.7837,179.217,23.828,11842.0,0.632188,-1.0,14.0,-1218.0,95.0,,0.0,,2023-02-28 15:56:10.870277+00:00,1.0543325761674924,0.014376986345296881,,,,,,,,,,,,,,,,,,,,,,,,,,,,,,,,,,,,,,False,,
2023-02-28 08:56:11.871157-07:00,254.195718,0.75,-0.34,-0.65,0.13,9.14,857.24,43.46,33.0,-1.0,,,,,,,,,,-0.884683,-2.95235,158.664,23.8371,11840.0,0.639923,-1.0,13.0,-1238.0,95.0,,0.0,,2023-02-28 15:56:11.871157+00:00,1.0578930976172118,0.01443844853697126,,,,,,,,,,,,,,,,,,,,,,,,,,,,,,,,,,,,,,False,,
2023-02-28 08:56:12.870486-07:00,255.195047,0.46,-0.32,-0.33,-0.03,8.73,857.23,44.74,36.0,-1.0,,,,,,,,,,-0.927272,-2.16534,115.986,23.8464,11840.0,0.6446,-1.0,13.0,-1238.0,95.0,,0.0,,2023-02-28 15:56:12.870486+00:00,1.059419465281966,0.014465074373834296,,,,,,,,,,,,,,,,,,,,,,,,,,,,,,,,,,,,,,False,,
2023-02-28 08:56:13.870270-07:00,256.194831,0.29,-0.09,-0.17,0.21,10.6,857.22,38.56,34.0,-1.0,,,,,,,,,,-0.951865,-2.48295,92.0845,23.8548,11832.0,0.64547,-1.0,12.0,-1208.0,95.0,,0.0,,2023-02-28 15:56:13.870270+00:00,1.0524252871224613,0.014344188993545727,,,,,,,,,,,,,,,,,,,,,,,,,,,,,,,,,,,,,,False,,
2023-02-28 08:56:14.871063-07:00,257.195624,0.5,0.24,-0.4,0.17,9.89,857.23,40.59,33.0,-1.0,,,,,,,,,,-0.983576,-2.14492,64.9993,23.8641,11829.0,0.64594,-1.0,12.0,-1210.0,95.0,,0.0,,2023-02-28 15:56:14.871063+00:00,1.0550775822275318,0.014389872036722125,,,,,,,,,,,,,,,,,,,,,,,,,,,,,,,,,,,,,,False,,
2023-02-28 08:56:15.871055-07:00,258.195616,0.62,0.34,-0.5,0.13,9.65,857.23,41.21,36.0,-1.0,,,,,,,,,,-1.01585,-2.06257,32.8305,23.8724,11786.0,0.640956,-1.0,13.0,-1187.0,95.0,,0.0,,2023-02-28 15:56:15.871055+00:00,1.0559729804585594,0.014405365885559738,,,,,,,,,,,,,,,,,,,,,,,,,,,,,,,,,,,,,,False,,
2023-02-28 08:56:16.871147-07:00,259.195708,0.77,-0.37,-0.66,0.13,9.62,857.24,41.32,31.0,-1.0,,,,,,,,,,-1.03718,-2.76696,9.65564,23.8813,11780.0,0.6349,-1.0,13.0,-1170.0,95.0,,0.0,,2023-02-28 15:56:16.871147+00:00,1.0560973318469524,0.014407350177514289,,,,,,,,,,,,,,,,,,,,,,,,,,,,,,,,,,,,,,False,,
2023-02-28 08:56:17.871206-07:00,260.195767,0.86,-0.48,-0.65,0.29,8.58,857.22,44.35,37.0,-1.0,,,,,,,,,,-1.06712,-2.13827,-19.2944,23.8903,11831.0,0.628489,-1.0,16.0,-1231.0,95.0,,0.0,,2023-02-28 15:56:17.871206+00:00,1.0599711611152467,0.01447481153474628,,,,,,,,,,,,,,,,,,,,,,,,,,,,,,,,,,,,,,False,,
2023-02-28 08:56:18.870725-07:00,261.195286,1.33,-0.81,-1.0,0.33,9.16,857.23,42.63,31.0,-1.0,,,,,,,,,,-1.08686,-2.38442,-36.7666,23.8992,11835.0,0.618729,-1.0,17.0,-1225.0,95.0,,0.0,,2023-02-28 15:56:18.870725+00:00,1.0578058123115743,0.014437104670900895,,,,,,,,,,,,,,,,,,,,,,,,,,,,,,,,,,,,,,False,,
2023-02-28 08:56:19.870563-07:00,262.195124,0.91,-0.67,-0.55,0.29,8.74,857.23,43.74,39.0,-1.0,,,,,,,,,,-1.12147,-2.08461,-73.5611,23.9076,11833.0,0.600678,-1.0,13.0,-1218.0,95.0,,0.0,,2023-02-28 15:56:19.870563+00:00,1.0593818825558925,0.014464422665181484,,,,,,,,,,,,,,,,,,,,,,,,,,,,,,,,,,,,,,False,,
2023-02-28 08:56:20.870365-07:00,263.194926,1.03,-0.11,-1.02,0.03,9.09,857.23,42.79,30.0,-1.0,,,,,,,,,,-1.13703,-2.09989,-89.6242,23.9173,11812.0,0.580358,-1.0,13.0,-1190.0,95.0,,0.0,,2023-02-28 15:56:20.870365+00:00,1.0580681649435961,0.014441650387487142,,,,,,,,,,,,,,,,,,,,,,,,,,,,,,,,,,,,,,False,,
2023-02-28 08:56:21.870637-07:00,264.195198,1.03,-0.72,-0.67,0.31,8.84,857.23,43.58,41.0,-1.0,,,,,,,,,,-1.17215,-2.37764,-119.536,23.9261,11776.0,0.550194,-1.0,14.0,-1181.0,95.0,,0.0,,2023-02-28 15:56:21.870637+00:00,1.059006201899644,0.0144579088583439,,,,,,,,,,,,,,,,,,,,,,,,,,,,,,,,,,,,,,False,,
2023-02-28 08:56:22.870518-07:00,265.195079,0.75,-0.16,-0.72,0.11,8.14,857.24,45.75,30.0,-1.0,,,,,,,,,,-1.17966,-1.95776,-134.09,23.9346,11776.0,0.515384,-1.0,14.0,-1181.0,95.0,,0.0,,2023-02-28 15:56:22.870518+00:00,1.0616539604193636,0.01450367689262406,,,,,,,,,,,,,,,,,,,,,,,,,,,,,,,,,,,,,,False,,
2023-02-28 08:56:23.875136-07:00,266.199697,0.83,-0.48,-0.66,0.17,9.25,857.23,42.37,42.0,-1.0,,,,,,,,,,-1.20626,-3.24936,-160.948,23.9445,11765.0,0.481478,-1.0,16.0,-1187.0,95.0,,0.0,,2023-02-28 15:56:23.875136+00:00,1.0574686928954695,0.014431264448645582,,,,,,,,,,,,,,,,,,,,,,,,,,,,,,,,,,,,,,False,,
2023-02-28 08:56:24.870454-07:00,267.195015,1.04,-0.06,-1.01,0.24,9.8,857.23,40.79,29.0,-1.0,,,,,,,,,,-1.21766,-2.7884,-180.927,23.9556,11811.0,0.395724,-1.0,17.0,-1203.0,95.0,,0.0,,2023-02-28 15:56:24.870454+00:00,1.0554131785604544,0.014395678259368251,,,,,,,,,,,,,,,,,,,,,,,,,,,,,,,,,,,,,,False,,
2023-02-28 08:56:26.870305-07:00,269.194866,0.9,-0.38,-0.69,0.43,8.21,857.23,45.47,30.0,-1.0,,,,,,,,,,-1.24736,-1.86049,-206.836,23.9641,11829.0,0.0,-1.0,18.0,-1208.0,95.0,,0.0,,2023-02-28 15:56:26.870305+00:00,1.061377448371057,0.01449904562849766,,,,,,,,,,,,,,,,,,,,,,,,,,,,,,,,,,,,,,False,,
2023-02-28 08:56:27.869728-07:00,270.194289,0.75,-0.12,-0.71,0.21,8.12,857.23,45.76,42.0,-1.0,,,,,,,,,,-0.692966,-1.63946,-447.645,23.9736,11833.0,0.0,-1.0,17.0,-1242.0,95.0,,0.0,,2023-02-28 15:56:27.869728+00:00,1.0617170650040195,0.014504941729823192,,,,,,,,,,,,,,,,,,,,,,,,,,,,,,,,,,,,,,False,,
2023-02-28 08:56:28.874692-07:00,271.199253,0.89,-0.52,-0.58,0.43,8.47,857.22,43.63,30.0,-1.0,,,,,,,,,,-0.700601,-2.39923,-469.489,23.9824,11833.0,0.0,-1.0,14.0,-1223.0,95.0,,0.0,,2023-02-28 15:56:28.874692+00:00,1.0603851829450976,0.014481994082476607,,,,,,,,,,,,,,,,,,,,,,,,,,,,,,,,,,,,,,False,,
2023-02-28 08:56:29.870804-07:00,272.195365,0.94,-0.63,-0.56,0.42,8.6,857.22,44.35,40.0,-1.0,,,,,,,,,,-0.686052,-2.75597,-450.951,23.9919,11834.0,0.0,-1.0,15.0,-1200.0,95.0,,0.0,,2023-02-28 15:56:29.870804+00:00,1.0598959191517245,0.014473506394476527,,,,,,,,,,,,,,,,,,,,,,,,,,,,,,,,,,,,,,False,,
2023-02-28 08:56:30.870957-07:00,273.195518,0.98,-0.58,-0.72,0.31,8.73,857.22,43.84,31.0,-1.0,,,,,,,,,,-0.665892,-2.78554,-420.119,24.0004,11802.0,0.0,-1.0,14.0,-1181.0,95.0,,0.0,,2023-02-28 15:56:30.870957+00:00,1.0594071066446658,0.014465028807144467,,,,,,,,,,,,,,,,,,,,,,,,,,,,,,,,,,,,,,False,,
2023-02-28 08:56:31.871241-07:00,274.195802,0.76,-0.39,-0.61,0.23,8.38,857.24,43.89,38.0,-1.0,,,,,,,,,,-0.67088,-2.54365,-432.794,24.0097,11788.0,0.0,-1.0,15.0,-1176.0,95.0,,0.0,,2023-02-28 15:56:31.871241+00:00,1.0607489167277475,0.014487967543836272,,,,,,,,,,,,,,,,,,,,,,,,,,,,,,,,,,,,,,False,,
2023-02-28 08:56:32.870373-07:00,275.194934,1.18,-0.82,-0.79,0.33,9.01,857.22,42.07,34.0,-1.0,,,,,,,,,,-0.664958,-2.45537,-420.829,24.0189,11772.0,0.0,-1.0,14.0,-1174.0,95.0,,0.0,,2023-02-28 15:56:32.870373+00:00,1.0583558095442245,0.014446803611402532,,,,,,,,,,,,,,,,,,,,,,,,,,,,,,,,,,,,,,False,,
2023-02-28 08:56:33.873906-07:00,276.198467,0.74,-0.59,-0.35,0.27,8.95,857.23,42.3,36.0,-1.0,,,,,,,,,,-0.649116,-3.11381,-396.861,24.0272,11774.0,0.0,-1.0,14.0,-1184.0,95.0,,0.0,,2023-02-28 15:56:33.873906+00:00,1.0585932608070918,0.014450750551358586,,,,,,,,,,,,,,,,,,,,,,,,,,,,,,,,,,,,,,False,,
2023-02-28 08:56:34.870480-07:00,277.195041,0.69,-0.38,-0.52,0.24,9.57,857.22,40.44,37.0,-1.0,,,,,,,,,,-0.655673,-2.49329,-404.105,24.0369,11776.0,0.0,-1.0,13.0,-1168.0,95.0,,0.0,,2023-02-28 15:56:34.870480+00:00,1.0562594624398642,0.014410492841207405,,,,,,,,,,,,,,,,,,,,,,,,,,,,,,,,,,,,,,False,,
2023-02-28 08:56:35.870524-07:00,278.195085,0.71,-0.56,-0.35,0.25,9.31,857.22,41.22,33.0,-1.0,,,,,,,,,,-0.63608,-2.40724,-372.61,24.0451,11807.0,-0.515772,-1.0,14.0,-1172.0,95.0,,0.0,,2023-02-28 15:56:35.870524+00:00,1.0572317327090506,0.014427328321893133,,,,,,,,,,,,,,,,,,,,,,,,,,,,,,,,,,,,,,False,,
2023-02-28 08:56:36.870825-07:00,279.195386,1.06,-0.87,-0.58,0.22,9.13,857.22,41.76,41.0,-1.0,,,,,,,,,,-0.641725,-2.1136,-379.461,24.0561,11823.0,-0.460915,-1.0,16.0,-1196.0,95.0,,0.0,,2023-02-28 15:56:36.870825+00:00,1.0579058920964943,0.014439007088469881,,,,,,,,,,,,,,,,,,,,,,,,,,,,,,,,,,,,,,False,,
2023-02-28 08:56:37.871044-07:00,280.195605,1.09,-0.8,-0.57,0.48,8.65,857.23,43.05,31.0,-1.0,,,,,,,,,,-0.624169,-2.41831,-352.769,24.0656,11825.0,-0.455256,-1.0,14.0,-1210.0,95.0,,0.0,,2023-02-28 15:56:37.871044+00:00,1.0597202231145515,0.014470290191599988,,,,,,,,,,,,,,,,,,,,,,,,,,,,,,,,,,,,,,False,,
2023-02-28 08:56:38.873948-07:00,281.198509,0.97,-0.64,-0.63,0.36,8.43,857.23,43.7,41.0,-1.0,,,,,,,,,,-0.616228,-2.79204,-339.419,24.0736,11840.0,-0.475551,-1.0,14.0,-1211.0,95.0,,0.0,,2023-02-28 15:56:38.873948+00:00,1.0605481883432082,0.01448465341295372,,,,,,,,,,,,,,,,,,,,,,,,,,,,,,,,,,,,,,False,,
