Timestamp,Seconds,S,Um,Vm,Wm,T,P,H,MD,Sts,Vx,Vy,Vz,Lat,Lon,Alt,Yaw,Roll,Pitch,CH4,C2H6,H2O,T_a,Batt,R,C2C1,Power,Current,SOC,Lat_a,Lon_a,TS,Timestamp_UTC
2023-02-28 08:51:57.675439-07:00,0.0,0.66,0.47,-0.46,0.06,9.12,857.1,43.7,34.0,-1.0,,,,,,,,,,,,,,,,,,,,,,,2023-02-28 15:51:57.675439+00:00
2023-02-28 08:51:57.869296-07:00,0.193857,0.68,0.52,-0.44,-0.0,9.05,857.11,43.91,31.0,-1.0,,,,,,,,,,,,,,,,,,,,,,,2023-02-28 15:51:57.869296+00:00
2023-02-28 08:51:58.069516-07:00,0.394077,0.72,0.59,-0.41,0.02,8.98,857.1,44.15,43.0,-1.0,,,,,,,,,,,,,,,,,,,,,,,2023-02-28 15:51:58.069516+00:00
2023-02-28 08:51:58.269716-07:00,0.594277,0.69,0.62,-0.29,0.03,8.91,857.11,44.38,33.0,-1.0,,,,,,,,,,0.168834,3.21911,128.153,21.629,11822.0,0.545601,-1.0,19.0,-1172.0,96.0,,0.0,2023-02-28 08:51:54.147,2023-02-28 15:51:58.269716+00:00
2023-02-28 08:51:58.469525-07:00,0.794086,0.56,0.48,-0.29,0.06,9.1,857.1,43.86,33.0,-1.0,,,,,,,,,,0.168834,3.21911,128.153,21.629,11822.0,0.545601,-1.0,19.0,-1172.0,96.0,,0.0,2023-02-28 08:51:54.147,2023-02-28 15:51:58.469525+00:00
2023-02-28 08:51:58.669410-07:00,0.993971,0.71,0.38,-0.59,0.02,8.63,857.1,45.33,43.0,-1.0,,,,,,,,,,,,,,,,,,,,,,,2023-02-28 15:51:58.669410+00:00
2023-02-28 08:51:58.869295-07:00,1.193856,0.53,0.41,-0.35,0.0,9.12,857.1,43.86,33.0,-1.0,,,,,,,,,,,,,,,,,,,,,,,2023-02-28 15:51:58.869295+00:00
2023-02-28 08:51:59.069360-07:00,1.393921,0.55,0.5,-0.22,0.05,9.0,857.1,44.22,34.0,-1.0,,,,,,,,,,,,,,,,,,,,,,,2023-02-28 15:51:59.069360+00:00
2023-02-28 08:51:59.269147-07:00,1.593708,0.53,0.5,-0.16,0.07,9.47,857.12,42.71,42.0,-1.0,,,,,,,,,,,,,,,,,,,,,,,2023-02-28 15:51:59.269147+00:00
2023-02-28 08:51:59.469343-07:00,1.793904,0.45,0.35,-0.15,0.24,10.61,857.1,39.59,32.0,-1.0,,,,,,,,,,0.324013,6.07485,793.887,21.6379,11865.0,0.659507,-1.0,17.0,-1203.0,96.0,,0.0,2023-02-28 08:51:55.171,2023-02-28 15:51:59.469343+00:00
2023-02-28 08:51:59.669097-07:00,1.993658,0.42,0.4,0.1,-0.09,8.79,857.11,44.72,35.0,-1.0,,,,,,,,,,,,,,,,,,,,,,,2023-02-28 15:51:59.669097+00:00
2023-02-28 08:51:59.869118-07:00,2.193679,0.48,0.36,-0.32,0.02,8.67,857.1,45.2,42.0,-1.0,,,,,,,,,,,,,,,,,,,,,,,2023-02-28 15:51:59.869118+00:00
2023-02-28 08:52:00.069117-07:00,2.393678,0.38,0.33,-0.18,-0.01,9.05,857.11,44.07,31.0,-1.0,,,,,,,,,,,,,,,,,,,,,,,2023-02-28 15:52:00.069117+00:00
2023-02-28 08:52:00.269595-07:00,2.594156,0.38,0.37,-0.12,0.02,9.4,857.1,43.1,36.0,-1.0,,,,,,,,,,,,,,,,,,,,,,,2023-02-28 15:52:00.269595+00:00
2023-02-28 08:52:00.469334-07:00,2.793895,0.57,0.55,-0.13,0.05,8.87,857.1,44.66,41.0,-1.0,,,,,,,,,,,,,,,,,,,,,,,2023-02-28 15:52:00.469334+00:00
2023-02-28 08:52:00.669788-07:00,2.994349,0.52,0.51,-0.11,0.01,9.2,857.12,43.66,31.0,-1.0,,,,,,,,,,,,,,,,,,,,,,,2023-02-28 15:52:00.669788+00:00
2023-02-28 08:52:00.869547-07:00,3.194108,0.49,0.48,-0.1,0.06,9.58,857.12,42.68,37.0,-1.0,,,,,,,,,,,,,,,,,,,,,,,2023-02-28 15:52:00.869547+00:00
2023-02-28 08:52:01.069810-07:00,3.394371,0.54,0.51,-0.19,0.03,9.27,857.11,43.47,41.0,-1.0,,,,,,,,,,,,,,,,,,,,,,,2023-02-28 15:52:01.069810+00:00
2023-02-28 08:52:01.269247-07:00,3.593808,0.68,0.63,-0.26,0.0,8.79,857.11,44.96,31.0,-1.0,,,,,,,,,,,,,,,,,,,,,,,2023-02-28 15:52:01.269247+00:00
2023-02-28 08:52:01.469257-07:00,3.793818,0.47,0.42,-0.15,-0.15,8.67,857.12,45.28,38.0,-1.0,,,,,,,,,,,,,,,,,,,,,,,2023-02-28 15:52:01.469257+00:00
2023-02-28 08:52:01.669754-07:00,3.994315,0.59,0.41,-0.4,-0.14,8.25,857.12,46.57,40.0,-1.0,,,,,,,,,,,,,,,,,,,,,,,2023-02-28 15:52:01.669754+00:00
2023-02-28 08:52:01.870058-07:00,4.194619,0.91,0.72,-0.56,-0.01,8.37,857.12,46.39,30.0,-1.0,,,,,,,,,,,,,,,,,,,,,,,2023-02-28 15:52:01.870058+00:00
2023-02-28 08:52:02.069626-07:00,4.394187,0.69,0.58,-0.37,0.03,8.69,857.12,45.25,39.0,-1.0,,,,,,,,,,,,,,,,,,,,,,,2023-02-28 15:52:02.069626+00:00
2023-02-28 08:52:02.268987-07:00,4.593548,0.61,0.54,-0.29,0.03,8.72,857.12,45.21,38.0,-1.0,,,,,,,,,,,,,,,,,,,,,,,2023-02-28 15:52:02.268987+00:00
2023-02-28 08:52:02.469586-07:00,4.794147,0.6,0.58,-0.16,0.05,9.12,857.11,44.01,30.0,-1.0,,,,,,,,,,,,,,,,,,,,,,,2023-02-28 15:52:02.469586+00:00
2023-02-28 08:52:02.669721-07:00,4.994282,0.57,0.55,-0.15,0.03,9.0,857.11,44.32,40.0,-1.0,,,,,,,,,,,,,,,,,,,,,,,2023-02-28 15:52:02.669721+00:00
2023-02-28 08:52:02.869687-07:00,5.194248,0.65,0.58,-0.29,-0.06,8.5,857.11,45.91,37.0,-1.0,,,,,,,,,,,,,,,,,,,,,,,2023-02-28 15:52:02.869687+00:00
2023-02-28 08:52:03.069390-07:00,5.393951,0.64,0.42,-0.46,-0.15,8.37,857.11,46.37,30.0,-1.0,,,,,,,,,,,,,,,,,,,,,,,2023-02-28 15:52:03.069390+00:00
2023-02-28 08:52:05.469436-07:00,7.793997,0.56,-0.03,-0.48,-0.3,8.03,857.12,47.65,32.0,-1.0,,,,,,,,,,,,,,,,,,,,,,,2023-02-28 15:52:05.469436+00:00
2023-02-28 08:52:05.670011-07:00,7.994572,0.56,0.27,-0.47,-0.13,7.95,857.11,47.88,42.0,-1.0,,,,,,,,,,,,,,,,,,,,,,,2023-02-28 15:52:05.670011+00:00
2023-02-28 08:52:05.869170-07:00,8.193731,0.45,0.02,-0.41,-0.17,8.08,857.11,47.55,32.0,-1.0,,,,,,,,,,0.65855,4.39289,1446.27,21.694,11796.0,0.827566,0.00779013,17.0,-1195.0,96.0,,0.0,2023-02-28 08:52:02.339,2023-02-28 15:52:05.869170+00:00
2023-02-28 08:52:06.069360-07:00,8.393921,0.53,0.42,-0.32,-0.09,7.98,857.12,47.91,33.0,-1.0,,,,,,,,,,,,,,,,,,,,,,,2023-02-28 15:52:06.069360+00:00
2023-02-28 08:52:06.269497-07:00,8.594058,0.63,0.51,-0.36,-0.04,8.08,857.12,47.66,42.0,-1.0,,,,,,,,,,,,,,,,,,,,,,,2023-02-28 15:52:06.269497+00:00
2023-02-28 08:52:06.469546-07:00,8.794107,0.3,0.17,-0.16,-0.19,7.98,857.12,47.87,32.0,-1.0,,,,,,,,,,,,,,,,,,,,,,,2023-02-28 15:52:06.469546+00:00
2023-02-28 08:52:06.669581-07:00,8.994142,0.39,0.22,-0.31,-0.07,8.15,857.12,47.24,34.0,-1.0,,,,,,,,,,,,,,,,,,,,,,,2023-02-28 15:52:06.669581+00:00
2023-02-28 08:52:06.869126-07:00,9.193687,0.71,0.38,-0.58,-0.14,7.97,857.12,47.99,42.0,-1.0,,,,,,,,,,,,,,,,,,,,,,,2023-02-28 15:52:06.869126+00:00
2023-02-28 08:52:07.069903-07:00,9.394464,0.95,0.75,-0.59,0.02,8.06,857.12,47.61,32.0,-1.0,,,,,,,,,,,,,,,,,,,,,,,2023-02-28 15:52:07.069903+00:00
2023-02-28 08:52:07.269218-07:00,9.593779,0.8,0.67,-0.44,-0.03,8.2,857.12,47.26,35.0,-1.0,,,,,,,,,,,,,,,,,,,,,,,2023-02-28 15:52:07.269218+00:00
2023-02-28 08:52:07.469198-07:00,9.793759,0.58,0.48,-0.23,-0.25,8.24,857.13,47.2,41.0,-1.0,,,,,,,,,,,,,,,,,,,,,,,2023-02-28 15:52:07.469198+00:00
2023-02-28 08:52:07.669548-07:00,9.994109,0.86,0.29,-0.78,-0.23,8.18,857.12,47.34,31.0,-1.0,,,,,,,,,,,,,,,,,,,,,,,2023-02-28 15:52:07.669548+00:00
2023-02-28 08:52:07.869853-07:00,10.194414,0.56,0.35,-0.29,-0.34,8.26,857.11,47.13,35.0,-1.0,,,,,,,,,,,,,,,,,,,,,,,2023-02-28 15:52:07.869853+00:00
2023-02-28 08:52:08.069920-07:00,10.394481,0.74,0.5,-0.49,-0.22,8.2,857.12,47.26,41.0,-1.0,,,,,,,,,,,,,,,,,,,,,,,2023-02-28 15:52:08.069920+00:00
2023-02-28 08:52:08.269238-07:00,10.593799,0.82,0.29,-0.75,-0.16,7.94,857.11,48.12,31.0,-1.0,,,,,,,,,,,,,,,,,,,,,,,2023-02-28 15:52:08.269238+00:00
2023-02-28 08:52:08.469490-07:00,10.794051,0.79,0.31,-0.73,-0.09,8.05,857.13,47.69,36.0,-1.0,,,,,,,,,,,,,,,,,,,,,,,2023-02-28 15:52:08.469490+00:00
2023-02-28 08:52:08.669629-07:00,10.99419,0.64,0.27,-0.58,-0.07,8.01,857.12,47.89,40.0,-1.0,,,,,,,,,,,,,,,,,,,,,,,2023-02-28 15:52:08.669629+00:00
2023-02-28 08:52:08.869553-07:00,11.194114,0.79,0.48,-0.61,-0.17,8.12,857.12,47.7,30.0,-1.0,,,,,,,,,,,,,,,,,,,,,,,2023-02-28 15:52:08.869553+00:00
2023-02-28 08:53:09.602217-07:00,71.926778,0.24,0.2,-0.08,0.11,11.15,857.22,38.78,33.0,-1.0,,,,,,,,,,,,,,,,,,,,,,,2023-02-28 15:53:09.602217+00:00
2023-02-28 08:53:09.812645-07:00,72.137206,0.36,-0.26,-0.17,0.17,10.14,857.23,41.56,43.0,-1.0,,,,,,,,,,,,,,,,,,,,,,,2023-02-28 15:53:09.812645+00:00
2023-02-28 08:53:10.022917-07:00,72.347478,0.25,0.02,-0.23,0.1,10.31,857.23,41.03,32.0,-1.0,,,,,,,,,,,,,,,,,,,,,,,2023-02-28 15:53:10.022917+00:00
2023-02-28 08:53:10.232902-07:00,72.557463,0.34,-0.2,-0.02,0.28,10.84,857.21,39.71,33.0,-1.0,,,,,,,,,,-0.500559,5.21512,-1499.59,22.2393,11837.0,-0.738242,-1.0,19.0,-1192.0,95.0,,0.0,2023-02-28 08:53:05.827,2023-02-28 15:53:10.232902+00:00
2023-02-28 08:53:10.442800-07:00,72.767361,0.54,-0.52,-0.05,0.12,10.57,857.23,40.26,42.0,-1.0,,,,,,,,,,,,,,,,,,,,,,,2023-02-28 15:53:10.442800+00:00
2023-02-28 08:53:10.652750-07:00,72.977311,0.32,-0.05,-0.31,0.01,9.24,857.22,44.14,32.0,-1.0,,,,,,,,,,,,,,,,,,,,,,,2023-02-28 15:53:10.652750+00:00
2023-02-28 08:53:10.862334-07:00,73.186895,0.4,0.0,-0.4,-0.05,8.65,857.23,45.99,33.0,-1.0,,,,,,,,,,,,,,,,,,,,,,,2023-02-28 15:53:10.862334+00:00
2023-02-28 08:53:11.069358-07:00,73.393919,0.63,-0.44,-0.45,0.05,8.89,857.24,45.31,44.0,-1.0,,,,,,,,,,,,,,,,,,,,,,,2023-02-28 15:53:11.069358+00:00
2023-02-28 08:53:11.269455-07:00,73.594016,0.62,-0.28,-0.55,0.03,9.13,857.21,44.53,33.0,-1.0,,,,,,,,,,,,,,,,,,,,,,,2023-02-28 15:53:11.269455+00:00
2023-02-28 08:53:11.469908-07:00,73.794469,0.76,-0.47,-0.58,0.16,9.02,857.23,44.93,32.0,-1.0,,,,,,,,,,-0.50334,5.17685,-1496.67,22.2437,11857.0,-0.761719,-1.0,16.0,-1210.0,95.0,,0.0,2023-02-28 08:53:06.851,2023-02-28 15:53:11.469908+00:00
2023-02-28 08:53:11.669316-07:00,73.993877,0.76,-0.51,-0.55,0.1,8.91,857.23,45.2,42.0,-1.0,,,,,,,,,,,,,,,,,,,,,,,2023-02-28 15:53:11.669316+00:00
2023-02-28 08:53:11.869269-07:00,74.19383,0.53,-0.26,-0.42,0.2,9.71,857.23,42.77,33.0,-1.0,,,,,,,,,,,,,,,,,,,,,,,2023-02-28 15:53:11.869269+00:00
2023-02-28 08:53:12.069053-07:00,74.393614,0.83,-0.6,-0.44,0.37,8.14,857.22,47.6,32.0,-1.0,,,,,,,,,,,,,,,,,,,,,,,2023-02-28 15:53:12.069053+00:00
2023-02-28 08:53:12.269542-07:00,74.594103,1.02,-0.68,-0.73,0.2,8.25,857.21,47.24,42.0,-1.0,,,,,,,,,,,,,,,,,,,,,,,2023-02-28 15:53:12.269542+00:00
2023-02-28 08:53:12.469558-07:00,74.794119,0.93,-0.69,-0.45,0.42,8.37,857.22,46.82,32.0,-1.0,,,,,,,,,,-0.508941,5.27782,-1497.06,22.252,11803.0,-0.789851,-1.0,17.0,-1179.0,95.0,,0.0,2023-02-28 08:53:07.875,2023-02-28 15:53:12.469558+00:00
2023-02-28 08:53:12.669953-07:00,74.994514,0.81,-0.56,-0.44,0.39,8.44,857.23,46.72,32.0,-1.0,,,,,,,,,,,,,,,,,,,,,,,2023-02-28 15:53:12.669953+00:00
2023-02-28 08:53:12.869910-07:00,75.194471,0.85,-0.63,-0.44,0.35,8.65,857.22,46.04,43.0,-1.0,,,,,,,,,,,,,,,,,,,,,,,2023-02-28 15:53:12.869910+00:00
2023-02-28 08:53:13.069804-07:00,75.394365,0.87,-0.7,-0.41,0.29,8.75,857.22,45.75,33.0,-1.0,,,,,,,,,,,,,,,,,,,,,,,2023-02-28 15:53:13.069804+00:00
2023-02-28 08:53:13.269919-07:00,75.59448,0.81,-0.41,-0.63,0.29,9.05,857.23,44.75,32.0,-1.0,,,,,,,,,,,,,,,,,,,,,,,2023-02-28 15:53:13.269919+00:00
2023-02-28 08:53:13.469974-07:00,75.794535,0.85,-0.51,-0.64,0.21,9.22,857.23,44.31,43.0,-1.0,,,,,,,,,,,,,,,,,,,,,,,2023-02-28 15:53:13.469974+00:00
2023-02-28 08:53:13.669798-07:00,75.994359,0.86,-0.56,-0.62,0.21,9.21,857.22,44.24,33.0,-1.0,,,,,,,,,,,,,,,,,,,,,,,2023-02-28 15:53:13.669798+00:00
2023-02-28 08:53:13.869158-07:00,76.193719,1.01,-0.67,-0.71,0.27,9.23,857.22,44.24,32.0,-1.0,,,,,,,,,,,,,,,,,,,,,,,2023-02-28 15:53:13.869158+00:00
2023-02-28 08:53:14.069277-07:00,76.393838,1.16,-0.9,-0.66,0.29,8.92,857.21,45.21,42.0,-1.0,,,,,,,,,,,,,,,,,,,,,,,2023-02-28 15:53:14.069277+00:00
2023-02-28 08:53:14.269620-07:00,76.594181,1.15,-0.92,-0.6,0.36,8.7,857.23,45.9,35.0,-1.0,,,,,,,,,,,,,,,,,,,,,,,2023-02-28 15:53:14.269620+00:00
2023-02-28 08:53:14.469421-07:00,76.793982,1.11,-0.61,-0.82,0.42,8.68,857.23,45.96,32.0,-1.0,,,,,,,,,,,,,,,,,,,,,,,2023-02-28 15:53:14.469421+00:00
2023-02-28 08:53:14.669617-07:00,76.994178,1.01,-0.67,-0.65,0.38,8.57,857.22,46.45,43.0,-1.0,,,,,,,,,,,,,,,,,,,,,,,2023-02-28 15:53:14.669617+00:00
2023-02-28 08:53:14.869783-07:00,77.194344,0.92,-0.6,-0.59,0.36,8.63,857.22,46.19,36.0,-1.0,,,,,,,,,,,,,,,,,,,,,,,2023-02-28 15:53:14.869783+00:00
2023-02-28 08:53:15.069347-07:00,77.393908,0.91,-0.67,-0.54,0.31,8.63,857.23,46.19,32.0,-1.0,,,,,,,,,,,,,,,,,,,,,,,2023-02-28 15:53:15.069347+00:00
2023-02-28 08:53:15.269846-07:00,77.594407,0.89,-0.75,-0.33,0.34,8.88,857.22,45.41,42.0,-1.0,,,,,,,,,,,,,,,,,,,,,,,2023-02-28 15:53:15.269846+00:00
2023-02-28 08:53:15.469766-07:00,77.794327,0.23,-0.08,-0.2,-0.08,9.05,857.21,44.82,37.0,-1.0,,,,,,,,,,,,,,,,,,,,,,,2023-02-28 15:53:15.469766+00:00
2023-02-28 08:53:15.669520-07:00,77.994081,0.86,0.05,-0.85,0.14,9.03,857.23,44.95,31.0,-1.0,,,,,,,,,,,,,,,,,,,,,,,2023-02-28 15:53:15.669520+00:00
2023-02-28 08:53:15.869409-07:00,78.19397,0.58,-0.21,-0.54,0.01,8.59,857.22,46.37,42.0,-1.0,,,,,,,,,,,,,,,,,,,,,,,2023-02-28 15:53:15.869409+00:00
2023-02-28 08:53:18.402260-07:00,80.726821,1.04,-0.62,-0.79,0.24,9.26,857.23,43.42,40.0,-1.0,,,,,,,,,,,,,,,,,,,,,,,2023-02-28 15:53:18.402260+00:00
2023-02-28 08:53:18.612182-07:00,80.936743,0.99,-0.51,-0.81,0.25,9.2,857.23,43.63,30.0,-1.0,,,,,,,,,,,,,,,,,,,,,,,2023-02-28 15:53:18.612182+00:00
2023-02-28 08:53:18.822978-07:00,81.147539,1.09,-0.74,-0.66,0.44,8.7,857.22,45.14,37.0,-1.0,,,,,,,,,,-0.363625,5.29297,-1431.48,22.3187,11797.0,-0.30638,-1.0,17.0,-1182.0,95.0,,0.0,,2023-02-28 15:53:18.822978+00:00
2023-02-28 08:53:19.032217-07:00,81.356778,1.0,-0.72,-0.62,0.32,8.82,857.22,44.77,40.0,-1.0,,,,,,,,,,,,,,,,,,,,,,,2023-02-28 15:53:19.032217+00:00
2023-02-28 08:53:19.242235-07:00,81.566796,0.93,-0.61,-0.61,0.34,8.58,857.23,45.57,30.0,-1.0,,,,,,,,,,,,,,,,,,,,,,,2023-02-28 15:53:19.242235+00:00
2023-02-28 08:53:19.452908-07:00,81.777469,0.94,-0.7,-0.48,0.4,8.66,857.23,45.32,35.0,-1.0,,,,,,,,,,,,,,,,,,,,,,,2023-02-28 15:53:19.452908+00:00
2023-02-28 08:53:19.662296-07:00,81.986857,0.51,0.0,-0.5,-0.05,8.3,857.23,46.37,41.0,-1.0,,,,,,,,,,,,,,,,,,,,,,,2023-02-28 15:53:19.662296+00:00
2023-02-28 08:53:19.869144-07:00,82.193705,1.09,-0.69,-0.8,0.24,8.81,857.23,44.86,31.0,-1.0,,,,,,,,,,-0.362472,4.66156,-1427.62,22.328,11819.0,-0.225035,-1.0,20.0,-1188.0,95.0,,0.0,,2023-02-28 15:53:19.869144+00:00
2023-02-28 08:53:20.070080-07:00,82.394641,1.07,-0.69,-0.73,0.36,8.73,857.23,45.1,36.0,-1.0,,,,,,,,,,,,,,,,,,,,,,,2023-02-28 15:53:20.070080+00:00
2023-02-28 08:53:20.270007-07:00,82.594568,0.84,-0.51,-0.6,0.29,9.18,857.22,43.74,42.0,-1.0,,,,,,,,,,,,,,,,,,,,,,,2023-02-28 15:53:20.270007+00:00
2023-02-28 08:53:20.469805-07:00,82.794366,0.65,-0.48,-0.37,0.22,9.22,857.22,43.63,31.0,-1.0,,,,,,,,,,,,,,,,,,,,,,,2023-02-28 15:53:20.469805+00:00
2023-02-28 08:53:20.669620-07:00,82.994181,0.72,-0.65,-0.22,0.21,9.89,857.22,41.72,34.0,-1.0,,,,,,,,,,,,,,,,,,,,,,,2023-02-28 15:53:20.669620+00:00
2023-02-28 08:53:20.870839-07:00,83.1954,0.72,-0.65,-0.22,0.19,9.68,857.21,42.29,42.0,-1.0,,,,,,,,,,-0.363776,5.85618,-1430.16,22.3376,11858.0,0.00440162,-1.0,18.0,-1185.0,95.0,,0.0,,2023-02-28 15:53:20.870839+00:00
2023-02-28 08:53:21.069044-07:00,83.393605,0.51,-0.37,-0.28,0.2,9.41,857.22,43.03,32.0,-1.0,,,,,,,,,,,,,,,,,,,,,,,2023-02-28 15:53:21.069044+00:00
2023-02-28 08:53:21.269208-07:00,83.593769,0.59,-0.46,-0.31,0.21,9.27,857.21,43.43,33.0,-1.0,,,,,,,,,,,,,,,,,,,,,,,2023-02-28 15:53:21.269208+00:00
2023-02-28 08:53:21.469265-07:00,83.793826,0.64,-0.31,-0.52,0.21,9.61,857.23,42.5,42.0,-1.0,,,,,,,,,,,,,,,,,,,,,,,2023-02-28 15:53:21.469265+00:00
2023-02-28 08:53:21.669155-07:00,83.993716,0.89,-0.7,-0.46,0.29,9.05,857.22,44.18,32.0,-1.0,,,,,,,,,,,,,,,,,,,,,,,2023-02-28 15:53:21.669155+00:00
2023-02-28 08:53:21.871174-07:00,84.195735,1.06,-0.78,-0.61,0.36,8.81,857.23,44.79,33.0,-1.0,,,,,,,,,,-0.36817,5.07813,-1429.06,22.3471,11848.0,0.0858787,-1.0,16.0,-1195.0,95.0,,0.0,,2023-02-28 15:53:21.871174+00:00
2023-02-28 08:53:22.069724-07:00,84.394285,1.22,-0.95,-0.67,0.35,8.71,857.23,45.17,42.0,-1.0,,,,,,,,,,,,,,,,,,,,,,,2023-02-28 15:53:22.069724+00:00
2023-02-28 08:53:22.269823-07:00,84.594384,1.37,-1.04,-0.79,0.41,8.78,857.23,44.96,32.0,-1.0,,,,,,,,,,,,,,,,,,,,,,,2023-02-28 15:53:22.269823+00:00
2023-02-28 08:53:22.469217-07:00,84.793778,1.13,-0.9,-0.62,0.3,9.13,857.22,43.91,32.0,-1.0,,,,,,,,,,,,,,,,,,,,,,,2023-02-28 15:53:22.469217+00:00
2023-02-28 08:53:22.669856-07:00,84.994417,0.94,-0.68,-0.59,0.27,9.84,857.21,41.91,43.0,-1.0,,,,,,,,,,,,,,,,,,,,,,,2023-02-28 15:53:22.669856+00:00
2023-02-28 08:53:22.871073-07:00,85.195634,0.98,-0.79,-0.46,0.35,10.19,857.23,40.92,32.0,-1.0,,,,,,,,,,-0.206029,4.54937,-1320.93,22.3567,11794.0,0.0480401,-1.0,16.0,-1182.0,95.0,,0.0,,2023-02-28 15:53:22.871073+00:00
2023-02-28 08:53:23.069232-07:00,85.393793,0.58,-0.34,-0.41,0.25,10.29,857.23,40.77,32.0,-1.0,,,,,,,,,,,,,,,,,,,,,,,2023-02-28 15:53:23.069232+00:00
2023-02-28 08:53:23.269092-07:00,85.593653,0.73,-0.43,-0.57,0.18,9.56,857.23,42.65,42.0,-1.0,,,,,,,,,,,,,,,,,,,,,,,2023-02-28 15:53:23.269092+00:00
2023-02-28 08:53:23.469464-07:00,85.794025,0.86,-0.54,-0.62,0.23,10.45,857.23,40.14,34.0,-1.0,,,,,,,,,,,,,,,,,,,,,,,2023-02-28 15:53:23.469464+00:00
2023-02-28 08:53:23.669927-07:00,85.994488,0.78,-0.49,-0.58,0.18,9.67,857.23,42.33,31.0,-1.0,,,,,,,,,,,,,,,,,,,,,,,2023-02-28 15:53:23.669927+00:00
2023-02-28 08:53:23.870875-07:00,86.195436,0.94,-0.7,-0.59,0.18,9.42,857.22,43.22,43.0,-1.0,,,,,,,,,,-0.207144,5.75576,-1329.61,22.3663,11819.0,0.231128,-1.0,18.0,-1167.0,95.0,,0.0,,2023-02-28 15:53:23.870875+00:00
2023-02-28 08:53:24.069202-07:00,86.393763,0.95,-0.75,-0.5,0.3,9.03,857.22,44.21,35.0,-1.0,,,,,,,,,,,,,,,,,,,,,,,2023-02-28 15:53:24.069202+00:00
2023-02-28 08:53:24.269591-07:00,86.594152,0.81,-0.54,-0.48,0.36,9.64,857.23,42.57,30.0,-1.0,,,,,,,,,,,,,,,,,,,,,,,2023-02-28 15:53:24.269591+00:00
2023-02-28 08:53:24.469956-07:00,86.794517,0.8,-0.64,-0.29,0.38,9.7,857.22,41.41,41.0,-1.0,,,,,,,,,,,,,,,,,,,,,,,2023-02-28 15:53:24.469956+00:00
2023-02-28 08:53:24.669558-07:00,86.994119,1.09,-0.97,-0.39,0.32,9.52,857.23,41.9,35.0,-1.0,,,,,,,,,,,,,,,,,,,,,,,2023-02-28 15:53:24.669558+00:00
2023-02-28 08:53:24.875395-07:00,87.199956,1.1,-0.74,-0.76,0.29,9.35,857.22,42.47,30.0,-1.0,,,,,,,,,,-0.208141,5.24635,-1323.15,22.3757,11858.0,0.28279,-1.0,18.0,-1182.0,95.0,,0.0,,2023-02-28 15:53:24.875395+00:00
2023-02-28 08:53:25.069934-07:00,87.394495,1.11,-0.97,-0.46,0.28,9.28,857.22,43.5,42.0,-1.0,,,,,,,,,,,,,,,,,,,,,,,2023-02-28 15:53:25.069934+00:00
2023-02-28 08:53:25.269439-07:00,87.594,1.02,-0.74,-0.68,0.19,8.98,857.22,43.54,36.0,-1.0,,,,,,,,,,,,,,,,,,,,,,,2023-02-28 15:53:25.269439+00:00
2023-02-28 08:53:25.469966-07:00,87.794527,0.97,-0.68,-0.65,0.21,9.36,857.23,42.48,30.0,-1.0,,,,,,,,,,,,,,,,,,,,,,,2023-02-28 15:53:25.469966+00:00
2023-02-28 08:53:25.669778-07:00,87.994339,0.71,-0.46,-0.52,0.16,9.59,857.23,41.72,40.0,-1.0,,,,,,,,,,,,,,,,,,,,,,,2023-02-28 15:53:25.669778+00:00
2023-02-28 08:53:25.870574-07:00,88.195135,0.74,-0.01,-0.69,0.27,10.33,857.23,39.76,35.0,-1.0,,,,,,,,,,-0.219097,5.09101,-1330.39,22.3837,11804.0,0.301458,-1.0,14.0,-1206.0,95.0,,0.0,,2023-02-28 15:53:25.870574+00:00
2023-02-28 08:53:26.069626-07:00,88.394187,0.59,-0.06,-0.5,0.32,10.29,857.24,39.82,30.0,-1.0,,,,,,,,,,,,,,,,,,,,,,,2023-02-28 15:53:26.069626+00:00
2023-02-28 08:53:26.269331-07:00,88.593892,0.85,-0.04,-0.8,0.28,10.84,857.23,38.38,40.0,-1.0,,,,,,,,,,,,,,,,,,,,,,,2023-02-28 15:53:26.269331+00:00
2023-02-28 08:53:26.469622-07:00,88.794183,0.74,-0.07,-0.66,0.32,10.28,857.23,39.83,36.0,-1.0,,,,,,,,,,,,,,,,,,,,,,,2023-02-28 15:53:26.469622+00:00
2023-02-28 08:53:26.670007-07:00,88.994568,0.93,-0.48,-0.77,0.19,9.52,857.23,41.97,29.0,-1.0,,,,,,,,,,,,,,,,,,,,,,,2023-02-28 15:53:26.670007+00:00
2023-02-28 08:53:26.870870-07:00,89.195431,0.6,-0.09,-0.53,0.26,9.8,857.24,41.2,40.0,-1.0,,,,,,,,,,-0.214641,5.80426,-1329.3,22.3895,11790.0,0.379158,-1.0,14.0,-1188.0,95.0,,0.0,,2023-02-28 15:53:26.870870+00:00
2023-02-28 08:53:27.069591-07:00,89.394152,0.85,-0.72,-0.45,0.11,9.7,857.23,41.58,37.0,-1.0,,,,,,,,,,,,,,,,,,,,,,,2023-02-28 15:53:27.069591+00:00
2023-02-28 08:53:27.269900-07:00,89.594461,0.72,-0.34,-0.45,0.45,9.87,857.24,41.05,29.0,-1.0,,,,,,,,,,,,,,,,,,,,,,,2023-02-28 15:53:27.269900+00:00
2023-02-28 08:53:27.469723-07:00,89.794284,0.81,-0.42,-0.63,0.27,9.75,857.22,41.33,38.0,-1.0,,,,,,,,,,,,,,,,,,,,,,,2023-02-28 15:53:27.469723+00:00
2023-02-28 08:53:27.669998-07:00,89.994559,0.88,-0.68,-0.48,0.28,9.59,857.23,41.77,38.0,-1.0,,,,,,,,,,,,,,,,,,,,,,,2023-02-28 15:53:27.669998+00:00
2023-02-28 08:53:27.870655-07:00,90.195216,0.96,-0.32,-0.85,0.31,9.46,857.23,42.21,29.0,-1.0,,,,,,,,,,-0.223582,4.75361,-1343.07,22.3989,11842.0,0.348713,-1.0,17.0,-1185.0,95.0,,0.0,,2023-02-28 15:53:27.870655+00:00
2023-02-28 08:53:28.069154-07:00,90.393715,0.95,-0.01,-0.88,0.36,9.71,857.22,41.56,37.0,-1.0,,,,,,,,,,,,,,,,,,,,,,,2023-02-28 15:53:28.069154+00:00
2023-02-28 08:53:28.269322-07:00,90.593883,0.76,0.1,-0.54,0.53,10.32,857.23,39.83,39.0,-1.0,,,,,,,,,,,,,,,,,,,,,,,2023-02-28 15:53:28.269322+00:00
2023-02-28 08:53:28.469362-07:00,90.793923,0.79,0.05,-0.65,0.44,10.5,857.23,39.32,30.0,-1.0,,,,,,,,,,,,,,,,,,,,,,,2023-02-28 15:53:28.469362+00:00
2023-02-28 08:53:28.669514-07:00,90.994075,0.73,-0.02,-0.47,0.56,10.32,857.23,39.77,38.0,-1.0,,,,,,,,,,,,,,,,,,,,,,,2023-02-28 15:53:28.669514+00:00
2023-02-28 08:53:28.870799-07:00,91.19536,1.03,-0.04,-0.94,0.43,9.54,857.23,41.97,40.0,-1.0,,,,,,,,,,-0.056861,5.28211,-1156.97,22.4083,11842.0,0.359812,-1.0,17.0,-1185.0,95.0,,0.0,,2023-02-28 15:53:28.870799+00:00
2023-02-28 08:53:29.069460-07:00,91.394021,0.92,-0.61,-0.59,0.35,9.34,857.22,42.55,30.0,-1.0,,,,,,,,,,,,,,,,,,,,,,,2023-02-28 15:53:29.069460+00:00
2023-02-28 08:53:29.269249-07:00,91.59381,0.8,-0.2,-0.69,0.36,9.69,857.23,41.6,36.0,-1.0,,,,,,,,,,,,,,,,,,,,,,,2023-02-28 15:53:29.269249+00:00
2023-02-28 08:53:29.469361-07:00,91.793922,1.46,0.1,-1.46,0.12,9.67,857.23,41.67,41.0,-1.0,,,,,,,,,,,,,,,,,,,,,,,2023-02-28 15:53:29.469361+00:00
2023-02-28 08:53:29.669413-07:00,91.993974,1.33,-0.24,-1.28,0.27,9.69,857.23,41.51,30.0,-1.0,,,,,,,,,,,,,,,,,,,,,,,2023-02-28 15:53:29.669413+00:00
2023-02-28 08:53:29.871243-07:00,92.195804,1.47,0.16,-1.46,0.1,9.53,857.22,42.01,35.0,-1.0,,,,,,,,,,0.642254,-2.07756,1443.73,22.4178,11849.0,-0.698757,-1.0,17.0,-1219.0,95.0,,0.0,,2023-02-28 15:53:29.871243+00:00
2023-02-28 08:53:30.069357-07:00,92.393918,1.73,0.34,-1.69,-0.02,9.38,857.22,42.48,42.0,-1.0,,,,,,,,,,,,,,,,,,,,,,,2023-02-28 15:53:30.069357+00:00
2023-02-28 08:53:30.269288-07:00,92.593849,1.38,0.23,-1.36,0.06,9.51,857.23,42.12,31.0,-1.0,,,,,,,,,,,,,,,,,,,,,,,2023-02-28 15:53:30.269288+00:00
2023-02-28 08:53:30.469753-07:00,92.794314,1.8,0.88,-1.56,-0.23,9.5,857.21,42.18,34.0,-1.0,,,,,,,,,,,,,,,,,,,,,,,2023-02-28 15:53:30.469753+00:00
2023-02-28 08:53:30.669556-07:00,92.994117,1.18,0.23,-1.16,0.08,9.58,857.22,41.87,42.0,-1.0,,,,,,,,,,,,,,,,,,,,,,,2023-02-28 15:53:30.669556+00:00
2023-02-28 08:53:30.870592-07:00,93.195153,1.61,0.45,-1.55,0.06,9.67,857.23,41.54,31.0,-1.0,,,,,,,,,,0.362134,-3.02291,-743.97,22.428,11810.0,-0.781469,-1.0,15.0,-1219.0,95.0,,0.0,,2023-02-28 15:53:30.870592+00:00
2023-02-28 08:53:31.069422-07:00,93.393983,1.4,0.34,-1.33,0.3,9.94,857.23,40.8,33.0,-1.0,,,,,,,,,,,,,,,,,,,,,,,2023-02-28 15:53:31.069422+00:00
2023-02-28 08:53:31.269408-07:00,93.593969,2.25,1.09,-1.95,-0.16,10.03,857.21,40.66,43.0,-1.0,,,,,,,,,,,,,,,,,,,,,,,2023-02-28 15:53:31.269408+00:00
2023-02-28 08:53:31.469274-07:00,93.793835,2.2,1.38,-1.72,0.03,10.15,857.22,40.29,33.0,-1.0,,,,,,,,,,,,,,,,,,,,,,,2023-02-28 15:53:31.469274+00:00
2023-02-28 08:53:31.669654-07:00,93.994215,2.44,1.55,-1.89,-0.06,10.18,857.21,40.25,32.0,-1.0,,,,,,,,,,,,,,,,,,,,,,,2023-02-28 15:53:31.669654+00:00
2023-02-28 08:53:31.870769-07:00,94.19533,2.3,1.34,-1.87,-0.09,10.21,857.21,40.12,43.0,-1.0,,,,,,,,,,-0.0037673,-3.13185,-556.045,22.437,11784.0,-0.754163,-1.0,14.0,-1180.0,95.0,,0.0,,2023-02-28 15:53:31.870769+00:00
2023-02-28 08:53:32.069500-07:00,94.394061,2.02,1.23,-1.6,0.09,9.99,857.21,40.72,34.0,-1.0,,,,,,,,,,,,,,,,,,,,,,,2023-02-28 15:53:32.069500+00:00
2023-02-28 08:53:32.269806-07:00,94.594367,1.86,1.33,-1.29,-0.15,10.05,857.21,40.61,30.0,-1.0,,,,,,,,,,,,,,,,,,,,,,,2023-02-28 15:53:32.269806+00:00
2023-02-28 08:53:32.469099-07:00,94.79366,1.65,1.36,-0.93,-0.16,9.86,857.22,41.08,42.0,-1.0,,,,,,,,,,,,,,,,,,,,,,,2023-02-28 15:53:32.469099+00:00
2023-02-28 08:53:32.669530-07:00,94.994091,2.02,1.91,-0.65,-0.15,9.91,857.23,40.94,34.0,-1.0,,,,,,,,,,,,,,,,,,,,,,,2023-02-28 15:53:32.669530+00:00
2023-02-28 08:53:32.870586-07:00,95.195147,1.85,1.81,-0.27,-0.29,9.72,857.21,41.52,31.0,-1.0,,,,,,,,,,-0.120471,-2.46327,50.845,22.4469,11851.0,-0.728599,-1.0,16.0,-1209.0,95.0,,0.0,,2023-02-28 15:53:32.870586+00:00
2023-02-28 08:53:33.069765-07:00,95.394326,1.51,1.44,-0.07,0.43,10.06,857.24,40.57,42.0,-1.0,,,,,,,,,,,,,,,,,,,,,,,2023-02-28 15:53:33.069765+00:00
2023-02-28 08:53:33.269994-07:00,95.594555,1.39,1.31,0.44,0.21,9.78,857.24,41.34,35.0,-1.0,,,,,,,,,,,,,,,,,,,,,,,2023-02-28 15:53:33.269994+00:00
2023-02-28 08:53:33.469565-07:00,95.794126,1.24,1.23,0.11,-0.11,9.58,857.23,41.96,30.0,-1.0,,,,,,,,,,,,,,,,,,,,,,,2023-02-28 15:53:33.469565+00:00
2023-02-28 08:53:33.669342-07:00,95.993903,0.84,0.83,-0.14,-0.01,9.38,857.24,42.52,42.0,-1.0,,,,,,,,,,,,,,,,,,,,,,,2023-02-28 15:53:33.669342+00:00
2023-02-28 08:53:33.871126-07:00,96.195687,1.48,0.92,-1.05,-0.49,8.91,857.23,43.9,35.0,-1.0,,,,,,,,,,-0.119034,-2.17257,110.681,22.4564,11837.0,-0.714397,-1.0,16.0,-1233.0,95.0,,0.0,,2023-02-28 15:53:33.871126+00:00
2023-02-28 08:53:34.069541-07:00,96.394102,1.37,0.97,-0.95,-0.21,9.08,857.23,43.29,30.0,-1.0,,,,,,,,,,,,,,,,,,,,,,,2023-02-28 15:53:34.069541+00:00
2023-02-28 08:53:34.269459-07:00,96.59402,0.81,0.68,-0.43,0.05,9.4,857.24,42.47,40.0,-1.0,,,,,,,,,,,,,,,,,,,,,,,2023-02-28 15:53:34.269459+00:00
2023-02-28 08:53:34.469977-07:00,96.794538,1.22,1.08,-0.55,-0.03,9.03,857.24,43.48,37.0,-1.0,,,,,,,,,,,,,,,,,,,,,,,2023-02-28 15:53:34.469977+00:00
2023-02-28 08:53:34.669598-07:00,96.994159,1.22,1.04,-0.6,-0.22,8.98,857.24,43.68,30.0,-1.0,,,,,,,,,,,,,,,,,,,,,,,2023-02-28 15:53:34.669598+00:00
2023-02-28 08:53:34.870934-07:00,97.195495,0.95,0.84,-0.35,-0.27,8.9,857.23,43.87,41.0,-1.0,,,,,,,,,,-0.124179,-2.77358,188.679,22.4658,11782.0,-0.699784,-1.0,14.0,-1194.0,95.0,,0.0,,2023-02-28 15:53:34.870934+00:00
2023-02-28 08:53:35.069445-07:00,97.394006,0.81,0.72,-0.36,-0.08,9.13,857.25,43.21,37.0,-1.0,,,,,,,,,,,,,,,,,,,,,,,2023-02-28 15:53:35.069445+00:00
2023-02-28 08:53:35.269190-07:00,97.593751,0.89,0.57,-0.64,-0.24,8.84,857.23,44.05,30.0,-1.0,,,,,,,,,,,,,,,,,,,,,,,2023-02-28 15:53:35.269190+00:00
2023-02-28 08:53:35.469937-07:00,97.794498,0.94,0.55,-0.71,-0.27,8.71,857.23,44.45,39.0,-1.0,,,,,,,,,,,,,,,,,,,,,,,2023-02-28 15:53:35.469937+00:00
2023-02-28 08:53:35.669996-07:00,97.994557,0.99,0.54,-0.75,-0.36,8.67,857.24,44.61,39.0,-1.0,,,,,,,,,,,,,,,,,,,,,,,2023-02-28 15:53:35.669996+00:00
2023-02-28 08:53:35.870469-07:00,98.19503,0.9,0.5,-0.71,-0.23,9.0,857.22,43.64,30.0,-1.0,,,,,,,,,,-0.145561,5.16389,743.839,22.4755,11830.0,-0.684516,-1.0,17.0,-1190.0,95.0,,0.0,,2023-02-28 15:53:35.870469+00:00
2023-02-28 08:53:36.069252-07:00,98.393813,0.89,0.47,-0.71,-0.26,8.92,857.24,43.86,37.0,-1.0,,,,,,,,,,,,,,,,,,,,,,,2023-02-28 15:53:36.069252+00:00
2023-02-28 08:53:36.269542-07:00,98.594103,0.88,0.6,-0.58,-0.26,8.93,857.23,43.84,41.0,-1.0,,,,,,,,,,,,,,,,,,,,,,,2023-02-28 15:53:36.269542+00:00
2023-02-28 08:53:36.469863-07:00,98.794424,0.87,0.54,-0.68,-0.09,9.31,857.22,42.62,30.0,-1.0,,,,,,,,,,,,,,,,,,,,,,,2023-02-28 15:53:36.469863+00:00
2023-02-28 08:53:36.669979-07:00,98.99454,1.05,0.6,-0.86,-0.1,9.27,857.24,42.79,36.0,-1.0,,,,,,,,,,,,,,,,,,,,,,,2023-02-28 15:53:36.669979+00:00
2023-02-28 08:53:36.870494-07:00,99.195055,1.13,0.61,-0.93,-0.2,9.16,857.25,43.12,40.0,-1.0,,,,,,,,,,-0.191582,-1.24307,697.576,22.4845,11858.0,-0.673362,-1.0,16.0,-1218.0,95.0,,0.0,,2023-02-28 15:53:36.870494+00:00
2023-02-28 08:53:37.069672-07:00,99.394233,1.33,0.56,-1.15,-0.36,8.72,857.23,44.41,30.0,-1.0,,,,,,,,,,,,,,,,,,,,,,,2023-02-28 15:53:37.069672+00:00
2023-02-28 08:53:37.269888-07:00,99.594449,1.06,0.7,-0.79,-0.11,8.99,857.23,43.68,35.0,-1.0,,,,,,,,,,,,,,,,,,,,,,,2023-02-28 15:53:37.269888+00:00
2023-02-28 08:53:37.469073-07:00,99.793634,0.96,0.53,-0.77,-0.23,9.0,857.24,43.58,42.0,-1.0,,,,,,,,,,,,,,,,,,,,,,,2023-02-28 15:53:37.469073+00:00
2023-02-28 08:53:37.669046-07:00,99.993607,0.86,0.52,-0.65,-0.22,9.0,857.24,43.64,31.0,-1.0,,,,,,,,,,,,,,,,,,,,,,,2023-02-28 15:53:37.669046+00:00
2023-02-28 08:53:37.870587-07:00,100.195148,0.52,0.44,-0.27,-0.03,9.21,857.25,43.09,34.0,-1.0,,,,,,,,,,-0.19332,-1.98659,702.641,22.4941,11858.0,-0.663068,-1.0,16.0,-1218.0,95.0,,0.0,,2023-02-28 15:53:37.870587+00:00
2023-02-28 08:53:38.069525-07:00,100.394086,0.5,0.42,0.2,-0.18,9.08,857.24,43.46,42.0,-1.0,,,,,,,,,,,,,,,,,,,,,,,2023-02-28 15:53:38.069525+00:00
2023-02-28 08:53:38.270015-07:00,100.594576,1.04,0.98,-0.29,-0.16,9.02,857.24,43.58,31.0,-1.0,,,,,,,,,,,,,,,,,,,,,,,2023-02-28 15:53:38.270015+00:00
2023-02-28 08:53:38.469127-07:00,100.793688,1.12,1.07,-0.15,0.29,9.55,857.25,42.0,33.0,-1.0,,,,,,,,,,,,,,,,,,,,,,,2023-02-28 15:53:38.469127+00:00
2023-02-28 08:53:38.669235-07:00,100.993796,1.11,1.07,0.07,0.28,9.48,857.24,42.3,42.0,-1.0,,,,,,,,,,,,,,,,,,,,,,,2023-02-28 15:53:38.669235+00:00
2023-02-28 08:53:38.871177-07:00,101.195738,0.92,0.88,0.09,0.24,9.58,857.24,42.03,32.0,-1.0,,,,,,,,,,-0.19834,-1.70176,708.158,22.5033,11830.0,-0.64795,-1.0,15.0,-1221.0,95.0,,0.0,,2023-02-28 15:53:38.871177+00:00
2023-02-28 08:53:39.069231-07:00,101.393792,1.19,1.16,-0.19,0.14,9.47,857.24,42.26,32.0,-1.0,,,,,,,,,,,,,,,,,,,,,,,2023-02-28 15:53:39.069231+00:00
2023-02-28 08:53:39.269420-07:00,101.593981,1.09,1.05,-0.31,0.03,9.39,857.24,42.5,42.0,-1.0,,,,,,,,,,,,,,,,,,,,,,,2023-02-28 15:53:39.269420+00:00
2023-02-28 08:53:39.469894-07:00,101.794455,1.28,1.27,-0.13,0.1,9.48,857.24,42.24,33.0,-1.0,,,,,,,,,,,,,,,,,,,,,,,2023-02-28 15:53:39.469894+00:00
2023-02-28 08:53:39.669962-07:00,101.994523,0.95,0.94,-0.04,-0.13,9.36,857.25,42.54,31.0,-1.0,,,,,,,,,,,,,,,,,,,,,,,2023-02-28 15:53:39.669962+00:00
2023-02-28 08:53:39.871111-07:00,102.195672,1.02,1.02,0.0,-0.01,9.4,857.24,42.43,42.0,-1.0,,,,,,,,,,-0.154823,-1.49438,682.292,22.5126,11808.0,-0.636525,-1.0,14.0,-1217.0,95.0,,0.0,,2023-02-28 15:53:39.871111+00:00
2023-02-28 08:53:40.069358-07:00,102.393919,1.08,1.07,-0.16,-0.05,9.12,857.25,43.22,34.0,-1.0,,,,,,,,,,,,,,,,,,,,,,,2023-02-28 15:53:40.069358+00:00
2023-02-28 08:53:40.269482-07:00,102.594043,1.12,0.8,-0.62,-0.47,8.53,857.23,45.12,30.0,-1.0,,,,,,,,,,,,,,,,,,,,,,,2023-02-28 15:53:40.269482+00:00
2023-02-28 08:53:40.469652-07:00,102.794213,1.23,0.88,-0.72,-0.48,8.37,857.24,45.62,42.0,-1.0,,,,,,,,,,,,,,,,,,,,,,,2023-02-28 15:53:40.469652+00:00
2023-02-28 08:53:40.669187-07:00,102.993748,1.25,0.84,-0.74,-0.56,8.4,857.24,45.4,35.0,-1.0,,,,,,,,,,,,,,,,,,,,,,,2023-02-28 15:53:40.669187+00:00
2023-02-28 08:53:40.870470-07:00,103.195031,1.4,1.16,-0.77,-0.14,8.89,857.24,44.03,30.0,-1.0,,,,,,,,,,-0.162137,-1.3424,687.569,22.5227,11853.0,-0.623687,-1.0,16.0,-1198.0,95.0,,0.0,,2023-02-28 15:53:40.870470+00:00
2023-02-28 08:53:41.069334-07:00,103.393895,1.01,0.93,-0.33,-0.19,9.23,857.23,42.97,39.0,-1.0,,,,,,,,,,,,,,,,,,,,,,,2023-02-28 15:53:41.069334+00:00
2023-02-28 08:53:41.269464-07:00,103.594025,1.05,0.59,-0.73,-0.47,8.49,857.24,45.15,36.0,-1.0,,,,,,,,,,,,,,,,,,,,,,,2023-02-28 15:53:41.269464+00:00
2023-02-28 08:53:41.469608-07:00,103.794169,1.08,0.52,-0.8,-0.51,8.3,857.24,45.77,30.0,-1.0,,,,,,,,,,,,,,,,,,,,,,,2023-02-28 15:53:41.469608+00:00
2023-02-28 08:53:41.669578-07:00,103.994139,1.06,0.85,-0.57,-0.26,8.37,857.24,45.55,40.0,-1.0,,,,,,,,,,,,,,,,,,,,,,,2023-02-28 15:53:41.669578+00:00
2023-02-28 08:53:41.870522-07:00,104.195083,1.13,0.77,-0.72,-0.39,8.45,857.23,45.29,38.0,-1.0,,,,,,,,,,-0.166634,-1.65623,703.782,22.5339,11824.0,-0.606459,-1.0,15.0,-1214.0,95.0,,0.0,,2023-02-28 15:53:41.870522+00:00
2023-02-28 08:53:42.069119-07:00,104.39368,1.29,1.09,-0.66,-0.19,8.42,857.25,45.45,29.0,-1.0,,,,,,,,,,,,,,,,,,,,,,,2023-02-28 15:53:42.069119+00:00
2023-02-28 08:53:42.269996-07:00,104.594557,1.17,0.78,-0.77,-0.41,8.34,857.23,45.71,37.0,-1.0,,,,,,,,,,,,,,,,,,,,,,,2023-02-28 15:53:42.269996+00:00
2023-02-28 08:53:42.469622-07:00,104.794183,1.23,0.87,-0.76,-0.41,8.37,857.24,45.67,40.0,-1.0,,,,,,,,,,,,,,,,,,,,,,,2023-02-28 15:53:42.469622+00:00
2023-02-28 08:53:42.669710-07:00,104.994271,1.23,0.78,-0.83,-0.48,8.31,857.24,45.86,30.0,-1.0,,,,,,,,,,,,,,,,,,,,,,,2023-02-28 15:53:42.669710+00:00
2023-02-28 08:53:42.870486-07:00,105.195047,1.3,0.84,-0.9,-0.43,8.29,857.25,45.77,37.0,-1.0,,,,,,,,,,-0.178846,-1.3995,701.265,22.5433,11796.0,-0.588985,-1.0,14.0,-1166.0,95.0,,0.0,,2023-02-28 15:53:42.870486+00:00
2023-02-28 08:53:43.069783-07:00,105.394344,1.35,1.11,-0.7,-0.32,8.54,857.25,45.0,40.0,-1.0,,,,,,,,,,,,,,,,,,,,,,,2023-02-28 15:53:43.069783+00:00
2023-02-28 08:53:43.269590-07:00,105.594151,1.05,0.63,-0.69,-0.46,8.54,857.25,45.06,29.0,-1.0,,,,,,,,,,,,,,,,,,,,,,,2023-02-28 15:53:43.269590+00:00
2023-02-28 08:53:43.469983-07:00,105.794544,1.08,0.86,-0.6,-0.23,8.39,857.24,45.47,35.0,-1.0,,,,,,,,,,,,,,,,,,,,,,,2023-02-28 15:53:43.469983+00:00
2023-02-28 08:53:43.669709-07:00,105.99427,0.8,0.65,-0.31,-0.33,8.7,857.24,44.54,40.0,-1.0,,,,,,,,,,,,,,,,,,,,,,,2023-02-28 15:53:43.669709+00:00
2023-02-28 08:53:43.870299-07:00,106.19486,0.88,0.71,-0.42,-0.31,8.87,857.24,44.0,31.0,-1.0,,,,,,,,,,-0.153754,-1.58034,623.643,22.553,11826.0,-0.56956,-1.0,18.0,-1185.0,95.0,,0.0,,2023-02-28 15:53:43.870299+00:00
2023-02-28 08:53:44.069980-07:00,106.394541,1.04,0.74,-0.64,-0.37,8.87,857.24,44.15,34.0,-1.0,,,,,,,,,,,,,,,,,,,,,,,2023-02-28 15:53:44.069980+00:00
2023-02-28 08:53:44.269333-07:00,106.593894,1.26,0.91,-0.79,-0.36,8.7,857.24,44.6,42.0,-1.0,,,,,,,,,,,,,,,,,,,,,,,2023-02-28 15:53:44.269333+00:00
2023-02-28 08:53:44.469166-07:00,106.793727,0.87,0.6,-0.59,-0.22,8.87,857.23,44.02,31.0,-1.0,,,,,,,,,,,,,,,,,,,,,,,2023-02-28 15:53:44.469166+00:00
2023-02-28 08:53:44.669965-07:00,106.994526,0.77,0.7,-0.29,-0.15,9.0,857.24,43.65,34.0,-1.0,,,,,,,,,,,,,,,,,,,,,,,2023-02-28 15:53:44.669965+00:00
2023-02-28 08:53:44.870511-07:00,107.195072,0.77,0.74,-0.1,-0.19,8.94,857.25,43.7,43.0,-1.0,,,,,,,,,,-0.144183,-2.24073,399.824,22.5626,11847.0,-0.543618,-1.0,17.0,-1214.0,95.0,,0.0,,2023-02-28 15:53:44.870511+00:00
2023-02-28 08:53:45.069706-07:00,107.394267,0.65,0.6,-0.2,-0.16,9.08,857.24,43.39,31.0,-1.0,,,,,,,,,,,,,,,,,,,,,,,2023-02-28 15:53:45.069706+00:00
2023-02-28 08:53:45.269406-07:00,107.593967,0.98,0.48,-0.73,-0.44,8.61,857.24,44.88,33.0,-1.0,,,,,,,,,,,,,,,,,,,,,,,2023-02-28 15:53:45.269406+00:00
2023-02-28 08:53:45.469510-07:00,107.794071,0.9,0.69,-0.43,-0.37,8.62,857.25,44.78,42.0,-1.0,,,,,,,,,,,,,,,,,,,,,,,2023-02-28 15:53:45.469510+00:00
2023-02-28 08:53:45.669074-07:00,107.993635,1.05,0.65,-0.68,-0.46,8.36,857.24,45.56,32.0,-1.0,,,,,,,,,,,,,,,,,,,,,,,2023-02-28 15:53:45.669074+00:00
2023-02-28 08:53:45.870970-07:00,108.195531,1.15,0.81,-0.67,-0.46,8.35,857.24,45.67,32.0,-1.0,,,,,,,,,,-0.0105747,-2.49119,-514.331,22.5719,11794.0,-0.537617,-1.0,17.0,-1194.0,95.0,,0.0,,2023-02-28 15:53:45.870970+00:00
2023-02-28 08:53:46.070017-07:00,108.394578,1.0,0.63,-0.6,-0.5,8.3,857.25,45.83,42.0,-1.0,,,,,,,,,,,,,,,,,,,,,,,2023-02-28 15:53:46.070017+00:00
2023-02-28 08:53:46.269474-07:00,108.594035,1.06,0.77,-0.61,-0.4,8.41,857.24,45.47,33.0,-1.0,,,,,,,,,,,,,,,,,,,,,,,2023-02-28 15:53:46.269474+00:00
2023-02-28 08:53:46.469439-07:00,108.794,1.05,0.69,-0.61,-0.52,8.27,857.24,45.92,32.0,-1.0,,,,,,,,,,,,,,,,,,,,,,,2023-02-28 15:53:46.469439+00:00
2023-02-28 08:53:46.669189-07:00,108.99375,1.0,0.63,-0.59,-0.49,8.11,857.25,46.42,43.0,-1.0,,,,,,,,,,,,,,,,,,,,,,,2023-02-28 15:53:46.669189+00:00
2023-02-28 08:53:46.870530-07:00,109.195091,1.13,0.8,-0.69,-0.4,8.32,857.24,45.64,34.0,-1.0,,,,,,,,,,0.366947,-2.05117,-709.641,22.5815,11817.0,-0.524882,-1.0,15.0,-1180.0,95.0,,0.0,,2023-02-28 15:53:46.870530+00:00
2023-02-28 08:53:47.069580-07:00,109.394141,1.0,0.65,-0.61,-0.45,8.37,857.24,45.6,31.0,-1.0,,,,,,,,,,,,,,,,,,,,,,,2023-02-28 15:53:47.069580+00:00
2023-02-28 08:53:47.269826-07:00,109.594387,0.99,0.68,-0.59,-0.41,8.32,857.25,45.77,43.0,-1.0,,,,,,,,,,,,,,,,,,,,,,,2023-02-28 15:53:47.269826+00:00
2023-02-28 08:53:47.469586-07:00,109.794147,1.27,0.9,-0.81,-0.37,8.28,857.24,45.77,35.0,-1.0,,,,,,,,,,,,,,,,,,,,,,,2023-02-28 15:53:47.469586+00:00
2023-02-28 08:53:47.669408-07:00,109.993969,1.09,0.7,-0.72,-0.43,7.91,857.24,47.06,30.0,-1.0,,,,,,,,,,,,,,,,,,,,,,,2023-02-28 15:53:47.669408+00:00
2023-02-28 08:53:47.911225-07:00,110.235786,1.24,0.7,-0.93,-0.43,8.01,857.23,46.61,40.0,-1.0,,,,,,,,,,-0.00456232,-4.95442,220.317,22.5902,11854.0,-0.513327,-1.0,16.0,-1189.0,95.0,,0.0,,2023-02-28 15:53:47.911225+00:00
2023-02-28 08:53:48.069453-07:00,110.394014,1.43,0.76,-1.1,-0.5,7.86,857.23,47.14,36.0,-1.0,,,,,,,,,,,,,,,,,,,,,,,2023-02-28 15:53:48.069453+00:00
2023-02-28 08:53:48.269367-07:00,110.593928,1.32,0.69,-1.03,-0.45,7.99,857.24,46.74,29.0,-1.0,,,,,,,,,,,,,,,,,,,,,,,2023-02-28 15:53:48.269367+00:00
2023-02-28 08:53:48.469571-07:00,110.794132,1.54,0.78,-1.24,-0.47,8.03,857.23,46.68,39.0,-1.0,,,,,,,,,,,,,,,,,,,,,,,2023-02-28 15:53:48.469571+00:00
2023-02-28 08:53:48.669397-07:00,110.993958,1.39,0.84,-1.04,-0.37,8.23,857.24,46.03,37.0,-1.0,,,,,,,,,,,,,,,,,,,,,,,2023-02-28 15:53:48.669397+00:00
2023-02-28 08:53:48.870772-07:00,111.195333,1.01,0.72,-0.68,-0.2,8.64,857.24,44.59,30.0,-1.0,,,,,,,,,,0.000825217,-5.49333,193.994,22.6004,11858.0,-0.492426,-1.0,16.0,-1215.0,95.0,,0.0,,2023-02-28 15:53:48.870772+00:00
2023-02-28 08:53:49.069701-07:00,111.394262,1.08,0.88,-0.58,-0.24,8.68,857.24,44.6,37.0,-1.0,,,,,,,,,,,,,,,,,,,,,,,2023-02-28 15:53:49.069701+00:00
2023-02-28 08:53:49.269801-07:00,111.594362,1.31,0.86,-0.92,-0.39,8.4,857.25,45.51,39.0,-1.0,,,,,,,,,,,,,,,,,,,,,,,2023-02-28 15:53:49.269801+00:00
2023-02-28 08:53:49.469742-07:00,111.794303,1.3,0.82,-0.9,-0.45,8.31,857.24,45.71,29.0,-1.0,,,,,,,,,,,,,,,,,,,,,,,2023-02-28 15:53:49.469742+00:00
2023-02-28 08:53:49.669988-07:00,111.994549,1.28,0.99,-0.7,-0.43,8.25,857.24,45.92,35.0,-1.0,,,,,,,,,,,,,,,,,,,,,,,2023-02-28 15:53:49.669988+00:00
2023-02-28 08:53:49.871002-07:00,112.195563,1.24,0.94,-0.68,-0.45,8.18,857.23,46.11,41.0,-1.0,,,,,,,,,,-0.0306262,-1.59137,1044.26,22.6094,11786.0,-0.469715,-1.0,14.0,-1203.0,95.0,,0.0,,2023-02-28 15:53:49.871002+00:00
2023-02-28 08:53:50.069424-07:00,112.393985,1.16,0.81,-0.69,-0.45,8.26,857.25,45.81,31.0,-1.0,,,,,,,,,,,,,,,,,,,,,,,2023-02-28 15:53:50.069424+00:00
2023-02-28 08:53:50.269045-07:00,112.593606,1.41,0.91,-0.99,-0.44,8.09,857.24,46.42,34.0,-1.0,,,,,,,,,,,,,,,,,,,,,,,2023-02-28 15:53:50.269045+00:00
2023-02-28 08:53:50.469964-07:00,112.794525,1.36,0.83,-0.95,-0.51,8.2,857.24,46.0,42.0,-1.0,,,,,,,,,,,,,,,,,,,,,,,2023-02-28 15:53:50.469964+00:00
2023-02-28 08:53:50.669722-07:00,112.994283,1.31,0.78,-0.91,-0.53,8.19,857.23,46.11,32.0,-1.0,,,,,,,,,,,,,,,,,,,,,,,2023-02-28 15:53:50.669722+00:00
2023-02-28 08:53:50.870752-07:00,113.195313,1.14,0.61,-0.8,-0.53,8.17,857.25,46.17,32.0,-1.0,,,,,,,,,,-0.0458648,-1.27168,1129.46,22.6182,11827.0,-0.432082,-1.0,17.0,-1172.0,95.0,,0.0,,2023-02-28 15:53:50.870752+00:00
2023-02-28 08:53:51.069841-07:00,113.394402,1.18,0.65,-0.81,-0.56,8.16,857.25,46.06,42.0,-1.0,,,,,,,,,,,,,,,,,,,,,,,2023-02-28 15:53:51.069841+00:00
2023-02-28 08:53:51.269663-07:00,113.594224,1.26,0.81,-0.82,-0.5,8.25,857.24,45.78,33.0,-1.0,,,,,,,,,,,,,,,,,,,,,,,2023-02-28 15:53:51.269663+00:00
2023-02-28 08:53:51.469960-07:00,113.794521,1.31,0.7,-0.95,-0.55,8.17,857.26,46.15,31.0,-1.0,,,,,,,,,,,,,,,,,,,,,,,2023-02-28 15:53:51.469960+00:00
2023-02-28 08:53:51.669702-07:00,113.994263,1.25,0.6,-0.95,-0.53,8.17,857.25,46.17,43.0,-1.0,,,,,,,,,,,,,,,,,,,,,,,2023-02-28 15:53:51.669702+00:00
2023-02-28 08:53:51.926641-07:00,114.251202,1.29,0.57,-1.04,-0.52,7.98,857.24,46.69,34.0,-1.0,,,,,,,,,,-0.0198764,-2.1284,1141.54,22.6281,11860.0,-0.391589,-1.0,17.0,-1181.0,95.0,,0.0,,2023-02-28 15:53:51.926641+00:00
2023-02-28 08:53:52.069825-07:00,114.394386,1.27,0.66,-0.98,-0.46,7.91,857.23,46.98,30.0,-1.0,,,,,,,,,,,,,,,,,,,,,,,2023-02-28 15:53:52.069825+00:00
2023-02-28 08:53:52.269109-07:00,114.59367,1.15,0.52,-0.91,-0.46,7.99,857.24,46.71,40.0,-1.0,,,,,,,,,,,,,,,,,,,,,,,2023-02-28 15:53:52.269109+00:00
2023-02-28 08:53:52.469171-07:00,114.793732,1.08,0.67,-0.78,-0.35,8.19,857.25,46.05,35.0,-1.0,,,,,,,,,,,,,,,,,,,,,,,2023-02-28 15:53:52.469171+00:00
2023-02-28 08:53:52.669367-07:00,114.993928,1.17,0.66,-0.82,-0.52,8.15,857.23,46.27,30.0,-1.0,,,,,,,,,,,,,,,,,,,,,,,2023-02-28 15:53:52.669367+00:00
2023-02-28 08:53:52.870452-07:00,115.195013,1.09,0.62,-0.77,-0.44,8.26,857.24,45.88,40.0,-1.0,,,,,,,,,,-0.0175961,-1.63673,1151.18,22.6371,11790.0,-0.375732,-1.0,12.0,-1176.0,95.0,,0.0,,2023-02-28 15:53:52.870452+00:00
2023-02-28 08:53:53.069247-07:00,115.393808,1.08,0.5,-0.83,-0.48,8.01,857.24,46.66,36.0,-1.0,,,,,,,,,,,,,,,,,,,,,,,2023-02-28 15:53:53.069247+00:00
2023-02-28 08:53:53.269524-07:00,115.594085,1.19,0.51,-0.9,-0.59,7.97,857.25,46.72,30.0,-1.0,,,,,,,,,,,,,,,,,,,,,,,2023-02-28 15:53:53.269524+00:00
2023-02-28 08:53:53.469329-07:00,115.79389,1.26,0.7,-0.93,-0.48,8.03,857.25,46.61,38.0,-1.0,,,,,,,,,,,,,,,,,,,,,,,2023-02-28 15:53:53.469329+00:00
2023-02-28 08:53:53.669878-07:00,115.994439,1.28,0.71,-0.96,-0.47,7.98,857.24,46.71,38.0,-1.0,,,,,,,,,,,,,,,,,,,,,,,2023-02-28 15:53:53.669878+00:00
2023-02-28 08:53:54.022412-07:00,116.346973,1.1,0.51,-0.87,-0.45,8.2,857.24,46.08,29.0,-1.0,,,,,,,,,,,,,,,,,,,,,,,2023-02-28 15:53:54.022412+00:00
2023-02-28 08:53:54.069602-07:00,116.394163,1.14,0.48,-0.89,-0.51,7.88,857.25,47.02,36.0,-1.0,,,,,,,,,,,,,,,,,,,,,,,2023-02-28 15:53:54.069602+00:00
2023-02-28 08:53:54.269914-07:00,116.594475,1.11,0.38,-0.86,-0.58,7.95,857.25,46.91,40.0,-1.0,,,,,,,,,,,,,,,,,,,,,,,2023-02-28 15:53:54.269914+00:00
2023-02-28 08:53:54.469173-07:00,116.793734,0.99,0.4,-0.77,-0.47,8.09,857.24,46.4,29.0,-1.0,,,,,,,,,,,,,,,,,,,,,,,2023-02-28 15:53:54.469173+00:00
2023-02-28 08:53:54.669855-07:00,116.994416,0.94,0.41,-0.74,-0.41,8.27,857.25,45.8,36.0,-1.0,,,,,,,,,,,,,,,,,,,,,,,2023-02-28 15:53:54.669855+00:00
2023-02-28 08:53:55.366307-07:00,117.690868,1.01,0.37,-0.8,-0.49,8.14,857.24,46.19,41.0,-1.0,,,,,,,,,,,,,,,,,,,,,,,2023-02-28 15:53:55.366307+00:00
2023-02-28 08:53:55.399612-07:00,117.724173,0.67,0.31,-0.44,-0.39,8.29,857.24,45.74,31.0,-1.0,,,,,,,,,,,,,,,,,,,,,,,2023-02-28 15:53:55.399612+00:00
2023-02-28 08:53:55.604120-07:00,117.928681,0.57,0.37,-0.4,-0.15,8.44,857.24,45.26,34.0,-1.0,,,,,,,,,,,,,,,,,,,,,,,2023-02-28 15:53:55.604120+00:00
2023-02-28 08:53:55.814730-07:00,118.139291,0.61,0.23,-0.47,-0.32,8.29,857.26,45.77,42.0,-1.0,,,,,,,,,,-0.0185665,-1.92524,1147.48,22.6561,11841.0,-0.3293,-1.0,16.0,-1230.0,95.0,,0.0,,2023-02-28 15:53:55.814730+00:00
2023-02-28 08:53:56.145545-07:00,118.470106,0.76,0.44,-0.54,-0.3,8.14,857.24,46.2,31.0,-1.0,,,,,,,,,,,,,,,,,,,,,,,2023-02-28 15:53:56.145545+00:00
2023-02-28 08:53:56.234461-07:00,118.559022,0.64,0.39,-0.45,-0.24,8.47,857.25,45.22,34.0,-1.0,,,,,,,,,,,,,,,,,,,,,,,2023-02-28 15:53:56.234461+00:00
2023-02-28 08:53:56.444929-07:00,118.76949,0.84,0.36,-0.65,-0.38,8.11,857.23,46.29,43.0,-1.0,,,,,,,,,,,,,,,,,,,,,,,2023-02-28 15:53:56.444929+00:00
2023-02-28 08:53:56.654438-07:00,118.978999,0.88,0.5,-0.66,-0.3,8.12,857.25,46.2,32.0,-1.0,,,,,,,,,,,,,,,,,,,,,,,2023-02-28 15:53:56.654438+00:00
2023-02-28 08:53:56.864364-07:00,119.188925,0.81,0.38,-0.63,-0.33,8.08,857.24,46.4,32.0,-1.0,,,,,,,,,,-0.0160663,-1.59267,1144.24,22.6645,11785.0,-0.293156,-1.0,12.0,-1222.0,95.0,,0.0,,2023-02-28 15:53:56.864364+00:00
2023-02-28 08:53:57.069909-07:00,119.39447,0.95,0.34,-0.79,-0.41,8.04,857.25,46.5,43.0,-1.0,,,,,,,,,,,,,,,,,,,,,,,2023-02-28 15:53:57.069909+00:00
2023-02-28 08:53:57.269750-07:00,119.594311,0.79,0.36,-0.59,-0.38,8.31,857.24,45.61,32.0,-1.0,,,,,,,,,,,,,,,,,,,,,,,2023-02-28 15:53:57.269750+00:00
2023-02-28 08:53:57.470019-07:00,119.79458,0.81,0.45,-0.59,-0.32,8.54,857.24,44.91,31.0,-1.0,,,,,,,,,,,,,,,,,,,,,,,2023-02-28 15:53:57.470019+00:00
2023-02-28 08:53:57.669148-07:00,119.993709,0.62,0.42,-0.42,-0.17,8.81,857.24,44.21,43.0,-1.0,,,,,,,,,,,,,,,,,,,,,,,2023-02-28 15:53:57.669148+00:00
2023-02-28 08:53:57.871267-07:00,120.195828,0.58,0.32,-0.46,-0.15,8.76,857.25,44.36,34.0,-1.0,,,,,,,,,,-0.0126698,-2.08886,1185.05,22.6679,11785.0,-0.246726,-1.0,12.0,-1222.0,95.0,,0.0,,2023-02-28 15:53:57.871267+00:00
2023-02-28 08:53:58.069580-07:00,120.394141,0.62,0.35,-0.51,-0.08,8.98,857.25,43.64,31.0,-1.0,,,,,,,,,,,,,,,,,,,,,,,2023-02-28 15:53:58.069580+00:00
2023-02-28 08:53:58.269531-07:00,120.594092,0.59,0.22,-0.5,-0.2,8.89,857.25,43.97,42.0,-1.0,,,,,,,,,,,,,,,,,,,,,,,2023-02-28 15:53:58.269531+00:00
2023-02-28 08:53:58.469450-07:00,120.794011,0.62,0.36,-0.48,-0.13,8.73,857.25,44.38,35.0,-1.0,,,,,,,,,,,,,,,,,,,,,,,2023-02-28 15:53:58.469450+00:00
2023-02-28 08:53:58.669535-07:00,120.994096,0.83,0.27,-0.72,-0.3,8.55,857.24,44.93,31.0,-1.0,,,,,,,,,,,,,,,,,,,,,,,2023-02-28 15:53:58.669535+00:00
2023-02-28 08:53:58.870666-07:00,121.195227,0.83,0.4,-0.67,-0.29,8.65,857.26,44.58,42.0,-1.0,,,,,,,,,,-0.0171249,-2.28991,1177.67,22.6781,11803.0,-0.182565,-1.0,15.0,-1201.0,95.0,,0.0,,2023-02-28 15:53:58.870666+00:00
2023-02-28 08:53:59.069552-07:00,121.394113,0.91,0.39,-0.74,-0.37,8.32,857.26,45.64,37.0,-1.0,,,,,,,,,,,,,,,,,,,,,,,2023-02-28 15:53:59.069552+00:00
2023-02-28 08:53:59.270011-07:00,121.594572,1.1,0.37,-0.91,-0.49,7.92,857.25,46.83,30.0,-1.0,,,,,,,,,,,,,,,,,,,,,,,2023-02-28 15:53:59.270011+00:00
2023-02-28 08:53:59.469817-07:00,121.794378,1.07,0.23,-0.9,-0.53,7.81,857.24,47.06,39.0,-1.0,,,,,,,,,,,,,,,,,,,,,,,2023-02-28 15:53:59.469817+00:00
2023-02-28 08:53:59.669395-07:00,121.993956,0.85,0.11,-0.74,-0.41,7.83,857.24,47.06,39.0,-1.0,,,,,,,,,,,,,,,,,,,,,,,2023-02-28 15:53:59.669395+00:00
2023-02-28 08:53:59.870515-07:00,122.195076,0.8,0.22,-0.67,-0.38,8.06,857.24,46.38,30.0,-1.0,,,,,,,,,,-0.00749854,-2.33673,1182.42,22.6871,11835.0,-0.2142,-1.0,15.0,-1181.0,95.0,,0.0,,2023-02-28 15:53:59.870515+00:00
2023-02-28 08:54:00.069739-07:00,122.3943,0.68,0.38,-0.53,-0.21,8.15,857.25,46.16,37.0,-1.0,,,,,,,,,,,,,,,,,,,,,,,2023-02-28 15:54:00.069739+00:00
2023-02-28 08:54:00.269781-07:00,122.594342,0.82,0.4,-0.66,-0.28,8.14,857.25,46.18,40.0,-1.0,,,,,,,,,,,,,,,,,,,,,,,2023-02-28 15:54:00.269781+00:00
2023-02-28 08:54:00.469310-07:00,122.793871,0.52,0.39,-0.32,-0.15,8.73,857.25,44.32,30.0,-1.0,,,,,,,,,,,,,,,,,,,,,,,2023-02-28 15:54:00.469310+00:00
2023-02-28 08:54:00.669537-07:00,122.994098,0.46,0.39,-0.24,-0.04,8.89,857.25,43.86,35.0,-1.0,,,,,,,,,,,,,,,,,,,,,,,2023-02-28 15:54:00.669537+00:00
2023-02-28 08:54:00.870921-07:00,123.195482,0.61,0.44,-0.36,-0.23,8.81,857.25,44.04,42.0,-1.0,,,,,,,,,,-0.0172557,-2.57736,1174.32,22.6967,11839.0,-0.284998,-1.0,14.0,-1201.0,95.0,,0.0,,2023-02-28 15:54:00.870921+00:00
2023-02-28 08:54:01.069754-07:00,123.394315,0.6,0.33,-0.45,-0.23,8.87,857.24,43.87,31.0,-1.0,,,,,,,,,,,,,,,,,,,,,,,2023-02-28 15:54:01.069754+00:00
2023-02-28 08:54:01.269705-07:00,123.594266,0.7,0.26,-0.59,-0.28,8.62,857.25,44.59,33.0,-1.0,,,,,,,,,,,,,,,,,,,,,,,2023-02-28 15:54:01.269705+00:00
2023-02-28 08:54:01.469248-07:00,123.793809,0.64,0.23,-0.5,-0.34,8.45,857.25,45.23,42.0,-1.0,,,,,,,,,,,,,,,,,,,,,,,2023-02-28 15:54:01.469248+00:00
2023-02-28 08:54:01.669336-07:00,123.993897,0.66,0.13,-0.51,-0.39,8.2,857.25,45.96,32.0,-1.0,,,,,,,,,,,,,,,,,,,,,,,2023-02-28 15:54:01.669336+00:00
2023-02-28 08:54:01.871213-07:00,124.195774,0.8,0.18,-0.64,-0.44,8.02,857.25,46.53,31.0,-1.0,,,,,,,,,,-0.0193546,-1.71409,1173.94,22.7061,11775.0,-0.264269,-1.0,14.0,-1209.0,95.0,,0.0,,2023-02-28 15:54:01.871213+00:00
2023-02-28 08:54:02.069177-07:00,124.393738,0.92,0.36,-0.72,-0.46,8.17,857.25,46.04,43.0,-1.0,,,,,,,,,,,,,,,,,,,,,,,2023-02-28 15:54:02.069177+00:00
2023-02-28 08:54:02.269210-07:00,124.593771,1.0,0.63,-0.71,-0.32,8.17,857.25,46.03,33.0,-1.0,,,,,,,,,,,,,,,,,,,,,,,2023-02-28 15:54:02.269210+00:00
2023-02-28 08:54:02.470022-07:00,124.794583,0.78,0.34,-0.57,-0.41,8.33,857.25,45.55,31.0,-1.0,,,,,,,,,,,,,,,,,,,,,,,2023-02-28 15:54:02.470022+00:00
2023-02-28 08:54:02.669484-07:00,124.994045,0.76,0.44,-0.56,-0.24,8.47,857.25,44.98,43.0,-1.0,,,,,,,,,,,,,,,,,,,,,,,2023-02-28 15:54:02.669484+00:00
2023-02-28 08:54:02.870616-07:00,125.195177,0.75,0.34,-0.61,-0.29,8.24,857.25,45.72,34.0,-1.0,,,,,,,,,,-0.0174451,-1.96538,1173.6,22.7152,11826.0,-0.253366,-1.0,18.0,-1181.0,95.0,,0.0,,2023-02-28 15:54:02.870616+00:00
2023-02-28 08:54:03.069409-07:00,125.39397,0.77,0.49,-0.56,-0.2,8.19,857.25,45.99,31.0,-1.0,,,,,,,,,,,,,,,,,,,,,,,2023-02-28 15:54:03.069409+00:00
2023-02-28 08:54:03.269143-07:00,125.593704,0.66,0.41,-0.48,-0.21,8.38,857.24,45.35,41.0,-1.0,,,,,,,,,,,,,,,,,,,,,,,2023-02-28 15:54:03.269143+00:00
2023-02-28 08:54:03.469296-07:00,125.793857,0.49,0.14,-0.35,-0.31,8.52,857.25,44.97,35.0,-1.0,,,,,,,,,,,,,,,,,,,,,,,2023-02-28 15:54:03.469296+00:00
2023-02-28 08:54:03.669685-07:00,125.994246,0.47,0.18,-0.29,-0.32,8.65,857.23,44.57,30.0,-1.0,,,,,,,,,,,,,,,,,,,,,,,2023-02-28 15:54:03.669685+00:00
2023-02-28 08:54:03.871222-07:00,126.195783,0.4,0.16,-0.24,-0.28,8.51,857.24,44.93,39.0,-1.0,,,,,,,,,,-0.0138605,-2.23132,1176.48,22.7244,11854.0,-0.263563,-1.0,17.0,-1189.0,95.0,,0.0,,2023-02-28 15:54:03.871222+00:00
2023-02-28 08:54:04.070034-07:00,126.394595,0.55,0.17,-0.34,-0.39,8.44,857.25,45.15,38.0,-1.0,,,,,,,,,,,,,,,,,,,,,,,2023-02-28 15:54:04.070034+00:00
2023-02-28 08:54:04.269252-07:00,126.593813,0.79,0.69,-0.39,-0.09,8.44,857.24,45.15,30.0,-1.0,,,,,,,,,,,,,,,,,,,,,,,2023-02-28 15:54:04.269252+00:00
2023-02-28 08:54:04.469620-07:00,126.794181,0.78,0.68,-0.37,-0.11,8.59,857.24,44.69,37.0,-1.0,,,,,,,,,,,,,,,,,,,,,,,2023-02-28 15:54:04.469620+00:00
2023-02-28 08:54:04.669379-07:00,126.99394,0.65,0.54,-0.34,-0.14,8.88,857.25,43.76,40.0,-1.0,,,,,,,,,,,,,,,,,,,,,,,2023-02-28 15:54:04.669379+00:00
2023-02-28 08:54:04.870790-07:00,127.195351,0.87,0.79,-0.35,-0.12,8.84,857.25,43.87,30.0,-1.0,,,,,,,,,,-0.0147255,-2.13972,1178.13,22.7329,11783.0,-0.269606,-1.0,14.0,-1187.0,95.0,,0.0,,2023-02-28 15:54:04.870790+00:00
2023-02-28 08:54:05.069465-07:00,127.394026,0.75,0.61,-0.36,-0.25,8.72,857.25,44.35,35.0,-1.0,,,,,,,,,,,,,,,,,,,,,,,2023-02-28 15:54:05.069465+00:00
2023-02-28 08:54:05.269603-07:00,127.594164,0.84,0.6,-0.52,-0.29,8.44,857.24,45.14,42.0,-1.0,,,,,,,,,,,,,,,,,,,,,,,2023-02-28 15:54:05.269603+00:00
2023-02-28 08:54:05.469141-07:00,127.793702,0.96,0.69,-0.62,-0.28,8.54,857.25,44.77,31.0,-1.0,,,,,,,,,,,,,,,,,,,,,,,2023-02-28 15:54:05.469141+00:00
2023-02-28 08:54:05.669728-07:00,127.994289,0.69,0.45,-0.39,-0.35,8.32,857.26,45.44,34.0,-1.0,,,,,,,,,,,,,,,,,,,,,,,2023-02-28 15:54:05.669728+00:00
2023-02-28 08:54:05.870879-07:00,128.19544,0.9,0.73,-0.46,-0.24,8.27,857.24,45.61,43.0,-1.0,,,,,,,,,,-0.0144347,-2.23296,1172.17,22.742,11822.0,-0.286735,-1.0,17.0,-1195.0,95.0,,0.0,,2023-02-28 15:54:05.870879+00:00
2023-02-28 08:54:06.069406-07:00,128.393967,0.87,0.71,-0.43,-0.27,8.19,857.25,45.98,33.0,-1.0,,,,,,,,,,,,,,,,,,,,,,,2023-02-28 15:54:06.069406+00:00
2023-02-28 08:54:06.269472-07:00,128.594033,0.81,0.63,-0.48,-0.19,8.34,857.25,45.47,32.0,-1.0,,,,,,,,,,,,,,,,,,,,,,,2023-02-28 15:54:06.269472+00:00
2023-02-28 08:54:06.469588-07:00,128.794149,0.61,0.44,-0.35,-0.23,8.6,857.24,44.6,43.0,-1.0,,,,,,,,,,,,,,,,,,,,,,,2023-02-28 15:54:06.469588+00:00
2023-02-28 08:54:06.669153-07:00,128.993714,0.85,0.7,-0.48,-0.06,8.49,857.24,45.06,33.0,-1.0,,,,,,,,,,,,,,,,,,,,,,,2023-02-28 15:54:06.669153+00:00
2023-02-28 08:54:06.871141-07:00,129.195702,0.78,0.63,-0.44,-0.08,8.4,857.25,45.16,30.0,-1.0,,,,,,,,,,-0.00180369,-2.1191,1180.46,22.7515,11822.0,-0.277361,-1.0,17.0,-1195.0,95.0,,0.0,,2023-02-28 15:54:06.871141+00:00
2023-02-28 08:54:07.069202-07:00,129.393763,0.87,0.7,-0.51,-0.1,8.3,857.25,45.57,41.0,-1.0,,,,,,,,,,,,,,,,,,,,,,,2023-02-28 15:54:07.069202+00:00
2023-02-28 08:54:07.269864-07:00,129.594425,0.81,0.68,-0.43,-0.04,8.55,857.24,44.81,35.0,-1.0,,,,,,,,,,,,,,,,,,,,,,,2023-02-28 15:54:07.269864+00:00
2023-02-28 08:54:07.469481-07:00,129.794042,0.83,0.65,-0.52,-0.06,8.45,857.25,45.07,30.0,-1.0,,,,,,,,,,,,,,,,,,,,,,,2023-02-28 15:54:07.469481+00:00
2023-02-28 08:54:07.669625-07:00,129.994186,0.75,0.59,-0.46,-0.06,8.41,857.25,45.13,40.0,-1.0,,,,,,,,,,,,,,,,,,,,,,,2023-02-28 15:54:07.669625+00:00
2023-02-28 08:54:07.870773-07:00,130.195334,0.73,0.57,-0.44,-0.08,8.54,857.26,44.73,37.0,-1.0,,,,,,,,,,-0.0028693,-2.95366,1177.41,22.7606,11844.0,-0.252412,-1.0,20.0,-1197.0,95.0,,0.0,,2023-02-28 15:54:07.870773+00:00
2023-02-28 08:54:08.070031-07:00,130.394592,0.78,0.61,-0.49,-0.06,8.46,857.25,44.97,29.0,-1.0,,,,,,,,,,,,,,,,,,,,,,,2023-02-28 15:54:08.070031+00:00
2023-02-28 08:54:08.269886-07:00,130.594447,1.04,0.85,-0.6,-0.07,8.26,857.24,45.64,39.0,-1.0,,,,,,,,,,,,,,,,,,,,,,,2023-02-28 15:54:08.269886+00:00
2023-02-28 08:54:08.469141-07:00,130.793702,0.81,0.46,-0.59,-0.3,8.31,857.25,45.6,38.0,-1.0,,,,,,,,,,,,,,,,,,,,,,,2023-02-28 15:54:08.469141+00:00
2023-02-28 08:54:08.669454-07:00,130.994015,0.73,0.39,-0.54,-0.28,8.44,857.25,45.16,30.0,-1.0,,,,,,,,,,,,,,,,,,,,,,,2023-02-28 15:54:08.669454+00:00
2023-02-28 08:54:08.870447-07:00,131.195008,0.85,0.49,-0.63,-0.28,8.4,857.25,45.26,37.0,-1.0,,,,,,,,,,-0.0195011,-2.92481,1172.72,22.7693,11804.0,-0.253899,-1.0,14.0,-1213.0,95.0,,0.0,,2023-02-28 15:54:08.870447+00:00
2023-02-28 08:54:09.069654-07:00,131.394215,0.71,0.13,-0.58,-0.38,8.41,857.25,45.25,40.0,-1.0,,,,,,,,,,,,,,,,,,,,,,,2023-02-28 15:54:09.069654+00:00
2023-02-28 08:54:09.269234-07:00,131.593795,0.8,0.44,-0.61,-0.26,8.46,857.24,45.02,30.0,-1.0,,,,,,,,,,,,,,,,,,,,,,,2023-02-28 15:54:09.269234+00:00
2023-02-28 08:54:09.469368-07:00,131.793929,0.75,0.23,-0.65,-0.31,8.1,857.25,46.13,37.0,-1.0,,,,,,,,,,,,,,,,,,,,,,,2023-02-28 15:54:09.469368+00:00
2023-02-28 08:54:09.669434-07:00,131.993995,0.8,0.22,-0.67,-0.37,8.02,857.25,46.47,42.0,-1.0,,,,,,,,,,,,,,,,,,,,,,,2023-02-28 15:54:09.669434+00:00
2023-02-28 08:54:09.870552-07:00,132.195113,0.81,0.53,-0.57,-0.23,8.35,857.25,45.37,31.0,-1.0,,,,,,,,,,0.651092,-3.21281,1319.33,22.7788,11779.0,-0.293506,-1.0,16.0,-1204.0,95.0,,0.0,,2023-02-28 15:54:09.870552+00:00
2023-02-28 08:54:10.069245-07:00,132.393806,1.02,0.78,-0.66,-0.09,8.29,857.25,45.62,34.0,-1.0,,,,,,,,,,,,,,,,,,,,,,,2023-02-28 15:54:10.069245+00:00
2023-02-28 08:54:10.269818-07:00,132.594379,0.92,0.7,-0.58,-0.15,8.32,857.24,45.45,42.0,-1.0,,,,,,,,,,,,,,,,,,,,,,,2023-02-28 15:54:10.269818+00:00
2023-02-28 08:54:10.469417-07:00,132.793978,0.96,0.75,-0.59,-0.09,8.41,857.24,45.25,32.0,-1.0,,,,,,,,,,,,,,,,,,,,,,,2023-02-28 15:54:10.469417+00:00
2023-02-28 08:54:10.669260-07:00,132.993821,0.89,0.69,-0.55,-0.09,8.46,857.26,45.09,32.0,-1.0,,,,,,,,,,,,,,,,,,,,,,,2023-02-28 15:54:10.669260+00:00
2023-02-28 08:54:10.871246-07:00,133.195807,0.85,0.66,-0.54,-0.06,8.38,857.25,45.25,42.0,-1.0,,,,,,,,,,0.655844,-3.15303,1316.97,22.7875,11837.0,-0.317248,-1.0,18.0,-1177.0,95.0,,0.0,,2023-02-28 15:54:10.871246+00:00
2023-02-28 08:54:11.069673-07:00,133.394234,0.85,0.7,-0.48,0.02,8.42,857.25,45.16,32.0,-1.0,,,,,,,,,,,,,,,,,,,,,,,2023-02-28 15:54:11.069673+00:00
2023-02-28 08:54:11.269997-07:00,133.594558,0.7,0.47,-0.51,-0.12,8.45,857.23,45.12,31.0,-1.0,,,,,,,,,,,,,,,,,,,,,,,2023-02-28 15:54:11.269997+00:00
2023-02-28 08:54:11.469582-07:00,133.794143,0.88,0.72,-0.5,0.05,8.3,857.23,45.45,42.0,-1.0,,,,,,,,,,,,,,,,,,,,,,,2023-02-28 15:54:11.469582+00:00
2023-02-28 08:54:11.669179-07:00,133.99374,0.97,0.82,-0.51,0.08,8.32,857.24,45.41,34.0,-1.0,,,,,,,,,,,,,,,,,,,,,,,2023-02-28 15:54:11.669179+00:00
2023-02-28 08:54:11.870531-07:00,134.195092,0.98,0.8,-0.56,0.07,8.3,857.24,45.42,30.0,-1.0,,,,,,,,,,0.658921,-3.16087,1315.55,22.7967,11792.0,-0.330728,-1.0,14.0,-1236.0,95.0,,0.0,,2023-02-28 15:54:11.870531+00:00
2023-02-28 08:54:12.069625-07:00,134.394186,0.97,0.8,-0.53,0.09,8.25,857.25,45.67,40.0,-1.0,,,,,,,,,,,,,,,,,,,,,,,2023-02-28 15:54:12.069625+00:00
2023-02-28 08:54:12.269535-07:00,134.594096,0.94,0.78,-0.53,0.06,8.32,857.24,45.54,36.0,-1.0,,,,,,,,,,,,,,,,,,,,,,,2023-02-28 15:54:12.269535+00:00
2023-02-28 08:54:12.469918-07:00,134.794479,0.78,0.58,-0.51,-0.02,8.6,857.26,44.49,29.0,-1.0,,,,,,,,,,,,,,,,,,,,,,,2023-02-28 15:54:12.469918+00:00
2023-02-28 08:54:12.669418-07:00,134.993979,0.57,0.42,-0.34,-0.2,8.7,857.24,44.2,40.0,-1.0,,,,,,,,,,,,,,,,,,,,,,,2023-02-28 15:54:12.669418+00:00
2023-02-28 08:54:12.871223-07:00,135.195784,0.61,0.49,-0.33,-0.15,8.53,857.23,44.77,38.0,-1.0,,,,,,,,,,0.820305,-3.36285,1550.57,22.8058,11793.0,-0.36039,-1.0,14.0,-1197.0,95.0,,0.0,,2023-02-28 15:54:12.871223+00:00
2023-02-28 08:54:13.069841-07:00,135.394402,0.53,0.32,-0.35,-0.24,8.66,857.24,44.38,30.0,-1.0,,,,,,,,,,,,,,,,,,,,,,,2023-02-28 15:54:13.069841+00:00
2023-02-28 08:54:13.269636-07:00,135.594197,0.49,0.26,-0.34,-0.25,8.75,857.24,44.16,38.0,-1.0,,,,,,,,,,,,,,,,,,,,,,,2023-02-28 15:54:13.269636+00:00
2023-02-28 08:54:13.469321-07:00,135.793882,0.63,0.55,-0.31,-0.02,8.5,857.24,44.96,39.0,-1.0,,,,,,,,,,,,,,,,,,,,,,,2023-02-28 15:54:13.469321+00:00
2023-02-28 08:54:13.669501-07:00,135.994062,0.45,0.29,-0.3,-0.15,8.36,857.25,45.33,30.0,-1.0,,,,,,,,,,,,,,,,,,,,,,,2023-02-28 15:54:13.669501+00:00
2023-02-28 08:54:13.870733-07:00,136.195294,0.59,0.51,-0.26,-0.11,8.36,857.24,45.21,36.0,-1.0,,,,,,,,,,-0.00573593,-4.59888,1066.11,22.81,11822.0,-0.282847,-1.0,15.0,-1218.0,95.0,,0.0,,2023-02-28 15:54:13.870733+00:00
2023-02-28 08:54:14.069503-07:00,136.394064,0.59,0.51,-0.29,0.03,8.56,857.24,44.73,40.0,-1.0,,,,,,,,,,,,,,,,,,,,,,,2023-02-28 15:54:14.069503+00:00
2023-02-28 08:54:14.269428-07:00,136.593989,0.5,0.49,-0.06,0.07,8.89,857.25,43.73,30.0,-1.0,,,,,,,,,,,,,,,,,,,,,,,2023-02-28 15:54:14.269428+00:00
2023-02-28 08:54:14.469061-07:00,136.793622,0.52,0.46,-0.23,0.08,9.17,857.25,42.9,35.0,-1.0,,,,,,,,,,,,,,,,,,,,,,,2023-02-28 15:54:14.469061+00:00
2023-02-28 08:54:14.669710-07:00,136.994271,0.54,0.48,-0.24,0.07,9.32,857.24,42.44,42.0,-1.0,,,,,,,,,,,,,,,,,,,,,,,2023-02-28 15:54:14.669710+00:00
2023-02-28 08:54:14.870923-07:00,137.195484,0.51,0.43,-0.25,0.11,9.05,857.25,43.25,31.0,-1.0,,,,,,,,,,-0.000375729,-4.27753,1165.92,22.818,11830.0,-0.227294,-1.0,14.0,-1234.0,95.0,,0.0,,2023-02-28 15:54:14.870923+00:00
2023-02-28 08:54:15.069852-07:00,137.394413,0.38,0.31,-0.21,0.06,9.24,857.23,42.72,33.0,-1.0,,,,,,,,,,,,,,,,,,,,,,,2023-02-28 15:54:15.069852+00:00
2023-02-28 08:54:15.269910-07:00,137.594471,0.53,0.45,-0.27,0.06,8.77,857.24,44.1,43.0,-1.0,,,,,,,,,,,,,,,,,,,,,,,2023-02-28 15:54:15.269910+00:00
2023-02-28 08:54:15.469270-07:00,137.793831,0.53,0.44,-0.3,0.03,8.64,857.25,44.42,32.0,-1.0,,,,,,,,,,,,,,,,,,,,,,,2023-02-28 15:54:15.469270+00:00
2023-02-28 08:54:15.669236-07:00,137.993797,0.57,0.46,-0.33,0.01,8.52,857.24,44.8,32.0,-1.0,,,,,,,,,,,,,,,,,,,,,,,2023-02-28 15:54:15.669236+00:00
2023-02-28 08:54:15.870246-07:00,138.194807,0.52,0.41,-0.32,-0.04,8.85,857.24,43.8,43.0,-1.0,,,,,,,,,,0.657831,-3.53797,1315.58,22.8266,11775.0,-0.259833,-1.0,14.0,-1215.0,95.0,,0.0,,2023-02-28 15:54:15.870246+00:00
2023-02-28 08:54:16.069800-07:00,138.394361,0.55,0.41,-0.36,-0.05,8.74,857.23,44.23,33.0,-1.0,,,,,,,,,,,,,,,,,,,,,,,2023-02-28 15:54:16.069800+00:00
2023-02-28 08:54:16.269788-07:00,138.594349,0.51,0.48,-0.16,0.02,8.59,857.25,44.52,32.0,-1.0,,,,,,,,,,,,,,,,,,,,,,,2023-02-28 15:54:16.269788+00:00
2023-02-28 08:54:16.469452-07:00,138.794013,0.48,0.37,-0.31,-0.03,8.78,857.24,44.0,42.0,-1.0,,,,,,,,,,,,,,,,,,,,,,,2023-02-28 15:54:16.469452+00:00
2023-02-28 08:54:16.669389-07:00,138.99395,0.48,0.36,-0.31,-0.04,8.83,857.24,43.85,33.0,-1.0,,,,,,,,,,,,,,,,,,,,,,,2023-02-28 15:54:16.669389+00:00
2023-02-28 08:54:16.870383-07:00,139.194944,0.42,0.34,-0.25,-0.02,8.89,857.24,43.73,30.0,-1.0,,,,,,,,,,0.00507151,-3.40937,1170.98,22.8366,11775.0,-0.245443,-1.0,14.0,-1215.0,95.0,,0.0,,2023-02-28 15:54:16.870383+00:00
2023-02-28 08:54:17.069947-07:00,139.394508,0.42,0.31,-0.28,-0.04,8.93,857.23,43.52,42.0,-1.0,,,,,,,,,,,,,,,,,,,,,,,2023-02-28 15:54:17.069947+00:00
2023-02-28 08:54:17.269239-07:00,139.5938,0.45,0.37,-0.25,-0.0,8.93,857.24,43.5,34.0,-1.0,,,,,,,,,,,,,,,,,,,,,,,2023-02-28 15:54:17.269239+00:00
2023-02-28 08:54:17.469676-07:00,139.794237,0.43,0.36,-0.21,0.07,8.9,857.25,43.66,30.0,-1.0,,,,,,,,,,,,,,,,,,,,,,,2023-02-28 15:54:17.469676+00:00
2023-02-28 08:54:17.669871-07:00,139.994432,0.44,0.38,-0.23,0.0,8.88,857.25,43.7,41.0,-1.0,,,,,,,,,,,,,,,,,,,,,,,2023-02-28 15:54:17.669871+00:00
2023-02-28 08:54:17.870466-07:00,140.195027,0.47,0.43,-0.17,0.05,9.18,857.24,43.69,35.0,-1.0,,,,,,,,,,0.829461,-3.75882,1558.6,22.8458,11813.0,-0.318627,-1.0,16.0,-1189.0,95.0,,0.0,,2023-02-28 15:54:17.870466+00:00
