Timestamp,Seconds,S,Um,Vm,Wm,T,P,H,MD,Sts,Vx,Vy,Vz,Lat,Lon,Alt,Yaw,Roll,Pitch,CH4,C2H6,H20,T_a,Batt,R,C2C1,Power,Current,SOC,Lat_a,Lon_a,TS,Timestamp_UTC
2023-06-29 09:48:45.772165-07:00,0.0,2.88,1.12,-2.61,0.51,24.27,859.7,60.42,28.0,0.0,-0.000271187,0.000567685,0.00141333,33.9942729,-106.894667,1431.81616,-13.1476358,-0.189071095,-3.6183593,,,,,,,,,,,,,,2023-06-29 16:48:45.772165+00:00
2023-06-29 09:48:45.981412-07:00,0.209247,2.54,0.75,-2.31,0.74,24.66,859.7,59.08,36.0,0.0,-0.0003464,0.000515972,0.000918439,33.9942729,-106.894667,1431.81348,-13.136187,-0.189225736,-3.61202108,,,,,,,,,,,,,,2023-06-29 16:48:45.981412+00:00
2023-06-29 09:48:46.191949-07:00,0.419784,2.23,0.66,-1.99,0.76,24.68,859.7,58.97,35.0,0.0,0.000185788,0.000243464,0.000703572,33.9942728,-106.894667,1431.81775,-13.1251864,-0.197272907,-3.614771,1.89186,-6.4087,14297.4,30.8208,11744.0,0.852826,0.312007,18.0,-1253.0,89.0,,0.0,,2023-06-29 16:48:46.191949+00:00
2023-06-29 09:48:46.401675-07:00,0.62951,1.92,0.57,-1.74,0.58,24.81,859.69,58.55,28.0,0.0,-0.000438385,0.000628379,0.000962955,33.9942728,-106.894667,1431.81604,-13.11648,-0.198238603,-3.61927167,,,,,,,,,,,,,,2023-06-29 16:48:46.401675+00:00
2023-06-29 09:48:46.612134-07:00,0.839969,1.91,0.25,-1.79,0.61,24.86,859.69,58.39,28.0,0.0,-0.000627325,-0.000410227,0.000228141,33.9942728,-106.894667,1431.81177,-13.1076325,-0.199779586,-3.61048551,,,,,,,,,,,,,,2023-06-29 16:48:46.612134+00:00
2023-06-29 09:48:46.821632-07:00,1.049467,2.07,0.45,-1.95,0.53,24.85,859.69,58.43,35.0,0.0,-0.000371731,0.000229555,0.000270945,33.9942728,-106.894667,1431.8136,-13.1022812,-0.202971948,-3.62050356,,,,,,,,,,,,,,2023-06-29 16:48:46.821632+00:00
2023-06-29 09:48:47.027711-07:00,1.255546,1.81,0.19,-1.7,0.58,24.81,859.69,58.57,36.0,0.0,-0.000294174,-0.000113,0.00146581,33.9942728,-106.894667,1431.81897,-13.091105,-0.205884284,-3.61424275,,,,,,,,,,,,,,2023-06-29 16:48:47.027711+00:00
2023-06-29 09:48:47.227433-07:00,1.455268,1.64,0.31,-1.47,0.65,24.84,859.69,58.42,29.0,0.0,-0.000308847,0.000247216,0.00154948,33.9942728,-106.894667,1431.8186,-13.0836284,-0.202544958,-3.62342846,1.8954,-6.48044,14292.0,30.8295,11761.0,0.87555,0.306974,15.0,-1240.0,89.0,,0.0,,2023-06-29 16:48:47.227433+00:00
2023-06-29 09:48:47.427675-07:00,1.65551,1.6,0.21,-1.52,0.47,25.03,859.7,57.79,27.0,0.0,-0.0008798,-0.000395187,0.00112784,33.9942728,-106.894667,1431.81885,-13.0781578,-0.203906483,-3.6136653,,,,,,,,,,,,,,2023-06-29 16:48:47.427675+00:00
2023-06-29 09:48:47.628214-07:00,1.856049,1.8,0.19,-1.72,0.49,25.32,859.69,56.82,32.0,0.0,-0.000733306,0.000549357,0.00151905,33.9942728,-106.894667,1431.8219,-13.0645466,-0.204359706,-3.62124441,,,,,,,,,,,,,,2023-06-29 16:48:47.628214+00:00
2023-06-29 09:48:47.827666-07:00,2.055501,1.78,0.15,-1.69,0.54,25.45,859.69,56.43,37.0,0.0,-0.00106363,0.000649894,0.00159261,33.9942728,-106.894667,1431.81848,-13.0548429,-0.19985383,-3.61872417,,,,,,,,,,,,,,2023-06-29 16:48:47.827666+00:00
2023-06-29 09:48:48.028290-07:00,2.256125,1.98,0.02,-1.91,0.53,25.39,859.69,56.64,31.0,0.0,-0.000601848,5.70198e-06,0.00122123,33.9942728,-106.894667,1431.82007,-13.0452412,-0.199021078,-3.62069562,,,,,,,,,,,,,,2023-06-29 16:48:48.028290+00:00
2023-06-29 09:48:48.228587-07:00,2.456422,2.48,-0.93,-2.24,0.52,25.68,859.69,55.67,27.0,0.0,-0.000402848,0.00108241,0.00148476,33.9942729,-106.894667,1431.82043,-13.0409794,-0.19632981,-3.63037116,1.89486,-7.16124,14257.7,30.8385,11802.0,0.872813,0.297526,12.0,-1283.0,89.0,,0.0,,2023-06-29 16:48:48.228587+00:00
2023-06-29 09:48:48.427934-07:00,2.655769,2.51,-1.7,-1.76,0.55,25.87,859.7,55.04,31.0,0.0,-8.17969e-05,-0.000641497,0.000724476,33.9942728,-106.894667,1431.82007,-13.0327823,-0.197357359,-3.62234328,,,,,,,,,,,,,,2023-06-29 16:48:48.427934+00:00
2023-06-29 09:48:48.627484-07:00,2.855319,2.21,-1.39,-1.62,0.58,25.99,859.69,54.59,37.0,0.0,-0.000667681,9.16825e-05,4.5551e-05,33.9942727,-106.894667,1431.8175,-13.022256,-0.193417241,-3.62582168,,,,,,,,,,,,,,2023-06-29 16:48:48.627484+00:00
2023-06-29 09:48:48.827459-07:00,3.055294,1.57,-0.53,-1.38,0.53,26.61,859.7,52.68,32.0,0.0,7.84202e-05,-0.000572359,-0.000889565,33.9942726,-106.894667,1431.81775,-13.0116468,-0.193982368,-3.62104936,,,,,,,,,,,,,,2023-06-29 16:48:48.827459+00:00
2023-06-29 09:48:49.028305-07:00,3.25614,1.6,-0.86,-1.32,0.29,25.92,859.7,54.88,27.0,0.0,0.000217937,-0.000148413,0.000290828,33.9942725,-106.894667,1431.82312,-13.0004457,-0.196685524,-3.62237878,,,,,,,,,,,,,,2023-06-29 16:48:49.028305+00:00
2023-06-29 09:48:49.228527-07:00,3.456362,1.73,-0.74,-1.46,0.56,25.39,859.7,55.83,28.0,0.0,0.000186686,-4.46781e-05,0.000412589,33.9942725,-106.894667,1431.82751,-12.9915355,-0.192638165,-3.62255116,1.894,-6.01714,14275.7,30.8474,11740.0,0.872879,0.306022,13.0,-1257.0,89.0,,0.0,,2023-06-29 16:48:49.228527+00:00
2023-06-29 09:48:49.427564-07:00,3.655399,1.86,-0.61,-1.67,0.54,25.48,859.69,55.59,36.0,0.0,5.94606e-05,0.000165323,-0.000262423,33.9942724,-106.894667,1431.82202,-12.9812324,-0.194887761,-3.61703716,,,,,,,,,,,,,,2023-06-29 16:48:49.427564+00:00
2023-06-29 09:48:49.627882-07:00,3.855717,2.33,-0.55,-2.24,0.34,24.97,859.71,57.2,34.0,0.0,0.000360826,0.000379031,-0.0015859,33.9942723,-106.894667,1431.81396,-12.9709719,-0.191882371,-3.62348407,,,,,,,,,,,,,,2023-06-29 16:48:49.627882+00:00
2023-06-29 09:48:49.828056-07:00,4.055891,2.2,-0.04,-2.17,0.39,24.33,859.71,59.44,28.0,0.0,0.000284763,0.000525235,-0.00300888,33.9942723,-106.894667,1431.80811,-12.961278,-0.190516519,-3.61668556,,,,,,,,,,,,,,2023-06-29 16:48:49.828056+00:00
2023-06-29 09:48:50.027518-07:00,4.255353,2.31,-0.19,-2.3,0.23,23.94,859.7,60.94,27.0,0.0,3.61179e-05,0.000745758,-0.00267195,33.9942723,-106.894667,1431.80286,-12.950225,-0.188948336,-3.62343231,,,,,,,,,,,,,,2023-06-29 16:48:50.027518+00:00
2023-06-29 09:48:50.228278-07:00,4.456113,2.25,0.01,-2.24,0.21,23.72,859.71,61.65,34.0,0.0,-3.69867e-05,0.000685759,-0.00228799,33.9942723,-106.894667,1431.79932,-12.9390296,-0.188382966,-3.61975801,1.89263,-5.4695,14322.5,30.8566,11768.0,0.874496,0.350994,14.0,-1233.0,89.0,,0.0,,2023-06-29 16:48:50.228278+00:00
2023-06-29 09:48:50.428113-07:00,4.655948,2.33,-0.01,-2.33,0.16,23.73,859.71,62.52,36.0,0.0,0.000214251,-0.000319391,-0.00138483,33.9942723,-106.894667,1431.80164,-12.9348685,-0.191986252,-3.62790051,,,,,,,,,,,,,,2023-06-29 16:48:50.428113+00:00
2023-06-29 09:48:50.627487-07:00,4.855322,2.16,0.04,-2.15,0.2,23.77,859.71,61.59,29.0,0.0,-0.00088705,0.000677764,-0.00116583,33.9942722,-106.894667,1431.80249,-12.9274934,-0.191918357,-3.62276204,,,,,,,,,,,,,,2023-06-29 16:48:50.627487+00:00
2023-06-29 09:48:50.827774-07:00,5.055609,0.99,0.95,0.06,0.27,24.15,859.7,59.34,27.0,0.0,4.53575e-06,-0.00092723,-0.000634644,33.9942722,-106.894667,1431.80383,-12.9181433,-0.190883485,-3.63299838,,,,,,,,,,,,,,2023-06-29 16:48:50.827774+00:00
2023-06-29 09:48:51.027876-07:00,5.255711,0.42,0.25,-0.04,0.33,24.46,859.7,59.04,33.0,0.0,-0.000329477,0.000928752,-0.000794332,33.9942721,-106.894667,1431.79907,-12.9125441,-0.191033382,-3.64056653,,,,,,,,,,,,,,2023-06-29 16:48:51.027876+00:00
2023-06-29 09:48:51.228341-07:00,5.456176,0.56,0.14,0.05,0.54,24.43,859.7,58.35,37.0,0.0,0.000308863,-0.00121546,-0.000700392,33.9942721,-106.894667,1431.80542,-12.9094087,-0.192183151,-3.62431945,1.89343,-5.4257,14332.3,30.8655,11807.0,0.864069,0.366745,15.0,-1267.0,89.0,,0.0,,2023-06-29 16:48:51.228341+00:00
2023-06-29 09:48:51.427777-07:00,5.655612,0.64,-0.4,-0.35,0.36,24.54,859.7,58.06,30.0,0.0,-0.000278585,0.00072256,0.000795685,33.994272,-106.894667,1431.80713,-12.9040465,-0.188972438,-3.6437661,,,,,,,,,,,,,,2023-06-29 16:48:51.427777+00:00
2023-06-29 09:48:51.628261-07:00,5.856096,1.09,-0.15,-1.07,0.16,24.25,859.69,58.99,26.0,0.0,-8.88707e-05,-0.00143855,0.00014139,33.9942719,-106.894667,1431.80579,-12.8996551,-0.192128252,-3.62188046,,,,,,,,,,,,,,2023-06-29 16:48:51.628261+00:00
2023-06-29 09:48:51.827966-07:00,6.055801,0.99,-0.59,-0.72,0.33,24.38,859.69,58.6,30.0,0.0,-0.000399908,0.000109916,-0.000919184,33.9942719,-106.894667,1431.80347,-12.8863451,-0.188860952,-3.64444495,,,,,,,,,,,,,,2023-06-29 16:48:51.827966+00:00
2023-06-29 09:48:52.028260-07:00,6.256095,1.83,-0.01,-1.8,0.34,23.96,859.71,60.17,37.0,0.0,0.000206858,-0.00108296,-0.00123407,33.9942719,-106.894667,1431.80029,-12.8748424,-0.192522074,-3.63055296,,,,,,,,,,,,,,2023-06-29 16:48:52.028260+00:00
2023-06-29 09:48:52.228692-07:00,6.456527,2.25,0.25,-2.2,0.38,23.76,859.7,60.74,32.0,0.0,0.000736933,0.000790524,-0.00304173,33.9942719,-106.894667,1431.79224,-12.8628239,-0.194783088,-3.64914937,1.89343,-5.78159,14285.2,30.8742,11807.0,0.857009,0.372343,15.0,-1267.0,89.0,,0.0,,2023-06-29 16:48:52.228692+00:00
2023-06-29 09:48:52.427359-07:00,6.655194,2.59,-0.12,-2.57,0.25,23.78,859.72,60.67,27.0,0.0,8.52566e-05,-0.00118123,-0.00299881,33.9942718,-106.894667,1431.78809,-12.8557651,-0.193492367,-3.63769719,,,,,,,,,,,,,,2023-06-29 16:48:52.427359+00:00
2023-06-29 09:48:52.627727-07:00,6.855562,2.15,0.99,-1.84,0.48,23.82,859.71,60.61,29.0,0.0,-0.000406752,-0.000176672,-0.00109985,33.9942717,-106.894667,1431.78687,-12.8462534,-0.192260242,-3.64559132,,,,,,,,,,,,,,2023-06-29 16:48:52.627727+00:00
2023-06-29 09:48:52.827930-07:00,7.055765,2.26,0.81,-2.06,0.47,24.0,859.71,60.67,36.0,0.0,0.000686069,-0.00127789,0.000453964,33.9942716,-106.894667,1431.78955,-12.839625,-0.195368925,-3.64713294,,,,,,,,,,,,,,2023-06-29 16:48:52.827930+00:00
2023-06-29 09:48:53.027596-07:00,7.255431,2.17,0.19,-2.1,0.51,24.71,859.7,58.15,35.0,0.0,-0.00022798,0.00128664,0.000398921,33.9942716,-106.894667,1431.78662,-12.8285556,-0.195687998,-3.64633604,,,,,,,,,,,,,,2023-06-29 16:48:53.027596+00:00
2023-06-29 09:48:53.228885-07:00,7.45672,2.71,-0.55,-2.65,0.2,24.57,859.71,57.86,28.0,0.0,0.00042491,-0.000642814,-0.000304461,33.9942716,-106.894667,1431.7887,-12.8242144,-0.193972333,-3.63786315,1.8958,-3.95324,14315.6,30.8835,11794.0,0.858812,0.410175,16.0,-1274.0,89.0,,0.0,,2023-06-29 16:48:53.228885+00:00
2023-06-29 09:48:53.427517-07:00,7.655352,2.57,-0.8,-2.43,0.3,24.64,859.71,57.63,27.0,0.0,0.00172192,0.00141074,0.00157254,33.9942716,-106.894667,1431.79041,-12.816445,-0.195103093,-3.64107213,,,,,,,,,,,,,,2023-06-29 16:48:53.427517+00:00
2023-06-29 09:48:53.627655-07:00,7.85549,2.74,-0.59,-2.67,0.21,24.28,859.7,59.03,34.0,0.0,0.00124177,-9.32548e-05,0.00177463,33.9942717,-106.894667,1431.7887,-12.8071329,-0.198991728,-3.63599218,,,,,,,,,,,,,,2023-06-29 16:48:53.627655+00:00
2023-06-29 09:48:53.828293-07:00,8.056128,2.69,-0.29,-2.67,0.14,24.09,859.72,59.55,37.0,0.0,0.00171479,0.00139643,0.000102349,33.9942717,-106.894667,1431.78247,-12.7973646,-0.202261525,-3.63426536,,,,,,,,,,,,,,2023-06-29 16:48:53.828293+00:00
2023-06-29 09:48:54.027817-07:00,8.255652,2.44,-0.59,-2.36,0.2,23.92,859.71,60.16,30.0,0.0,0.00123576,0.00253257,-0.00261529,33.9942717,-106.894667,1431.77942,-12.7837084,-0.20184165,-3.63085494,,,,,,,,,,,,,,2023-06-29 16:48:54.027817+00:00
2023-06-29 09:48:54.228368-07:00,8.456203,2.3,-0.28,-2.28,0.11,23.89,859.71,60.42,27.0,0.0,5.96882e-05,0.00252342,0.000318115,33.9942718,-106.894667,1431.78735,-12.7775438,-0.203777039,-3.63093322,1.89646,-4.17265,14286.3,30.8923,11740.0,0.866038,0.428766,15.0,-1262.0,89.0,,0.0,,2023-06-29 16:48:54.228368+00:00
2023-06-29 09:48:54.427930-07:00,8.655765,2.32,-0.5,-2.27,0.1,24.04,859.71,59.82,31.0,0.0,0.000996944,-0.000125451,-2.80491e-05,33.9942719,-106.894667,1431.79102,-12.7678537,-0.206101781,-3.61860739,,,,,,,,,,,,,,2023-06-29 16:48:54.427930+00:00
2023-06-29 09:48:54.628138-07:00,8.855973,2.34,-0.37,-2.31,0.1,23.93,859.7,60.15,37.0,0.0,-0.000696526,0.00129027,0.000709264,33.994272,-106.894667,1431.78259,-12.7563857,-0.204074845,-3.62426085,,,,,,,,,,,,,,2023-06-29 16:48:54.628138+00:00
2023-06-29 09:48:54.827795-07:00,9.05563,2.18,-0.47,-2.12,0.11,24.0,859.71,60.0,32.0,0.0,-0.000517257,-0.000312626,-7.18254e-05,33.994272,-106.894667,1431.77905,-12.7471623,-0.205082178,-3.61643234,,,,,,,,,,,,,,2023-06-29 16:48:54.827795+00:00
2023-06-29 09:48:55.027576-07:00,9.255411,2.26,-0.56,-2.18,0.15,23.91,859.7,60.28,27.0,0.0,-0.0011269,0.00114181,-0.000277249,33.9942719,-106.894667,1431.77112,-12.7351861,-0.206674284,-3.62435837,,,,,,,,,,,,,,2023-06-29 16:48:55.027576+00:00
2023-06-29 09:48:55.228658-07:00,9.456493,2.21,-0.65,-2.1,0.22,23.9,859.7,60.25,30.0,0.0,-0.000303367,-0.000708943,0.000101572,33.9942719,-106.894667,1431.77075,-12.7310617,-0.210852761,-3.61703075,1.89409,-4.38523,14236.9,30.9015,11795.0,0.853182,0.435754,14.0,-1245.0,89.0,,0.0,,2023-06-29 16:48:55.228658+00:00
2023-06-29 09:48:55.427595-07:00,9.65543,2.39,-0.64,-2.3,0.17,23.91,859.71,60.21,38.0,0.0,-0.000973898,9.08441e-05,-0.000358092,33.9942719,-106.894667,1431.76416,-12.7226785,-0.209335945,-3.62108743,,,,,,,,,,,,,,2023-06-29 16:48:55.427595+00:00
2023-06-29 09:48:55.627581-07:00,9.855416,2.41,-0.96,-2.2,0.25,23.91,859.71,60.29,33.0,0.0,-0.000746934,-0.000114245,-0.000767516,33.994272,-106.894667,1431.75891,-12.7187542,-0.204928884,-3.62025291,,,,,,,,,,,,,,2023-06-29 16:48:55.627581+00:00
2023-06-29 09:48:55.828124-07:00,10.055959,2.27,-0.81,-2.1,0.26,23.94,859.71,60.22,27.0,0.0,-0.000490674,0.00061127,-0.00166214,33.994272,-106.894667,1431.75159,-12.7108631,-0.205206758,-3.61562349,,,,,,,,,,,,,,2023-06-29 16:48:55.828124+00:00
2023-06-29 09:48:56.028127-07:00,10.255962,2.18,-0.76,-2.04,0.19,23.88,859.72,60.39,29.0,0.0,-0.000515165,0.000168787,-0.00119924,33.994272,-106.894667,1431.74866,-12.7038907,-0.203619038,-3.62456625,,,,,,,,,,,,,,2023-06-29 16:48:56.028127+00:00
2023-06-29 09:48:56.228485-07:00,10.45632,2.02,-0.74,-1.86,0.26,23.98,859.71,60.09,36.0,0.0,-0.00103355,0.000465981,-0.000633009,33.994272,-106.894667,1431.74817,-12.6950662,-0.200668541,-3.61522141,1.89484,-3.8812,14208.2,30.9098,11808.0,0.840257,0.451731,14.0,-1264.0,89.0,,0.0,,2023-06-29 16:48:56.228485+00:00
2023-06-29 09:48:56.427522-07:00,10.655357,2.17,-0.74,-2.04,0.14,23.85,859.71,60.55,34.0,0.0,-0.00074987,0.000441512,0.000238069,33.994272,-106.894667,1431.74817,-12.6879588,-0.199760404,-3.62584649,,,,,,,,,,,,,,2023-06-29 16:48:56.427522+00:00
2023-06-29 09:48:56.627435-07:00,10.85527,2.11,-0.77,-1.96,0.2,23.84,859.7,60.58,28.0,0.0,-0.00035541,0.000943591,-0.000376258,33.994272,-106.894667,1431.74609,-12.6792339,-0.200862978,-3.61435011,,,,,,,,,,,,,,2023-06-29 16:48:56.627435+00:00
2023-06-29 09:48:56.827900-07:00,11.055735,2.06,-0.79,-1.89,0.21,23.88,859.71,60.46,27.0,0.0,-0.000650157,-0.000478849,-0.000241859,33.9942719,-106.894667,1431.74707,-12.6708238,-0.199398366,-3.62641838,,,,,,,,,,,,,,2023-06-29 16:48:56.827900+00:00
2023-06-29 09:48:57.028095-07:00,11.25593,2.2,-0.86,-2.0,0.3,24.04,859.71,59.85,34.0,0.0,-0.000794564,0.000279691,-0.000706411,33.9942719,-106.894667,1431.74609,-12.6638499,-0.194863464,-3.61902016,,,,,,,,,,,,,,2023-06-29 16:48:57.028095+00:00
2023-06-29 09:48:57.229059-07:00,11.456894,1.9,-0.63,-1.77,0.24,24.19,859.69,59.28,36.0,0.0,-0.000220266,0.000308377,-0.000595467,33.9942718,-106.894667,1431.74561,-12.6499976,-0.200899969,-3.62101514,1.89193,-3.17782,14180.7,30.9191,11737.0,0.778368,0.454821,17.0,-1247.0,89.0,,0.0,,2023-06-29 16:48:57.229059+00:00
2023-06-29 09:48:57.428334-07:00,11.656169,2.57,-0.61,-2.49,0.25,24.21,859.7,59.26,30.0,0.0,-0.000575279,0.00105848,-0.00114734,33.9942718,-106.894667,1431.73694,-12.641993,-0.201961915,-3.6285139,,,,,,,,,,,,,,2023-06-29 16:48:57.428334+00:00
2023-06-29 09:48:57.627998-07:00,11.855833,2.97,-0.65,-2.89,0.1,23.99,859.7,60.13,27.0,0.0,-0.000769041,0.000628962,-0.00161524,33.9942717,-106.894667,1431.73584,-12.6408939,-0.203908646,-3.62802541,,,,,,,,,,,,,,2023-06-29 16:48:57.627998+00:00
2023-06-29 09:48:57.827716-07:00,12.055551,2.67,-0.83,-2.53,0.18,24.36,859.7,58.75,32.0,0.0,-0.000525632,0.00071881,-0.000636289,33.9942717,-106.894667,1431.73889,-12.632837,-0.203917446,-3.63343725,,,,,,,,,,,,,,2023-06-29 16:48:57.827716+00:00
2023-06-29 09:48:58.027397-07:00,12.255232,2.45,-1.08,-2.18,0.27,24.55,859.7,58.02,37.0,0.0,4.85483e-05,0.000271087,0.000707057,33.9942716,-106.894667,1431.74207,-12.6253006,-0.201417515,-3.62435794,,,,,,,,,,,,,,2023-06-29 16:48:58.027397+00:00
2023-06-29 09:48:58.228720-07:00,12.456555,2.57,-1.13,-2.31,0.18,24.49,859.7,58.27,32.0,0.0,-0.000339103,-6.41207e-05,0.000214731,33.9942716,-106.894667,1431.73828,-12.6176773,-0.198932347,-3.62696931,1.89441,-3.15379,14160.9,30.9275,11786.0,0.765544,0.515232,15.0,-1270.0,89.0,,0.0,,2023-06-29 16:48:58.228720+00:00
2023-06-29 09:48:58.428059-07:00,12.655894,2.51,-1.12,-2.24,0.09,24.61,859.7,56.89,27.0,0.0,-0.000261411,0.000481423,-0.000377326,33.9942716,-106.894667,1431.7384,-12.6121075,-0.196431684,-3.62903361,,,,,,,,,,,,,,2023-06-29 16:48:58.428059+00:00
2023-06-29 09:48:58.628249-07:00,12.856084,2.59,-1.72,-1.92,0.22,24.82,859.7,57.14,30.0,0.0,-6.8198e-05,-0.000169157,-0.000397246,33.9942715,-106.894667,1431.73828,-12.603145,-0.199134626,-3.63142812,,,,,,,,,,,,,,2023-06-29 16:48:58.628249+00:00
2023-06-29 09:48:58.827454-07:00,13.055289,2.53,-1.26,-2.19,0.06,24.22,859.71,58.32,37.0,0.0,-0.000796078,0.000971345,-0.00125331,33.9942715,-106.894667,1431.73218,-12.5961066,-0.197994099,-3.63096445,,,,,,,,,,,,,,2023-06-29 16:48:58.827454+00:00
2023-06-29 09:48:59.028006-07:00,13.255841,2.29,-1.02,-2.05,-0.04,24.0,859.69,59.22,33.0,0.0,-0.000454439,-0.000346684,-0.00204077,33.9942715,-106.894667,1431.72925,-12.5876925,-0.197330172,-3.63143283,,,,,,,,,,,,,,2023-06-29 16:48:59.028006+00:00
2023-06-29 09:48:59.228911-07:00,13.456746,2.12,-1.07,-1.83,0.01,24.17,859.72,58.54,27.0,0.0,-0.000724444,0.000596893,-9.42391e-06,33.9942714,-106.894667,1431.73364,-12.5798939,-0.196280666,-3.63655766,1.89352,-3.35887,14157.7,30.9369,11772.0,0.738275,0.529021,19.0,-1285.0,89.0,,0.0,,2023-06-29 16:48:59.228911+00:00
2023-06-29 09:48:59.427845-07:00,13.65568,1.77,-0.74,-1.6,-0.14,24.07,859.69,58.92,28.0,0.0,-0.000219334,-0.000449557,0.000444854,33.9942714,-106.894667,1431.73193,-12.5710978,-0.19428104,-3.62751982,,,,,,,,,,,,,,2023-06-29 16:48:59.427845+00:00
2023-06-29 09:48:59.627724-07:00,13.855559,2.02,-0.95,-1.78,0.07,24.08,859.7,58.83,36.0,0.0,-0.00024504,2.47948e-05,-0.000349445,33.9942713,-106.894667,1431.73413,-12.5617139,-0.195798307,-3.63596823,,,,,,,,,,,,,,2023-06-29 16:48:59.627724+00:00
2023-06-29 09:48:59.828281-07:00,14.056116,1.74,-0.75,-1.56,-0.05,24.08,859.7,58.89,35.0,0.0,-0.000187077,0.000155124,0.000610135,33.9942713,-106.894667,1431.73669,-12.5552837,-0.193708351,-3.62924106,,,,,,,,,,,,,,2023-06-29 16:48:59.828281+00:00
2023-06-29 09:49:00.027493-07:00,14.255328,1.62,-0.66,-1.48,-0.11,24.09,859.7,58.88,29.0,0.0,-5.94574e-05,0.000210101,3.61982e-05,33.9942712,-106.894667,1431.73682,-12.5459109,-0.192815547,-3.62903959,,,,,,,,,,,,,,2023-06-29 16:49:00.027493+00:00
2023-06-29 09:49:00.228311-07:00,14.456146,1.48,-0.69,-1.31,-0.09,24.18,859.7,58.58,28.0,0.0,-0.00027732,9.2864e-05,0.000121277,33.9942712,-106.894667,1431.72937,-12.5375013,-0.19202593,-3.63182379,1.89181,-2.09903,14178.7,30.9458,11741.0,0.649206,-1.0,16.0,-1268.0,89.0,,0.0,,2023-06-29 16:49:00.228311+00:00
2023-06-29 09:49:00.427707-07:00,14.655542,1.73,-0.81,-1.52,-0.09,24.18,859.7,58.63,35.0,0.0,0.000294434,0.000102832,-0.000407061,33.9942713,-106.894667,1431.72729,-12.5275614,-0.19262631,-3.63310874,,,,,,,,,,,,,,2023-06-29 16:49:00.427707+00:00
2023-06-29 09:49:00.627874-07:00,14.855709,1.97,-0.81,-1.76,0.32,24.52,859.7,57.39,37.0,0.0,5.38596e-05,0.000302169,5.43394e-05,33.9942712,-106.894667,1431.72412,-12.5204765,-0.191934106,-3.63912801,,,,,,,,,,,,,,2023-06-29 16:49:00.627874+00:00
2023-06-29 09:49:00.828069-07:00,15.055904,2.3,-0.96,-2.07,0.24,24.25,859.7,58.35,29.0,0.0,-0.000235609,0.000246831,1.85159e-05,33.9942712,-106.894667,1431.72412,-12.5142297,-0.191900066,-3.63032112,,,,,,,,,,,,,,2023-06-29 16:49:00.828069+00:00
2023-06-29 09:49:01.027917-07:00,15.255752,2.38,-0.82,-2.23,0.22,24.06,859.7,59.06,27.0,0.0,-0.000272083,-0.00010148,0.000446963,33.9942712,-106.894667,1431.72729,-12.5076757,-0.199064396,-3.64143101,,,,,,,,,,,,,,2023-06-29 16:49:01.027917+00:00
2023-06-29 09:49:01.228600-07:00,15.456435,2.24,-0.94,-2.02,0.21,24.21,859.69,58.41,31.0,0.0,-0.000143588,-9.73051e-05,-0.000329314,33.9942711,-106.894667,1431.7229,-12.5032816,-0.201314151,-3.63103802,1.89348,-2.61147,14193.2,30.9465,11754.0,0.669386,-1.0,14.0,-1253.0,89.0,,0.0,,2023-06-29 16:49:01.228600+00:00
2023-06-29 09:49:01.427647-07:00,15.655482,2.14,-0.87,-1.95,0.19,24.29,859.71,58.19,38.0,0.0,-0.000123476,-0.000567494,-0.000561004,33.9942711,-106.894667,1431.72522,-12.4929136,-0.203511373,-3.63710903,,,,,,,,,,,,,,2023-06-29 16:49:01.427647+00:00
2023-06-29 09:49:01.627478-07:00,15.855313,1.69,-0.88,-1.44,0.09,24.27,859.7,58.15,32.0,0.0,-0.00077984,-0.000123688,-0.000657509,33.994271,-106.894667,1431.72607,-12.4857521,-0.203346027,-3.62977275,,,,,,,,,,,,,,2023-06-29 16:49:01.627478+00:00
2023-06-29 09:49:01.828275-07:00,16.05611,2.1,-1.34,-1.61,0.03,24.29,859.69,58.18,27.0,0.0,-0.000245465,-0.000986983,-0.000316396,33.994271,-106.894667,1431.72742,-12.4768984,-0.203204173,-3.63638058,,,,,,,,,,,,,,2023-06-29 16:49:01.828275+00:00
2023-06-29 09:49:02.027689-07:00,16.255524,2.25,-0.92,-2.05,0.17,24.27,859.69,58.26,29.0,0.0,-0.000482359,0.000418621,-0.000562344,33.9942709,-106.894667,1431.72839,-12.4673631,-0.19890008,-3.63324348,,,,,,,,,,,,,,2023-06-29 16:49:02.027689+00:00
2023-06-29 09:49:02.228652-07:00,16.456487,2.14,-1.09,-1.84,0.09,24.17,859.7,58.62,36.0,0.0,2.64293e-05,-0.000216505,-0.000767772,33.9942709,-106.894667,1431.72998,-12.4560229,-0.199345048,-3.63407373,1.89412,-2.02013,14173.5,30.9535,11754.0,0.646087,-1.0,14.0,-1253.0,89.0,,0.0,,2023-06-29 16:49:02.228652+00:00
2023-06-29 09:49:02.427986-07:00,16.655821,1.98,-0.96,-1.73,0.14,24.19,859.69,58.54,34.0,0.0,-0.000437826,0.000622557,5.08221e-05,33.9942708,-106.894667,1431.72974,-12.4502993,-0.195583475,-3.63599004,,,,,,,,,,,,,,2023-06-29 16:49:02.427986+00:00
2023-06-29 09:49:02.627745-07:00,16.85558,2.02,-0.71,-1.87,0.27,24.62,859.7,57.07,28.0,0.0,-0.000451859,-1.85399e-05,-5.17297e-05,33.9942708,-106.894667,1431.72998,-12.4419427,-0.190254452,-3.62761991,,,,,,,,,,,,,,2023-06-29 16:49:02.627745+00:00
2023-06-29 09:49:02.828058-07:00,17.055893,2.12,-0.59,-2.01,0.31,24.66,859.7,57.04,28.0,0.0,-0.000147652,0.000522036,-0.00055981,33.9942708,-106.894667,1431.72815,-12.4324172,-0.188803988,-3.63334143,,,,,,,,,,,,,,2023-06-29 16:49:02.828058+00:00
2023-06-29 09:49:03.027790-07:00,17.255625,1.71,-0.6,-1.57,0.3,24.72,859.7,56.59,35.0,0.0,3.9611e-05,5.17835e-06,-0.000894307,33.9942708,-106.894667,1431.72559,-12.4238793,-0.193007502,-3.62043855,,,,,,,,,,,,,,2023-06-29 16:49:03.027790+00:00
2023-06-29 09:49:03.228308-07:00,17.456143,1.63,-0.48,-1.52,0.36,24.74,859.7,56.58,35.0,0.0,-0.000293178,0.00010872,-0.000465917,33.9942707,-106.894667,1431.7251,-12.4142838,-0.194981471,-3.62735899,1.89286,-2.02391,14184.0,30.9621,11793.0,0.591205,-1.0,15.0,-1276.0,89.0,,0.0,,2023-06-29 16:49:03.228308+00:00
2023-06-29 09:49:03.427497-07:00,17.655332,1.57,-0.5,-1.44,0.36,24.75,859.69,56.56,28.0,0.0,-0.000355062,0.000255211,0.000182528,33.9942707,-106.894667,1431.73022,-12.4116123,-0.195529246,-3.6312844,,,,,,,,,,,,,,2023-06-29 16:49:03.427497+00:00
2023-06-29 09:49:03.627685-07:00,17.85552,1.63,-0.47,-1.52,0.36,24.65,859.7,56.95,27.0,0.0,-0.000788799,-0.000187455,-0.000834321,33.9942707,-106.894667,1431.72937,-12.4031327,-0.198379193,-3.63446298,,,,,,,,,,,,,,2023-06-29 16:49:03.627685+00:00
2023-06-29 09:49:03.827342-07:00,18.055177,1.87,-0.48,-1.8,0.23,24.36,859.7,57.88,33.0,0.0,-0.000464261,-7.84612e-05,-0.00133996,33.9942706,-106.894667,1431.72778,-12.3961798,-0.195915208,-3.64052504,,,,,,,,,,,,,,2023-06-29 16:49:03.827342+00:00
2023-06-29 09:49:04.027519-07:00,18.255354,1.97,-0.38,-1.93,0.19,24.17,859.7,58.54,37.0,0.0,-0.000198268,0.000520825,-0.00181181,33.9942706,-106.894667,1431.72607,-12.3884078,-0.195302168,-3.62873547,,,,,,,,,,,,,,2023-06-29 16:49:04.027519+00:00
2023-06-29 09:49:04.228771-07:00,18.456606,1.97,-0.59,-1.87,0.19,24.12,859.71,58.83,30.0,0.0,-0.000237816,-0.000561917,-0.00191316,33.9942705,-106.894667,1431.72559,-12.3847865,-0.193672075,-3.64168039,1.89402,-2.25845,14170.3,30.9714,11783.0,0.55337,-1.0,17.0,-1314.0,89.0,,0.0,,2023-06-29 16:49:04.228771+00:00
2023-06-29 09:49:04.428310-07:00,18.656145,2.03,-0.61,-1.92,0.22,24.05,859.7,59.03,26.0,0.0,0.000150805,-0.000297453,-0.000762183,33.9942705,-106.894667,1431.72974,-12.376728,-0.192350042,-3.62643036,,,,,,,,,,,,,,2023-06-29 16:49:04.428310+00:00
2023-06-29 09:49:04.627727-07:00,18.855562,2.1,-0.73,-1.96,0.15,24.08,859.71,58.99,30.0,0.0,7.59801e-05,-0.000346707,-0.000629454,33.9942704,-106.894667,1431.72998,-12.3659102,-0.191557869,-3.64003398,,,,,,,,,,,,,,2023-06-29 16:49:04.627727+00:00
2023-06-29 09:49:04.828137-07:00,19.055972,2.06,-0.82,-1.88,0.19,24.09,859.7,58.9,38.0,0.0,1.82397e-05,0.000393205,-0.000900689,33.9942704,-106.894667,1431.72839,-12.3603773,-0.195470094,-3.63121126,,,,,,,,,,,,,,2023-06-29 16:49:04.828137+00:00
2023-06-29 09:49:05.028030-07:00,19.255865,2.1,-0.7,-1.97,0.26,24.18,859.71,58.51,32.0,0.0,-0.000282737,0.000291758,-0.00151225,33.9942704,-106.894667,1431.72327,-12.3516652,-0.196315294,-3.63905572,,,,,,,,,,,,,,2023-06-29 16:49:05.028030+00:00
2023-06-29 09:49:05.228599-07:00,19.456434,2.1,-0.7,-1.95,0.31,24.42,859.71,57.73,27.0,0.0,-0.00055616,0.000276321,-0.00184302,33.9942703,-106.894667,1431.72449,-12.3493371,-0.193262942,-3.63550027,1.89037,-1.26668,14178.5,30.9802,11760.0,0.379063,-1.0,13.0,-1252.0,89.0,,0.0,,2023-06-29 16:49:05.228599+00:00
2023-06-29 09:49:05.427459-07:00,19.655294,2.32,-0.65,-2.21,0.26,24.78,859.7,56.51,29.0,0.0,-4.91578e-05,-0.000557933,-0.00145689,33.9942703,-106.894667,1431.72534,-12.3395519,-0.195936563,-3.64352314,,,,,,,,,,,,,,2023-06-29 16:49:05.427459+00:00
2023-06-29 09:49:05.627633-07:00,19.855468,2.33,-0.46,-2.27,0.17,24.67,859.71,56.94,36.0,0.0,-0.000141127,0.000160578,-0.000730811,33.9942702,-106.894667,1431.72668,-12.3351771,-0.194073761,-3.63973883,,,,,,,,,,,,,,2023-06-29 16:49:05.627633+00:00
2023-06-29 09:49:05.828323-07:00,20.056158,2.67,-0.46,-2.63,0.1,24.54,859.71,57.33,34.0,0.0,0.000397313,-0.000342064,-0.00108976,33.9942702,-106.894667,1431.72778,-12.3270569,-0.193793718,-3.64145069,,,,,,,,,,,,,,2023-06-29 16:49:05.828323+00:00
2023-06-29 09:49:06.028181-07:00,20.256016,2.44,-0.3,-2.41,0.29,24.63,859.69,57.02,28.0,0.0,-0.000166636,0.00056855,0.000245567,33.9942703,-106.894667,1431.73169,-12.3216268,-0.194479256,-3.64495226,,,,,,,,,,,,,,2023-06-29 16:49:06.028181+00:00
2023-06-29 09:49:06.228404-07:00,20.456239,2.0,-0.8,-1.77,0.45,24.84,859.7,56.32,28.0,0.0,-0.000242383,-0.000107941,0.000125683,33.9942703,-106.894667,1431.7301,-12.3163298,-0.193680342,-3.64326606,1.89126,-1.19974,14173.9,30.9889,11796.0,0.297648,-1.0,15.0,-1272.0,89.0,,0.0,,2023-06-29 16:49:06.228404+00:00
2023-06-29 09:49:06.427545-07:00,20.65538,2.13,-0.75,-1.92,0.54,24.93,859.7,55.96,35.0,0.0,0.000265044,0.000353479,-0.00104044,33.9942703,-106.894667,1431.72693,-12.3077308,-0.189937425,-3.64324168,,,,,,,,,,,,,,2023-06-29 16:49:06.427545+00:00
2023-06-29 09:49:06.627620-07:00,20.855455,2.08,0.02,-2.04,0.39,24.54,859.71,57.39,36.0,0.0,0.000290977,8.60499e-05,-0.00169787,33.9942702,-106.894667,1431.72351,-12.3024061,-0.191125028,-3.64886107,,,,,,,,,,,,,,2023-06-29 16:49:06.627620+00:00
2023-06-29 09:49:06.827788-07:00,21.055623,2.71,-0.65,-2.62,0.22,24.31,859.69,58.18,29.0,0.0,4.02843e-05,4.87706e-05,-0.00272678,33.9942702,-106.894667,1431.71912,-12.2944179,-0.194813596,-3.63835849,,,,,,,,,,,,,,2023-06-29 16:49:06.827788+00:00
2023-06-29 09:49:07.027517-07:00,21.255352,2.7,-0.52,-2.65,0.11,24.09,859.7,58.97,27.0,0.0,4.02932e-05,0.000315318,-0.00127401,33.9942701,-106.894667,1431.72192,-12.2841064,-0.191312072,-3.64860142,,,,,,,,,,,,,,2023-06-29 16:49:07.027517+00:00
2023-06-29 09:49:07.228510-07:00,21.456345,2.73,-0.43,-2.69,0.11,24.24,859.7,58.3,33.0,0.0,0.000485603,0.000570616,-0.00331807,33.99427,-106.894667,1431.71594,-12.2731616,-0.188872517,-3.62876755,1.88976,-1.05658,14169.3,30.9981,11765.0,0.12028,-1.0,17.0,-1258.0,89.0,,0.0,,2023-06-29 16:49:07.228510+00:00
2023-06-29 09:49:07.428131-07:00,21.655966,2.71,-0.59,-2.63,0.17,24.75,859.7,56.55,38.0,0.0,0.000527137,0.000623658,-0.00322991,33.99427,-106.894667,1431.71533,-12.2670797,-0.191543626,-3.64716374,,,,,,,,,,,,,,2023-06-29 16:49:07.428131+00:00
2023-06-29 09:49:07.627379-07:00,21.855214,2.44,-0.05,-2.42,0.29,24.47,859.69,57.64,31.0,0.0,0.000236442,0.000552437,-0.00277741,33.9942699,-106.894667,1431.72021,-12.2627689,-0.192132899,-3.62727814,,,,,,,,,,,,,,2023-06-29 16:49:07.627379+00:00
2023-06-29 09:49:07.827484-07:00,22.055319,2.57,-0.04,-2.56,0.24,24.17,859.7,58.68,27.0,0.0,-4.40744e-05,0.000337481,-0.00203497,33.9942698,-106.894667,1431.72229,-12.2540373,-0.19183325,-3.64302781,,,,,,,,,,,,,,2023-06-29 16:49:07.827484+00:00
2023-06-29 09:49:08.028180-07:00,22.256015,2.39,-0.01,-2.38,0.17,24.16,859.7,58.53,30.0,0.0,0.000181648,0.000273716,-0.00279549,33.9942698,-106.894667,1431.71875,-12.2473498,-0.194950251,-3.63079078,,,,,,,,,,,,,,2023-06-29 16:49:08.028180+00:00
2023-06-29 09:49:08.228957-07:00,22.456792,2.57,-0.24,-2.55,0.14,24.48,859.7,57.54,38.0,0.0,7.3679e-05,6.16408e-05,-0.00251192,33.9942697,-106.894667,1431.72083,-12.2387777,-0.194888283,-3.63567265,1.88744,-0.900043,14183.1,31.0066,11731.0,-0.0419303,-1.0,15.0,-1243.0,89.0,,0.0,,2023-06-29 16:49:08.228957+00:00
2023-06-29 09:49:08.427528-07:00,22.655363,2.5,-0.35,-2.47,0.16,24.31,859.69,58.11,34.0,0.0,-7.75607e-05,-7.95695e-05,-0.00262697,33.9942697,-106.894667,1431.72266,-12.2333758,-0.192797838,-3.63094135,,,,,,,,,,,,,,2023-06-29 16:49:08.427528+00:00
2023-06-29 09:49:08.627980-07:00,22.855815,2.47,-0.53,-2.41,0.14,24.54,859.7,57.38,28.0,0.0,-8.20873e-05,0.000111382,-0.00204667,33.9942696,-106.894667,1431.7218,-12.224775,-0.192807779,-3.62986258,,,,,,,,,,,,,,2023-06-29 16:49:08.627980+00:00
2023-06-29 09:49:08.827988-07:00,23.055823,2.01,-0.76,-1.86,0.12,24.59,859.7,57.23,28.0,0.0,5.74991e-05,0.000253756,-0.00225154,33.9942696,-106.894667,1431.72327,-12.2173034,-0.191871461,-3.63076426,,,,,,,,,,,,,,2023-06-29 16:49:08.827988+00:00
2023-06-29 09:49:09.027858-07:00,23.255693,2.06,-1.08,-1.75,0.17,24.72,859.69,56.61,36.0,0.0,-0.000340688,0.000108452,-0.00261178,33.9942696,-106.894667,1431.72302,-12.2116334,-0.187040921,-3.62669898,,,,,,,,,,,,,,2023-06-29 16:49:09.027858+00:00
2023-06-29 09:49:09.229426-07:00,23.457261,2.07,-0.7,-1.93,0.32,24.68,859.7,56.78,37.0,0.0,2.50263e-05,0.000147034,-0.00292405,33.9942696,-106.894667,1431.72339,-12.2051967,-0.18576231,-3.63206461,1.88851,0.628672,14187.9,31.0156,11793.0,-0.22605,-1.0,14.0,-1258.0,89.0,,0.0,,2023-06-29 16:49:09.229426+00:00
2023-06-29 09:49:09.427565-07:00,23.6554,2.19,-0.87,-1.99,0.29,24.82,859.7,56.43,30.0,0.0,0.000347644,0.000672821,-0.00321947,33.9942696,-106.894667,1431.72327,-12.198309,-0.18508299,-3.63144609,,,,,,,,,,,,,,2023-06-29 16:49:09.427565+00:00
2023-06-29 09:49:09.628168-07:00,23.856003,2.28,-0.65,-2.17,0.22,24.55,859.69,57.36,28.0,0.0,0.000261669,-8.9146e-05,-0.00271457,33.9942696,-106.894667,1431.72168,-12.1884719,-0.185497415,-3.63952966,,,,,,,,,,,,,,2023-06-29 16:49:09.628168+00:00
2023-06-29 09:49:09.827930-07:00,24.055765,2.63,-0.73,-2.52,0.16,24.22,859.71,58.44,33.0,0.0,0.000285467,8.31641e-05,-0.00314301,33.9942696,-106.894667,1431.72241,-12.1809524,-0.185794764,-3.64083088,,,,,,,,,,,,,,2023-06-29 16:49:09.827930+00:00
2023-06-29 09:49:10.028271-07:00,24.256106,2.6,-0.56,-2.52,0.26,24.64,859.7,56.99,37.0,0.0,0.000947775,-4.37604e-05,-0.00309769,33.9942696,-106.894667,1431.72083,-12.1729488,-0.189928814,-3.64341278,,,,,,,,,,,,,,2023-06-29 16:49:10.028271+00:00
2023-06-29 09:49:10.228556-07:00,24.456391,2.32,-0.26,-2.3,0.22,24.3,859.71,58.14,31.0,0.0,0.000274263,0.000355217,-0.00285837,33.9942696,-106.894668,1431.71875,-12.1734158,-0.189059758,-3.63932263,1.88864,0.233335,14190.8,31.0245,11784.0,-0.409109,-1.0,16.0,-1269.0,89.0,,0.0,,2023-06-29 16:49:10.228556+00:00
2023-06-29 09:49:10.428048-07:00,24.655883,2.29,-0.08,-2.28,0.15,23.87,859.7,59.75,27.0,0.0,0.000775128,-0.000167306,-0.00330688,33.9942696,-106.894668,1431.71497,-12.1660135,-0.190505208,-3.63570431,,,,,,,,,,,,,,2023-06-29 16:49:10.428048+00:00
2023-06-29 09:49:10.628073-07:00,24.855908,2.3,-0.34,-2.27,0.09,24.04,859.7,59.14,30.0,0.0,-0.000294633,0.00103844,-0.00350522,33.9942696,-106.894668,1431.71423,-12.1614035,-0.19244933,-3.64329258,,,,,,,,,,,,,,2023-06-29 16:49:10.628073+00:00
2023-06-29 09:49:10.827524-07:00,25.055359,2.19,-0.26,-2.16,0.18,23.87,859.7,59.73,37.0,0.0,-0.000548677,0.000136298,-0.00191069,33.9942696,-106.894668,1431.71655,-12.1547405,-0.192527236,-3.63799105,,,,,,,,,,,,,,2023-06-29 16:49:10.827524+00:00
2023-06-29 09:49:11.028129-07:00,25.255964,2.25,-0.2,-2.24,0.13,24.13,859.7,58.81,34.0,0.0,-0.000211524,0.000279222,-0.00153677,33.9942696,-106.894668,1431.72009,-12.1492174,-0.196023473,-3.64457798,,,,,,,,,,,,,,2023-06-29 16:49:11.028129+00:00
2023-06-29 09:49:11.228687-07:00,25.456522,2.18,-0.45,-2.13,0.13,24.31,859.71,58.11,28.0,0.0,0.000248362,-0.000434529,-0.00105314,33.9942697,-106.894668,1431.71973,-12.144357,-0.197693831,-3.64165515,1.88626,0.363283,14209.8,31.0337,11737.0,-0.527879,-1.0,15.0,-1245.0,89.0,,0.0,,2023-06-29 16:49:11.228687+00:00
2023-06-29 09:49:11.428010-07:00,25.655845,2.14,-0.45,-2.08,0.15,23.97,859.71,59.33,28.0,0.0,0.000267216,8.76821e-05,-0.00179087,33.9942697,-106.894668,1431.72009,-12.137991,-0.196924993,-3.64115811,,,,,,,,,,,,,,2023-06-29 16:49:11.428010+00:00
2023-06-29 09:49:11.627897-07:00,25.855732,2.16,-0.57,-2.08,0.16,24.01,859.7,59.13,34.0,0.0,-0.00038533,-9.21401e-05,-0.002862,33.9942697,-106.894668,1431.71582,-12.1359603,-0.199395498,-3.6411688,,,,,,,,,,,,,,2023-06-29 16:49:11.627897+00:00
2023-06-29 09:49:11.828073-07:00,26.055908,2.27,-0.48,-2.21,0.12,23.95,859.71,59.44,36.0,0.0,-0.000198981,-0.000114484,-0.00181168,33.9942696,-106.894668,1431.71875,-12.1299836,-0.202237814,-3.63645672,,,,,,,,,,,,,,2023-06-29 16:49:11.828073+00:00
2023-06-29 09:49:12.027725-07:00,26.25556,2.04,-0.5,-1.97,0.16,24.39,859.71,57.91,29.0,0.0,-0.000442508,1.38985e-06,-0.000397881,33.9942697,-106.894668,1431.71997,-12.1234601,-0.19762185,-3.6419935,,,,,,,,,,,,,,2023-06-29 16:49:12.027725+00:00
2023-06-29 09:49:12.228937-07:00,26.456772,1.72,-0.58,-1.57,0.39,24.54,859.7,57.38,27.0,0.0,-0.000558697,0.000169792,0.0010759,33.9942697,-106.894668,1431.72437,-12.1154826,-0.197638393,-3.63143454,1.8857,0.593815,14199.1,31.0423,11737.0,-0.67066,-1.0,15.0,-1245.0,89.0,,0.0,,2023-06-29 16:49:12.228937+00:00
2023-06-29 09:49:12.427803-07:00,26.655638,1.78,-0.58,-1.66,0.26,23.95,859.7,59.38,32.0,0.0,-0.000195878,0.00068254,0.000647918,33.9942697,-106.894668,1431.72424,-12.110234,-0.197350859,-3.64225956,,,,,,,,,,,,,,2023-06-29 16:49:12.427803+00:00
2023-06-29 09:49:12.627599-07:00,26.855434,1.92,-0.56,-1.83,0.19,23.84,859.7,59.84,37.0,0.0,-0.00022689,-2.78693e-05,-0.000778731,33.9942697,-106.894668,1431.72412,-12.1030068,-0.194264835,-3.63134642,,,,,,,,,,,,,,2023-06-29 16:49:12.627599+00:00
2023-06-29 09:49:12.828189-07:00,27.056024,2.07,-0.5,-2.01,0.16,23.89,859.7,59.62,31.0,0.0,-9.73626e-05,8.2265e-05,-0.00152104,33.9942696,-106.894668,1431.72205,-12.0944379,-0.19390563,-3.6415726,,,,,,,,,,,,,,2023-06-29 16:49:12.828189+00:00
2023-06-29 09:49:13.028028-07:00,27.255863,2.06,-0.77,-1.89,0.23,24.43,859.69,57.78,27.0,0.0,-0.000298958,0.000243894,-0.00227521,33.9942696,-106.894667,1431.72375,-12.0892557,-0.196130216,-3.63856509,,,,,,,,,,,,,,2023-06-29 16:49:13.028028+00:00
2023-06-29 09:49:13.228721-07:00,27.456556,1.77,-0.61,-1.62,0.39,24.98,859.7,55.79,29.0,0.0,-0.000325416,-0.000375228,-0.00254344,33.9942696,-106.894667,1431.72205,-12.0798843,-0.196287142,-3.64403516,1.88618,1.40954,14185.8,31.0516,11799.0,-0.774171,-1.0,13.0,-1293.0,89.0,,0.0,,2023-06-29 16:49:13.228721+00:00
2023-06-29 09:49:13.427455-07:00,27.65529,1.94,-0.39,-1.86,0.37,24.73,859.69,56.68,37.0,0.0,-0.000320947,-0.000284434,-0.00381118,33.9942695,-106.894667,1431.71765,-12.0740942,-0.196823575,-3.64227454,,,,,,,,,,,,,,2023-06-29 16:49:13.427455+00:00
2023-06-29 09:49:13.628065-07:00,27.8559,1.76,-0.55,-1.62,0.43,24.8,859.7,56.44,34.0,0.0,0.000158131,-0.000277137,-0.00349402,33.9942695,-106.894667,1431.71899,-12.0685359,-0.198747215,-3.64478373,,,,,,,,,,,,,,2023-06-29 16:49:13.628065+00:00
2023-06-29 09:49:13.827698-07:00,28.055533,1.95,-0.67,-1.83,0.2,23.94,859.7,59.45,27.0,0.0,-4.35254e-05,-0.000100336,-0.00293773,33.9942695,-106.894667,1431.71973,-12.0645924,-0.195844762,-3.64951724,,,,,,,,,,,,,,2023-06-29 16:49:13.827698+00:00
2023-06-29 09:49:14.027636-07:00,28.255471,1.74,-0.53,-1.65,0.18,23.81,859.69,59.84,27.0,0.0,0.000238848,-0.0004942,-0.0023273,33.9942695,-106.894667,1431.7207,-12.0607108,-0.198800753,-3.64024529,,,,,,,,,,,,,,2023-06-29 16:49:14.027636+00:00
2023-06-29 09:49:14.228353-07:00,28.456188,1.81,-0.31,-1.78,0.04,23.8,859.71,59.93,34.0,0.0,-0.000107647,0.000336028,-0.00134624,33.9942695,-106.894667,1431.72229,-12.0536712,-0.197652098,-3.64557165,1.8875,0.628345,14180.0,31.06,11749.0,-0.800466,-1.0,15.0,-1271.0,89.0,,0.0,,2023-06-29 16:49:14.228353+00:00
2023-06-29 09:49:14.428267-07:00,28.656102,1.78,-0.25,-1.76,0.02,23.91,859.69,59.61,36.0,0.0,-8.39913e-05,-0.000275029,-0.00108242,33.9942694,-106.894667,1431.72229,-12.046879,-0.19901709,-3.63787684,,,,,,,,,,,,,,2023-06-29 16:49:14.428267+00:00
2023-06-29 09:49:14.628103-07:00,28.855938,1.69,-0.19,-1.68,0.07,23.86,859.69,59.84,29.0,0.0,0.00023675,8.04884e-05,-0.00229158,33.9942694,-106.894667,1431.71643,-12.0370286,-0.20263371,-3.64095706,,,,,,,,,,,,,,2023-06-29 16:49:14.628103+00:00
2023-06-29 09:49:14.828043-07:00,29.055878,1.76,-0.29,-1.74,-0.0,23.89,859.7,59.67,27.0,0.0,-2.34911e-05,-0.000299398,-0.00288943,33.9942694,-106.894667,1431.71655,-12.0331741,-0.20180848,-3.63773953,,,,,,,,,,,,,,2023-06-29 16:49:14.828043+00:00
2023-06-29 09:49:15.027463-07:00,29.255298,1.84,-0.48,-1.78,0.12,24.08,859.69,58.94,33.0,0.0,-0.000123921,7.75951e-05,-0.00227217,33.9942694,-106.894667,1431.71606,-12.0243983,-0.202592593,-3.63959126,,,,,,,,,,,,,,2023-06-29 16:49:15.027463+00:00
2023-06-29 09:49:15.229283-07:00,29.457118,1.97,-0.52,-1.89,0.13,23.94,859.7,58.62,37.0,0.0,0.000189088,0.000578451,-0.00165452,33.9942694,-106.894667,1431.7196,-12.0169042,-0.198184508,-3.63996682,1.88295,1.49108,14183.1,31.0687,11739.0,-0.81553,-1.0,14.0,-1256.0,89.0,,0.0,,2023-06-29 16:49:15.229283+00:00
2023-06-29 09:49:15.427850-07:00,29.655685,1.54,-0.06,-1.53,0.15,23.75,859.7,60.05,30.0,0.0,7.06938e-05,0.000203843,-0.0011316,33.9942694,-106.894667,1431.72009,-12.0107088,-0.197100032,-3.6336092,,,,,,,,,,,,,,2023-06-29 16:49:15.427850+00:00
2023-06-29 09:49:15.627682-07:00,29.855517,1.65,-0.03,-1.65,0.12,23.83,859.69,59.88,27.0,0.0,-2.80395e-05,0.000177686,-0.000442434,33.9942694,-106.894667,1431.72266,-12.0024297,-0.195858246,-3.63872164,,,,,,,,,,,,,,2023-06-29 16:49:15.627682+00:00
2023-06-29 09:49:15.828175-07:00,30.05601,1.76,-0.29,-1.74,0.05,23.87,859.69,59.67,30.0,0.0,-1.62921e-05,-0.000440112,0.00057842,33.9942694,-106.894667,1431.72766,-11.9948216,-0.194621728,-3.63023771,,,,,,,,,,,,,,2023-06-29 16:49:15.828175+00:00
2023-06-29 09:49:16.028321-07:00,30.256156,1.69,-0.37,-1.64,0.1,23.87,859.7,59.81,37.0,0.0,5.0253e-05,7.61393e-06,-0.000624285,33.9942694,-106.894667,1431.7229,-11.9889435,-0.195349349,-3.64162521,,,,,,,,,,,,,,2023-06-29 16:49:16.028321+00:00
2023-06-29 09:49:16.229169-07:00,30.457004,1.95,-0.45,-1.89,0.14,23.79,859.71,60.02,33.0,0.0,8.01851e-05,-0.000169536,-0.000781405,33.9942694,-106.894667,1431.72278,-11.9818194,-0.19566963,-3.6353912,1.88276,1.87696,14155.7,31.078,11783.0,-0.859295,-1.0,11.0,-1259.0,89.0,,0.0,,2023-06-29 16:49:16.229169+00:00
2023-06-29 09:49:16.428069-07:00,30.655904,1.96,-0.54,-1.87,0.16,23.86,859.7,59.65,27.0,0.0,0.000114095,0.000376846,-0.000791102,33.9942694,-106.894667,1431.72327,-11.9731731,-0.191009168,-3.64359586,,,,,,,,,,,,,,2023-06-29 16:49:16.428069+00:00
2023-06-29 09:49:16.627884-07:00,30.855719,1.75,-0.14,-1.75,0.1,23.96,859.7,59.43,28.0,0.0,-6.30435e-05,3.24587e-05,0.000636992,33.9942694,-106.894667,1431.72632,-11.9683234,-0.191229446,-3.64059348,,,,,,,,,,,,,,2023-06-29 16:49:16.627884+00:00
2023-06-29 09:49:16.827510-07:00,31.055345,1.26,0.14,-1.25,0.15,23.92,859.7,59.51,36.0,0.0,8.26867e-05,0.00034828,0.000150749,33.9942694,-106.894667,1431.7262,-11.9627662,-0.194297145,-3.63912843,,,,,,,,,,,,,,2023-06-29 16:49:16.827510+00:00
2023-06-29 09:49:17.027757-07:00,31.255592,1.63,-0.4,-1.58,0.01,24.1,859.69,58.74,35.0,0.0,-6.96157e-06,0.000172795,0.000168405,33.9942693,-106.894667,1431.72656,-11.9589985,-0.196844893,-3.64406639,,,,,,,,,,,,,,2023-06-29 16:49:17.027757+00:00
2023-06-29 09:49:17.228254-07:00,31.456089,1.63,-0.51,-1.55,-0.12,23.87,859.69,59.68,28.0,0.0,-0.000335153,-0.000331424,-0.000234427,33.9942693,-106.894667,1431.7251,-11.9525986,-0.196908873,-3.63633823,1.88003,2.65074,14132.4,31.0867,11793.0,-0.868768,-1.0,14.0,-1265.0,89.0,,0.0,,2023-06-29 16:49:17.228254+00:00
2023-06-29 09:49:17.428026-07:00,31.655861,1.34,-0.07,-1.33,-0.15,23.78,859.69,60.02,28.0,0.0,-0.000633013,-0.000247831,-2.17326e-05,33.9942694,-106.894667,1431.72681,-11.9520043,-0.197167169,-3.6432712,,,,,,,,,,,,,,2023-06-29 16:49:17.428026+00:00
2023-06-29 09:49:17.628130-07:00,31.855965,1.37,-0.25,-1.34,-0.08,23.89,859.69,59.53,34.0,0.0,-0.00069864,-0.000177664,0.000140517,33.9942694,-106.894667,1431.7218,-11.9445665,-0.199440025,-3.63373196,,,,,,,,,,,,,,2023-06-29 16:49:17.628130+00:00
2023-06-29 09:49:17.828197-07:00,32.056032,1.08,-0.02,-1.08,0.09,23.8,859.69,60.01,37.0,0.0,-0.000328137,-0.000536954,2.55245e-05,33.9942694,-106.894667,1431.72034,-11.9386441,-0.197955327,-3.64074447,,,,,,,,,,,,,,2023-06-29 16:49:17.828197+00:00
2023-06-29 09:49:18.028141-07:00,32.255976,0.94,0.21,-0.9,0.16,23.83,859.7,59.75,29.0,0.0,-3.61759e-05,-0.000510641,0.00110769,33.9942695,-106.894667,1431.71936,-11.9357495,-0.19534653,-3.63171642,,,,,,,,,,,,,,2023-06-29 16:49:18.028141+00:00
2023-06-29 09:49:18.228500-07:00,32.456335,1.22,-0.15,-1.21,-0.02,24.25,859.69,58.33,27.0,0.0,0.000151086,-0.000557466,0.00160334,33.9942696,-106.894667,1431.72083,-11.9328925,-0.194279382,-3.63667615,1.87981,3.07847,14126.3,31.095,11746.0,-0.892455,-1.0,12.0,-1281.0,89.0,,0.0,,2023-06-29 16:49:18.228500+00:00
2023-06-29 09:49:18.427932-07:00,32.655767,1.16,-0.06,-1.15,-0.01,24.02,859.7,59.07,31.0,0.0,0.000103799,9.26421e-05,0.00165204,33.9942696,-106.894667,1431.72021,-11.9325967,-0.191788331,-3.63274088,,,,,,,,,,,,,,2023-06-29 16:49:18.427932+00:00
2023-06-29 09:49:18.628227-07:00,32.856062,1.04,-0.09,-1.04,-0.02,23.85,859.69,59.74,38.0,0.0,-7.93691e-06,-0.000307609,0.000965522,33.9942696,-106.894667,1431.72461,-11.9250056,-0.191815043,-3.62875814,,,,,,,,,,,,,,2023-06-29 16:49:18.628227+00:00
2023-06-29 09:49:18.828112-07:00,33.055947,1.2,-0.26,-1.16,-0.15,23.89,859.7,59.6,32.0,0.0,0.000242637,0.000127183,0.000388074,33.9942696,-106.894667,1431.72754,-11.9209612,-0.193028404,-3.63584375,,,,,,,,,,,,,,2023-06-29 16:49:18.828112+00:00
2023-06-29 09:49:19.028218-07:00,33.256053,1.29,-0.26,-1.24,-0.26,23.81,859.69,59.78,27.0,0.0,0.000312546,-0.000930283,-0.000797197,33.9942695,-106.894667,1431.7251,-11.9133378,-0.192801106,-3.63039341,,,,,,,,,,,,,,2023-06-29 16:49:19.028218+00:00
2023-06-29 09:49:19.228534-07:00,33.456369,1.25,-0.26,-1.18,-0.3,23.82,859.69,59.8,30.0,0.0,0.000231893,1.36783e-05,-0.00133473,33.9942695,-106.894667,1431.72266,-11.9092638,-0.195323345,-3.63655381,1.87949,3.08463,14112.4,31.1034,11779.0,-0.910667,-1.0,11.0,-1266.0,89.0,,0.0,,2023-06-29 16:49:19.228534+00:00
2023-06-29 09:49:19.427647-07:00,33.655482,1.28,-0.23,-1.22,-0.3,23.82,859.69,59.85,36.0,0.0,9.38276e-05,-0.000591922,-0.00226278,33.9942696,-106.894667,1431.72351,-11.9069698,-0.199069987,-3.6305397,,,,,,,,,,,,,,2023-06-29 16:49:19.427647+00:00
2023-06-29 09:49:19.627772-07:00,33.855607,1.09,-0.13,-1.05,-0.26,23.78,859.7,60.06,34.0,0.0,0.00029546,-0.000457611,-0.00160044,33.9942696,-106.894667,1431.72485,-11.8994615,-0.200586683,-3.63476412,,,,,,,,,,,,,,2023-06-29 16:49:19.627772+00:00
2023-06-29 09:49:19.827779-07:00,34.055614,1.18,-0.36,-1.1,-0.25,23.88,859.69,59.64,27.0,0.0,0.000376623,-0.000859674,-0.00139353,33.9942696,-106.894667,1431.72705,-11.8959891,-0.198805007,-3.63679506,,,,,,,,,,,,,,2023-06-29 16:49:19.827779+00:00
2023-06-29 09:49:20.028242-07:00,34.256077,1.05,-0.2,-1.01,-0.21,23.79,859.7,59.96,28.0,0.0,0.00019767,-0.000437135,-0.000801834,33.9942696,-106.894667,1431.72754,-11.8898655,-0.199093531,-3.6357736,,,,,,,,,,,,,,2023-06-29 16:49:20.028242+00:00
2023-06-29 09:49:20.228147-07:00,34.455982,0.72,-0.13,-0.68,-0.19,23.81,859.68,59.91,35.0,0.0,-6.44001e-05,9.29966e-05,-0.000643014,33.9942696,-106.894667,1431.72852,-11.8826247,-0.196644755,-3.63805692,1.87906,2.81076,14113.0,31.1125,11800.0,-0.929724,-1.0,12.0,-1296.0,89.0,,0.0,,2023-06-29 16:49:20.228147+00:00
2023-06-29 09:49:20.428126-07:00,34.655961,0.92,-0.41,-0.81,-0.15,23.9,859.69,59.63,36.0,0.0,0.000106535,-0.000588315,1.00569e-05,33.9942697,-106.894667,1431.72852,-11.8753861,-0.194383112,-3.62823757,,,,,,,,,,,,,,2023-06-29 16:49:20.428126+00:00
2023-06-29 09:49:20.627760-07:00,34.855595,1.15,-0.77,-0.86,-0.05,24.16,859.68,58.53,28.0,0.0,6.81276e-05,-4.16791e-05,0.000384721,33.9942697,-106.894667,1431.73108,-11.8683275,-0.19166572,-3.63706326,,,,,,,,,,,,,,2023-06-29 16:49:20.627760+00:00
2023-06-29 09:49:20.827856-07:00,35.055691,1.24,-1.03,-0.69,0.0,23.98,859.68,59.23,27.0,0.0,-2.61201e-05,-0.000450279,0.000805978,33.9942697,-106.894667,1431.73279,-11.8628801,-0.193531517,-3.63044345,,,,,,,,,,,,,,2023-06-29 16:49:20.827856+00:00
2023-06-29 09:49:21.027853-07:00,35.255688,1.49,-1.37,-0.58,0.02,24.21,859.68,58.43,32.0,0.0,-6.37428e-05,-0.000400067,0.00205145,33.9942697,-106.894667,1431.73889,-11.8567424,-0.194840765,-3.63953437,,,,,,,,,,,,,,2023-06-29 16:49:21.027853+00:00
2023-06-29 09:49:21.228474-07:00,35.456309,1.75,-1.63,-0.56,0.27,24.98,859.68,55.86,37.0,0.0,-0.000124413,-0.000557509,0.00190445,33.9942698,-106.894667,1431.73303,-11.8518596,-0.196123505,-3.63397279,1.88133,3.39349,14110.2,31.1212,11776.0,-0.944615,-1.0,14.0,-1263.0,89.0,,0.0,,2023-06-29 16:49:21.228474+00:00
2023-06-29 09:49:21.427862-07:00,35.655697,1.86,-1.58,-0.87,0.42,25.3,859.68,54.72,31.0,0.0,-4.1717e-05,-0.000134943,0.00161626,33.9942698,-106.894667,1431.73438,-11.8472178,-0.195880199,-3.63986673,,,,,,,,,,,,,,2023-06-29 16:49:21.427862+00:00
2023-06-29 09:49:21.628214-07:00,35.856049,1.58,-1.4,-0.57,0.48,25.22,859.68,54.98,27.0,0.0,-0.000145517,-0.000283533,0.00161766,33.9942698,-106.894667,1431.73645,-11.8465393,-0.195178948,-3.63876356,,,,,,,,,,,,,,2023-06-29 16:49:21.628214+00:00
2023-06-29 09:49:21.828008-07:00,36.055843,1.69,-1.45,-0.78,0.39,24.85,859.69,56.29,30.0,0.0,2.74018e-05,-0.000419932,0.0012589,33.9942698,-106.894667,1431.73279,-11.8409509,-0.198212348,-3.63792817,,,,,,,,,,,,,,2023-06-29 16:49:21.828008+00:00
2023-06-29 09:49:22.028018-07:00,36.255853,1.71,-1.37,-0.97,0.32,24.86,859.68,56.26,37.0,0.0,-0.000125419,-0.000498869,0.00142737,33.9942698,-106.894667,1431.73132,-11.8378526,-0.199960495,-3.64094637,,,,,,,,,,,,,,2023-06-29 16:49:22.028018+00:00
2023-06-29 09:49:22.228242-07:00,36.456077,1.72,-1.32,-1.08,0.23,24.71,859.69,57.52,34.0,0.0,-0.000291361,-0.000381097,-0.000296295,33.9942698,-106.894667,1431.72559,-11.836445,-0.200402129,-3.63149827,1.87535,4.06162,14127.2,31.1303,11732.0,-0.965683,-1.0,14.0,-1239.0,89.0,,0.0,,2023-06-29 16:49:22.228242+00:00
2023-06-29 09:49:22.427507-07:00,36.655342,1.51,-1.1,-1.01,0.23,24.89,859.69,56.95,27.0,0.0,-0.000439896,1.48697e-05,-0.000791029,33.9942698,-106.894667,1431.72473,-11.8351823,-0.200221215,-3.63703717,,,,,,,,,,,,,,2023-06-29 16:49:22.427507+00:00
2023-06-29 09:49:22.627798-07:00,36.855633,1.56,-0.93,-1.22,0.27,24.79,859.69,56.41,28.0,0.0,3.86328e-05,0.000279244,-1.23117e-05,33.9942698,-106.894667,1431.73059,-11.8350474,-0.199433837,-3.62883556,,,,,,,,,,,,,,2023-06-29 16:49:22.627798+00:00
2023-06-29 09:49:22.828176-07:00,37.056011,1.56,-1.19,-0.97,0.27,24.75,859.68,56.55,36.0,0.0,-5.80844e-05,-2.67893e-05,0.000658316,33.9942699,-106.894667,1431.72656,-11.8291542,-0.201538884,-3.63403695,,,,,,,,,,,,,,2023-06-29 16:49:22.828176+00:00
2023-06-29 09:49:23.027786-07:00,37.255621,1.47,-1.12,-0.95,0.13,24.6,859.68,57.06,36.0,0.0,-0.000203285,-0.000357232,0.000229434,33.9942699,-106.894667,1431.72412,-11.8243083,-0.19802678,-3.62590594,,,,,,,,,,,,,,2023-06-29 16:49:23.027786+00:00
2023-06-29 09:49:23.228884-07:00,37.456719,1.29,-0.95,-0.88,0.06,24.26,859.69,58.23,29.0,0.0,-2.70197e-05,-0.000926652,0.000493492,33.9942699,-106.894667,1431.72424,-11.8191251,-0.196576428,-3.632234,1.87589,4.25589,14160.1,31.1387,11772.0,-0.967047,-1.0,11.0,-1277.0,89.0,,0.0,,2023-06-29 16:49:23.228884+00:00
2023-06-29 09:49:23.428276-07:00,37.656111,1.21,-0.76,-0.94,0.15,24.15,859.69,58.68,27.0,0.0,7.25006e-05,5.9775e-05,0.00118258,33.9942699,-106.894667,1431.72302,-11.8147648,-0.192304445,-3.62970003,,,,,,,,,,,,,,2023-06-29 16:49:23.428276+00:00
2023-06-29 09:49:23.628101-07:00,37.855936,1.2,-0.65,-1.01,0.02,23.98,859.69,59.22,32.0,0.0,0.000432009,-0.000475347,0.00278989,33.9942699,-106.894667,1431.72803,-11.8079745,-0.194174072,-3.6288099,,,,,,,,,,,,,,2023-06-29 16:49:23.628101+00:00
2023-06-29 09:49:23.828238-07:00,38.056073,1.1,-0.62,-0.91,-0.03,24.01,859.68,59.17,38.0,0.0,-0.000213436,0.000134521,0.00492476,33.99427,-106.894667,1431.73291,-11.804353,-0.192347332,-3.6333517,,,,,,,,,,,,,,2023-06-29 16:49:23.828238+00:00
2023-06-29 09:49:24.028184-07:00,38.256019,1.1,-0.59,-0.93,0.0,23.98,859.69,59.33,32.0,0.0,-0.000389112,-0.000583306,0.00441241,33.99427,-106.894667,1431.72961,-11.7995452,-0.190363319,-3.62610271,,,,,,,,,,,,,,2023-06-29 16:49:24.028184+00:00
2023-06-29 09:49:24.228625-07:00,38.45646,1.13,-0.77,-0.82,0.09,24.18,859.69,58.38,27.0,0.0,-0.000200145,0.000605521,0.00301764,33.99427,-106.894667,1431.72974,-11.7970327,-0.192180014,-3.63462852,1.87568,4.92263,14180.9,31.1474,11779.0,-0.96853,-1.0,15.0,-1271.0,89.0,,0.0,,2023-06-29 16:49:24.228625+00:00
2023-06-29 09:49:24.427909-07:00,38.655744,1.21,-0.9,-0.81,0.11,24.14,859.69,58.66,30.0,0.0,-0.000351931,-0.000415924,0.00163786,33.99427,-106.894667,1431.72437,-11.7911965,-0.190096319,-3.62596925,,,,,,,,,,,,,,2023-06-29 16:49:24.427909+00:00
2023-06-29 09:49:24.627956-07:00,38.855791,1.11,-0.78,-0.79,0.06,23.97,859.69,59.21,38.0,0.0,-0.000517305,-8.04136e-05,0.00117371,33.99427,-106.894667,1431.72644,-11.7864577,-0.189905686,-3.62999218,,,,,,,,,,,,,,2023-06-29 16:49:24.627956+00:00
2023-06-29 09:49:24.827588-07:00,39.055423,1.16,-0.81,-0.83,0.07,23.94,859.7,59.38,34.0,0.0,-0.000209245,-0.000281179,0.000796989,33.99427,-106.894667,1431.72522,-11.7825099,-0.188588126,-3.6279574,,,,,,,,,,,,,,2023-06-29 16:49:24.827588+00:00
2023-06-29 09:49:25.028109-07:00,39.255944,1.26,-0.74,-1.01,0.05,24.09,859.69,58.83,27.0,0.0,0.000229918,0.000578362,0.00120214,33.9942699,-106.894667,1431.72327,-11.774576,-0.186675604,-3.62908964,,,,,,,,,,,,,,2023-06-29 16:49:25.028109+00:00
2023-06-29 09:49:25.228683-07:00,39.456518,1.28,-0.69,-1.07,0.14,24.24,859.69,58.19,27.0,0.0,0.000364144,0.000162,0.00204893,33.9942699,-106.894667,1431.72644,-11.7745344,-0.18679348,-3.63361647,1.87496,4.35144,14166.9,31.1559,11735.0,-0.973451,-1.0,14.0,-1263.0,89.0,,0.0,,2023-06-29 16:49:25.228683+00:00
2023-06-29 09:49:25.427861-07:00,39.655696,1.18,-0.74,-0.92,0.09,24.01,859.69,59.12,35.0,0.0,0.000503723,-0.000189864,0.00174698,33.9942698,-106.894667,1431.72559,-11.7697022,-0.186582303,-3.63039811,,,,,,,,,,,,,,2023-06-29 16:49:25.427861+00:00
2023-06-29 09:49:25.627589-07:00,39.855424,1.23,-0.79,-0.94,0.12,24.25,859.69,58.21,36.0,0.0,0.000661409,7.56091e-05,0.00194845,33.9942698,-106.894667,1431.72668,-11.7634233,-0.187260329,-3.63828363,,,,,,,,,,,,,,2023-06-29 16:49:25.627589+00:00
2023-06-29 09:49:25.827856-07:00,40.055691,1.21,-0.84,-0.84,0.22,24.25,859.68,58.22,28.0,0.0,0.000311441,0.000281745,0.00237981,33.9942698,-106.894667,1431.72595,-11.754197,-0.188647551,-3.63168306,,,,,,,,,,,,,,2023-06-29 16:49:25.827856+00:00
2023-06-29 09:49:26.028291-07:00,40.256126,1.19,-0.81,-0.85,0.19,24.21,859.7,58.42,27.0,0.0,0.000102996,0.000580305,0.00234204,33.9942698,-106.894667,1431.72473,-11.749469,-0.189408291,-3.63760736,,,,,,,,,,,,,,2023-06-29 16:49:26.028291+00:00
2023-06-29 09:49:26.228432-07:00,40.456267,1.04,-0.55,-0.8,0.39,24.59,859.69,57.09,33.0,0.0,0.000262134,-5.26375e-05,0.00115356,33.9942698,-106.894667,1431.72302,-11.7440564,-0.194056492,-3.62821405,1.87594,4.84567,14154.4,31.165,11757.0,-0.975132,-1.0,11.0,-1264.0,89.0,,0.0,,2023-06-29 16:49:26.228432+00:00
2023-06-29 09:49:26.427667-07:00,40.655502,0.94,-0.42,-0.77,0.34,24.59,859.69,57.16,38.0,0.0,6.64583e-05,2.90612e-05,0.000336996,33.9942698,-106.894667,1431.72083,-11.7391126,-0.195257773,-3.63622188,,,,,,,,,,,,,,2023-06-29 16:49:26.427667+00:00
2023-06-29 09:49:26.628065-07:00,40.8559,1.1,-0.42,-0.98,0.29,24.6,859.7,57.0,31.0,0.0,-6.94628e-05,-0.000540445,-0.00049293,33.9942698,-106.894667,1431.71753,-11.7337464,-0.197379799,-3.63393386,,,,,,,,,,,,,,2023-06-29 16:49:26.628065+00:00
2023-06-29 09:49:26.827501-07:00,41.055336,1.1,-0.48,-0.94,0.31,24.59,859.69,57.09,26.0,0.0,0.00026864,-0.000396176,-0.000553931,33.9942697,-106.894667,1431.72156,-11.7261661,-0.197253123,-3.63858391,,,,,,,,,,,,,,2023-06-29 16:49:26.827501+00:00
2023-06-29 09:49:27.028334-07:00,41.256169,1.05,-0.05,-1.0,0.32,24.76,859.7,56.46,30.0,0.0,0.00028754,-0.00048417,-0.000246327,33.9942697,-106.894667,1431.71826,-11.7237461,-0.199610343,-3.63872678,,,,,,,,,,,,,,2023-06-29 16:49:27.028334+00:00
2023-06-29 09:49:27.229099-07:00,41.456934,0.87,0.25,-0.77,0.31,24.26,859.68,58.35,37.0,0.0,-0.000118382,-0.000576381,-0.000291635,33.9942697,-106.894667,1431.71814,-11.7196866,-0.201687286,-3.63410881,1.87329,5.01677,14151.6,31.1736,11798.0,-0.980022,-1.0,13.0,-1290.0,89.0,,0.0,,2023-06-29 16:49:27.229099+00:00
2023-06-29 09:49:27.427924-07:00,41.655759,1.14,-0.16,-1.12,0.19,24.46,859.7,57.56,34.0,0.0,-1.08378e-05,0.000365539,0.000256936,33.9942697,-106.894667,1431.71655,-11.7175052,-0.202501563,-3.64131894,,,,,,,,,,,,,,2023-06-29 16:49:27.427924+00:00
2023-06-29 09:49:27.627579-07:00,41.855414,1.25,-0.4,-1.14,0.31,24.62,859.69,57.12,27.0,0.0,0.00016219,-0.000409319,-0.000129327,33.9942697,-106.894667,1431.71863,-11.7151168,-0.202072612,-3.63093921,,,,,,,,,,,,,,2023-06-29 16:49:27.627579+00:00
2023-06-29 09:49:27.828095-07:00,42.05593,1.23,-0.45,-1.09,0.35,24.62,859.67,56.93,28.0,0.0,0.000465248,-0.000281091,0.000692927,33.9942697,-106.894667,1431.72034,-11.7103084,-0.20080141,-3.63879864,,,,,,,,,,,,,,2023-06-29 16:49:27.828095+00:00
2023-06-29 09:49:28.027647-07:00,42.255482,1.35,-0.78,-1.03,0.39,24.65,859.71,56.9,35.0,0.0,0.000601001,-5.1186e-05,0.00125868,33.9942697,-106.894667,1431.72058,-11.7083435,-0.198668932,-3.63221945,,,,,,,,,,,,,,2023-06-29 16:49:28.027647+00:00
2023-06-29 09:49:28.229218-07:00,42.457053,1.27,-0.58,-1.08,0.3,24.69,859.7,56.69,36.0,0.0,0.00019782,-1.29586e-05,0.000428378,33.9942697,-106.894667,1431.71509,-11.7008573,-0.198034439,-3.63908694,1.87124,5.57169,14149.5,31.1827,11755.0,-0.980259,-1.0,15.0,-1281.0,89.0,,0.0,,2023-06-29 16:49:28.229218+00:00
2023-06-29 09:49:28.428104-07:00,42.655939,1.26,-0.57,-1.03,0.45,24.81,859.7,56.4,29.0,0.0,8.7386e-05,-0.000113467,0.00119499,33.9942697,-106.894667,1431.71436,-11.6968946,-0.197450682,-3.63510375,,,,,,,,,,,,,,2023-06-29 16:49:28.428104+00:00
2023-06-29 09:49:28.627881-07:00,42.855716,1.03,-0.48,-0.81,0.41,24.79,859.7,56.42,27.0,0.0,0.000457082,-0.000534524,0.000764888,33.9942697,-106.894667,1431.71338,-11.6911464,-0.199789165,-3.63399203,,,,,,,,,,,,,,2023-06-29 16:49:28.627881+00:00
2023-06-29 09:49:28.828092-07:00,43.055927,0.93,-0.39,-0.75,0.39,24.75,859.7,57.39,33.0,0.0,-4.52504e-05,-0.000342424,0.00240787,33.9942697,-106.894667,1431.71484,-11.6913399,-0.198602124,-3.63733018,,,,,,,,,,,,,,2023-06-29 16:49:28.828092+00:00
2023-06-29 09:49:29.027856-07:00,43.255691,0.85,-0.43,-0.64,0.35,24.57,859.7,57.19,37.0,0.0,4.41477e-05,-0.000619022,0.00267237,33.9942697,-106.894667,1431.71509,-11.6869173,-0.201303477,-3.63151795,,,,,,,,,,,,,,2023-06-29 16:49:29.027856+00:00
2023-06-29 09:49:29.228685-07:00,43.45652,0.77,-0.36,-0.59,0.34,24.9,859.69,56.01,31.0,0.0,4.18097e-05,0.000669246,0.00374691,33.9942697,-106.894667,1431.71948,-11.6803564,-0.203603727,-3.63656793,1.87033,5.86823,14162.9,31.1915,11784.0,-0.983153,-1.0,6.0,-1267.0,89.0,,0.0,,2023-06-29 16:49:29.228685+00:00
2023-06-29 09:49:29.428131-07:00,43.655966,0.65,-0.08,-0.57,0.29,24.99,859.7,55.7,27.0,0.0,0.000176119,-0.00058656,0.00398313,33.9942697,-106.894667,1431.71619,-11.6765856,-0.205047542,-3.6303609,,,,,,,,,,,,,,2023-06-29 16:49:29.428131+00:00
2023-06-29 09:49:29.628081-07:00,43.855916,0.64,0.24,-0.41,0.42,24.92,859.7,56.78,30.0,0.0,4.44578e-05,-0.00012147,0.00350999,33.9942698,-106.894667,1431.71155,-11.6750757,-0.20726613,-3.63828064,,,,,,,,,,,,,,2023-06-29 16:49:29.628081+00:00
2023-06-29 09:49:29.827752-07:00,44.055587,0.67,0.1,-0.54,0.38,24.83,859.69,56.22,37.0,0.0,-0.000133237,-0.000372517,0.00398712,33.9942698,-106.894667,1431.71301,-11.6762205,-0.205932413,-3.63196794,,,,,,,,,,,,,,2023-06-29 16:49:29.827752+00:00
2023-06-29 09:49:30.027510-07:00,44.255345,0.6,-0.14,-0.49,0.31,24.77,859.71,57.24,34.0,0.0,-0.000321648,-0.000178437,0.00361497,33.9942698,-106.894667,1431.71692,-11.6755155,-0.203962843,-3.6344155,,,,,,,,,,,,,,2023-06-29 16:49:30.027510+00:00
2023-06-29 09:49:30.228789-07:00,44.456624,0.37,0.0,-0.21,0.3,24.94,859.7,56.66,28.0,0.0,-0.000271019,7.88302e-05,0.00307409,33.9942698,-106.894667,1431.71729,-11.6728456,-0.200179929,-3.63184731,1.86963,6.18071,14175.0,31.1999,11784.0,-0.98453,-1.0,6.0,-1267.0,89.0,,0.0,,2023-06-29 16:49:30.228789+00:00
2023-06-29 09:49:30.427790-07:00,44.655625,0.42,0.01,-0.27,0.32,25.1,859.71,56.25,29.0,0.0,0.000182364,-7.24354e-06,0.00108147,33.9942698,-106.894667,1431.71448,-11.6711821,-0.199530309,-3.62913199,,,,,,,,,,,,,,2023-06-29 16:49:30.427790+00:00
2023-06-29 09:49:30.628081-07:00,44.855916,0.38,-0.08,-0.26,0.27,25.43,859.69,55.04,36.0,0.0,0.000124784,0.000257044,-0.000350593,33.9942697,-106.894667,1431.71484,-11.6724624,-0.194050796,-3.63534928,,,,,,,,,,,,,,2023-06-29 16:49:30.628081+00:00
2023-06-29 09:49:30.827768-07:00,45.055603,0.43,0.09,-0.26,0.33,25.27,859.7,55.51,36.0,0.0,-5.25985e-05,0.000104971,-0.00154598,33.9942697,-106.894666,1431.71667,-11.6682107,-0.198417552,-3.62664979,,,,,,,,,,,,,,2023-06-29 16:49:30.827768+00:00
2023-06-29 09:49:31.027822-07:00,45.255657,0.38,0.1,-0.11,0.35,25.55,859.7,54.7,29.0,0.0,-0.000368846,9.1155e-05,-0.00139643,33.9942696,-106.894666,1431.71753,-11.664635,-0.201388863,-3.63612992,,,,,,,,,,,,,,2023-06-29 16:49:31.027822+00:00
2023-06-29 09:49:31.228566-07:00,45.456401,0.41,0.09,-0.2,0.35,25.65,859.7,54.32,27.0,0.0,-0.000633112,-0.000327253,-0.00288253,33.9942696,-106.894666,1431.71533,-11.6615134,-0.2035814,-3.63126986,1.86871,7.44705,14189.4,31.2089,11776.0,-0.985193,-1.0,13.0,-1288.0,89.0,,0.0,,2023-06-29 16:49:31.228566+00:00
2023-06-29 09:49:31.427964-07:00,45.655799,0.51,-0.19,-0.41,0.25,25.85,859.69,53.74,33.0,0.0,-0.00037703,-6.89914e-05,-0.00250847,33.9942696,-106.894666,1431.71777,-11.6551762,-0.204854778,-3.63924692,,,,,,,,,,,,,,2023-06-29 16:49:31.427964+00:00
2023-06-29 09:49:31.627630-07:00,45.855465,0.37,-0.1,-0.25,0.25,26.01,859.69,53.24,38.0,0.0,-0.00010966,-0.000481362,-0.00226425,33.9942696,-106.894666,1431.71741,-11.6534458,-0.204435611,-3.63291411,,,,,,,,,,,,,,2023-06-29 16:49:31.627630+00:00
2023-06-29 09:49:31.827837-07:00,46.055672,0.39,-0.06,-0.23,0.3,26.1,859.7,53.02,31.0,0.0,-0.000224277,-0.000262247,-0.00219742,33.9942696,-106.894666,1431.71606,-11.6486352,-0.204200917,-3.63652815,,,,,,,,,,,,,,2023-06-29 16:49:31.827837+00:00
