Timestamp,Seconds,S,Um,Vm,Wm,T,P,H,MD,Sts,Vx,Vy,Vz,Lat,Lon,Alt,Yaw,Roll,Pitch,CH4,C2H6,H2O,T_a,Batt,R,C2C1,Power,Current,SOC,Lat_a,Lon_a,TS,Timestamp_UTC,Rho,Rho_err,Sc,V,U,W,WD,V_err,U_err,Sc_avg,WD_avg,V_avg,U_avg,W_avg,U_err_avg,V_err_avg,Nx,Ny,cross_wind,cross_wind_err,CH4_sub,CH4_res,CH4_adj,CH4_adj_err,BG_Samples_CH4,C2H6_sub,C2H6_res,C2H6_adj,C2H6_adj_err,BG_Samples_C2H6,x_dist,y_dist,s_dist,z_dist,velocity_s,velocity_z,x_src_dist,y_src_dist,s_src_dist,collecting,group,transect_num
2023-06-29 09:48:46.191949-07:00,0.419784,2.23,0.66,-1.99,0.76,24.68,859.7,58.97,35.0,0.0,0.000185788,0.000243464,0.000703572,33.9942728,-106.894667,1432.6677499999998,-13.1251864,-0.197272907,-3.614771,1.89186,-6.4087,14297.4,30.8208,11744.0,0.852826,0.312007,18.0,-1253.0,89.0,,0.0,,2023-06-29 16:48:46.191949+00:00,1.0055723771486305,0.013506040693609852,2.0964818487298795,-1.7878978299624473,1.094832175116088,0.760703572,328.51847922526446,0.2563458691936824,0.18111278857748192,2.2003710115680324,329.7464692650087,-1.8808898500503997,1.1264475903792357,0.6408452874,0.18379806462707013,0.25769398443286073,0.7949724632971243,-0.606645516425616,2.036528210122415,0.1499544630407423,,,,,,,,,,,-0.5010473246230893,-0.3692578329787226,0.6224144669977536,0.24084999999990941,0.6224144669977536,0.24084999999990941,-808.489823941493,519.039711125806,960.7590838199276,False,,
2023-06-29 09:48:47.227433-07:00,1.455268,1.64,0.31,-1.47,0.65,24.84,859.69,58.42,29.0,0.0,-0.000308847,0.000247216,0.00154948,33.9942728,-106.894667,1432.6686,-13.0836284,-0.202544958,-3.62342846,1.8954,-6.48044,14292.0,30.8295,11761.0,0.87555,0.306974,15.0,-1240.0,89.0,,0.0,,2023-06-29 16:48:47.227433+00:00,1.0050207638964208,0.013496938251075764,1.5019769781366532,-1.3614169702710155,0.6344120710631228,0.65154948,335.01476564967334,0.25131576991206195,0.1717428387142879,1.6955288048936257,337.84144725215236,-1.5673482803593746,0.6409920850660151,0.5451866249999999,0.17621050126497428,0.2531488785924144,0.6249083444484421,0.7806981241419164,-0.8230645596704638,0.1689408013611533,,,,,,,,,,,-0.5010473246898483,-0.36925783302792203,0.6224144670806833,0.2417000000000371,8.292966313661054e-11,0.0008500000001276931,-808.4898239415597,519.0397111257568,960.759083819957,False,,
2023-06-29 09:48:48.228587-07:00,2.456422,2.48,-0.93,-2.24,0.52,25.68,859.69,55.67,27.0,0.0,-0.000402848,0.00108241,0.00148476,33.9942729,-106.894667,1432.67043,-13.0409794,-0.19632981,-3.63037116,1.89486,-7.16124,14257.7,30.8385,11802.0,0.872813,0.297526,12.0,-1283.0,89.0,,0.0,,2023-06-29 16:48:48.228587+00:00,1.002195687961364,0.013449559436102017,2.42438562158552,-2.39099812033708,-0.4009658722324867,0.52148476,369.51981284700764,0.25906602542851553,0.1980375419316634,2.1224823903852577,367.2770647774432,-1.9698195962873861,-0.334687744979868,0.5450137254,0.18638725102107287,0.2547745613438194,0.9371961554206132,0.3488027612631842,-1.000746582236898,0.16661934819028817,,,,,,,,,,,-0.48991293938083347,-0.36925783269923423,0.6134867848474846,0.24352999999996428,-0.00892768223319862,0.0018299999999271677,-808.4786895562507,519.0397111260855,960.7497141256107,False,,
2023-06-29 09:48:49.228527-07:00,3.456362,1.73,-0.74,-1.46,0.56,25.39,859.7,55.83,28.0,0.0,0.000186686,-4.46781e-05,0.000412589,33.9942725,-106.894667,1432.67751,-12.9915355,-0.192638165,-3.62255116,1.894,-6.01714,14275.7,30.8474,11740.0,0.872879,0.306022,13.0,-1257.0,89.0,,0.0,,2023-06-29 16:48:49.228527+00:00,1.0031808839223442,0.013465917023488672,1.6368247759381827,-1.5890307346455954,-0.39265337318907745,0.560412589,373.8798851057211,0.25103497366867644,0.17688405571181498,1.755011296725447,369.9691238295716,-1.7206752547295499,-0.27821824744097357,0.45159310580000006,0.18043394400965013,0.2526474591666267,0.23274959949621338,0.9725366954178913,-1.7381750117864398,0.23916077281873113,,,,,,,,,,,-0.5344504796601254,-0.3692578348474809,0.6496065453835788,0.2506100000000515,0.036119760536094114,0.007080000000087239,-808.52322709653,519.0397111239372,960.7871931277016,False,,
2023-06-29 09:48:50.228278-07:00,4.456113,2.25,0.01,-2.24,0.21,23.72,859.71,61.65,34.0,0.0,-3.69867e-05,0.000685759,-0.00228799,33.9942723,-106.894667,1432.64932,-12.9390296,-0.188382966,-3.61975801,1.89263,-5.4695,14322.5,30.8566,11768.0,0.874496,0.350994,14.0,-1233.0,89.0,,0.0,,2023-06-29 16:48:50.228278+00:00,1.0088358700402829,0.013560721484286789,2.239346227206164,-2.1801990165698135,0.5112766114839389,0.20771201,346.80210367539223,0.25889644858709054,0.1921779248360149,2.2392482836113965,347.9976262692715,-2.1892011528618083,0.46414392122608633,0.235896104,0.19244297928488394,0.2588900364282889,0.9985486509563065,0.053857141340219086,0.34556617047802973,0.19188625015329486,,,,,,,,,,,-0.5567192474220125,-0.3692578340850197,0.668047654350565,0.22242000000005646,0.018441108966986253,-0.028189999999995052,-808.545495864292,519.0397111246997,960.805932853688,False,,
2023-06-29 09:48:51.228341-07:00,5.456176,0.56,0.14,0.05,0.54,24.43,859.7,58.35,37.0,0.0,0.000308863,-0.00121546,-0.000700392,33.9942721,-106.894667,1432.6554199999998,-12.9094087,-0.192183151,-3.62431945,1.89343,-5.4257,14332.3,30.8655,11807.0,0.864069,0.366745,15.0,-1267.0,89.0,,0.0,,2023-06-29 16:48:51.228341+00:00,1.0064171687820975,0.013520226871521249,0.14827157993054144,0.07879819140239763,0.12559978681036862,0.539299608,237.8968595263015,0.24479501323010114,0.15841380910901956,0.5931588884914142,301.6906055709749,-0.2282295322888908,0.21419736724765323,0.33176154139999997,0.16056219228453655,0.24551722703340798,0.9691975164307576,0.24628474200496334,0.1513901048847495,0.15155653863074575,,,,,,,,,,,-0.5789880173908876,-0.36925783530732004,0.6867157149928045,0.22851999999988948,0.01866806064223947,0.006099999999833017,-808.5677646342608,519.0397111234774,960.8246727310807,False,,
2023-06-29 09:48:52.228692-07:00,6.456527,2.25,0.25,-2.2,0.38,23.76,859.7,60.74,32.0,0.0,0.000736933,0.000790524,-0.00304173,33.9942719,-106.894667,1432.64224,-12.8628239,-0.194783088,-3.64914937,1.89343,-5.78159,14285.2,30.8742,11807.0,0.857009,0.372343,15.0,-1267.0,89.0,,0.0,,2023-06-29 16:48:52.228692+00:00,1.0086882256784098,0.013558396146082624,2.2136574257751067,-2.088347932395714,0.7342221134968752,0.37695827,340.6293273383614,0.2582834506943674,0.18986509107070562,1.9217991793575493,348.64975844663,-1.7574422842258233,0.5079231400266766,0.35414127119999994,0.18298184311836224,0.25513812047073736,0.7314656359682605,-0.681878305416405,1.5698900892776493,0.15381064919249246,,,,,,,,,,,-0.6012567862935219,-0.36925783541366225,0.7055927097684592,0.21533999999996922,0.018876994775654743,-0.013179999999920256,-808.5900334031635,519.039711123371,960.8434127587916,False,,
2023-06-29 09:48:53.228885-07:00,7.45672,2.71,-0.55,-2.65,0.2,24.57,859.71,57.86,28.0,0.0,0.00042491,-0.000642814,-0.000304461,33.9942716,-106.894667,1432.6387,-12.8242144,-0.193972333,-3.63786315,1.8958,-3.95324,14315.6,30.8835,11794.0,0.858812,0.410175,16.0,-1274.0,89.0,,0.0,,2023-06-29 16:48:53.228885+00:00,1.0059556117790502,0.01351231818059912,2.707124598232702,-2.706618577894896,0.05233989062633204,0.199695539,358.8921670988677,0.2641419678555885,0.20854699145003305,2.464124497979806,350.31727086727705,-2.3640919445638695,0.34606566588690635,0.3387791188,0.19847560868309733,0.2606610787703557,0.8342197412816992,0.5514321565305155,-1.0149415089646205,0.1592497233780873,,,,,,,,,,,-0.6346599414437043,-0.36925783651259475,0.7342646601187397,0.2118000000000393,0.028671950350280473,-0.0035399999999299325,-808.6234365583136,519.0397111222721,960.8715230837414,False,,
2023-06-29 09:48:54.228368-07:00,8.456203,2.3,-0.28,-2.28,0.11,23.89,859.71,60.42,27.0,0.0,5.96882e-05,0.00252342,0.000318115,33.9942718,-106.894667,1432.63735,-12.7775438,-0.203777039,-3.63093322,1.89646,-4.17265,14286.3,30.8923,11740.0,0.866038,0.428766,15.0,-1262.0,89.0,,0.0,,2023-06-29 16:48:54.228368+00:00,1.008258499659503,0.013551012550069621,2.2946240638827464,-2.2829414752363832,0.23125270851451105,0.110318115,354.21589946489655,0.2591234268507237,0.1957121012481168,2.4143738157166155,356.9580678145739,-2.407372896963488,0.13063557277614518,0.12969727778,0.19945671149797373,0.2604227957509168,0.9997203687565795,-0.023647077899997683,0.18752637741733352,0.19934523162799142,,,,,,,,,,,-0.6123911712276574,-0.36925783556523223,0.7151043949829298,0.2104500000000371,-0.01916026513580993,-0.0013500000000021828,-808.6011677880975,519.0397111232195,960.8527828294771,False,,
2023-06-29 09:48:55.228658-07:00,9.456493,2.21,-0.65,-2.1,0.22,23.9,859.7,60.25,30.0,0.0,-0.000303367,-0.000708943,0.000101572,33.9942719,-106.894667,1432.6207499999998,-12.7310617,-0.210852761,-3.61703075,1.89409,-4.38523,14236.9,30.9015,11795.0,0.853182,0.435754,14.0,-1245.0,89.0,,0.0,,2023-06-29 16:48:55.228658+00:00,1.0082128297800932,0.013550402322177541,2.199025226857079,-2.1923246701639676,-0.1715356783420865,0.220101572,364.4739209460075,0.2568691645502885,0.19316152712062093,2.2816813250920704,363.933037847133,-2.270929412359095,-0.16020509598310428,0.17972537791999998,0.19547033830501595,0.25782976127628204,0.9193635572045603,-0.3934090106799502,0.7461173665148676,0.16996797589244378,,,,,,,,,,,-0.6012567842681371,-0.36925783416978575,0.70559270739161,0.19384999999988395,-0.009511687591319817,-0.01660000000015316,-808.590033401138,519.039711124615,960.8434127577591,False,,
2023-06-29 09:48:56.228485-07:00,10.45632,2.02,-0.74,-1.86,0.26,23.98,859.71,60.09,36.0,0.0,-0.00103355,0.000465981,-0.000633009,33.994272,-106.894667,1432.59817,-12.6950662,-0.200668541,-3.61522141,1.89484,-3.8812,14208.2,30.9098,11808.0,0.840257,0.451731,14.0,-1264.0,89.0,,0.0,,2023-06-29 16:48:56.228485+00:00,1.0079531004572369,0.01354587826357248,2.001500929226856,-1.9766875034523292,-0.31418542835619534,0.259366991,369.0313525644156,0.2541489086298393,0.18740773101282987,2.14066259171895,368.24471114287974,-2.1184816502994956,-0.30640658430324574,0.20927348440000001,0.19127582012314276,0.2556805117615946,0.41101262356819274,0.9116296524727523,-2.057207664725478,0.2149308461683264,,,,,,,,,,,-0.5901223975216675,-0.3692578324282071,0.6961291481228887,0.17127000000004955,-0.009463559268721222,-0.0225799999998344,-808.5788990143916,519.0397111263566,960.8340427240582,False,,
2023-06-29 09:48:57.229059-07:00,11.456894,1.9,-0.63,-1.77,0.24,24.19,859.69,59.28,36.0,0.0,-0.000220266,0.000308377,-0.000595467,33.9942718,-106.894667,1432.5956099999999,-12.6499976,-0.200899969,-3.62101514,1.89193,-3.17782,14180.7,30.9191,11737.0,0.778368,0.454821,17.0,-1247.0,89.0,,0.0,,2023-06-29 16:48:57.229059+00:00,1.0072177891756726,0.013533834779164505,1.8784967221818438,-1.8646934047467436,-0.22730693245461878,0.239404533,366.95009020916393,0.2531390694333455,0.1846652853378739,2.32572559699261,365.758244222987,-2.309135899667808,-0.20779108808944172,0.2191387366,0.19746075981321604,0.25845980948305014,0.8137375719857399,0.5812324525856696,-1.5112321378197142,0.15722666812853517,,,,,,,,,,,-0.612391167220905,-0.36925783314925237,0.7151043903041454,0.1687099999999191,0.01897524218125668,-0.002560000000130458,-808.6011677840909,519.0397111256354,960.8527828274104,False,,
2023-06-29 09:48:58.228720-07:00,12.456555,2.57,-1.13,-2.31,0.18,24.49,859.7,58.27,32.0,0.0,-0.000339103,-6.41207e-05,0.000214731,33.9942716,-106.894667,1432.58828,-12.6176773,-0.198932347,-3.62696931,1.89441,-3.15379,14160.9,30.9275,11786.0,0.765544,0.515232,15.0,-1270.0,89.0,,0.0,,2023-06-29 16:48:58.228720+00:00,1.0062142893635824,0.013516819417363168,2.5717166436330974,-2.501118353702285,-0.5984425418643411,0.180214731,373.4561777675452,0.2592417832311675,0.2026935597886097,2.549645423158657,375.18823040032555,-2.438595551619833,-0.6593447696596174,0.18790218539999998,0.2008590071467729,0.2584058947826464,0.1857967721499565,-0.9825881942394062,2.2736310696096673,0.24958194264760863,,,,,,,,,,,-0.6346599364277328,-0.3692578335942022,0.7342646543155522,0.1613800000000083,0.019160264011406802,-0.007329999999910797,-808.6234365532977,519.0397111251905,960.8715230810965,False,,
2023-06-29 09:48:59.228911-07:00,13.456746,2.12,-1.07,-1.83,0.01,24.17,859.72,58.54,27.0,0.0,-0.000724444,0.000596893,-9.42391e-06,33.9942714,-106.894667,1432.5836399999998,-12.5798939,-0.196280666,-3.63655766,1.89352,-3.35887,14157.7,30.9369,11772.0,0.738275,0.529021,19.0,-1285.0,89.0,,0.0,,2023-06-29 16:48:59.228911+00:00,1.007320692827731,0.013535091690935126,2.1195108142371013,-2.0185175733242917,-0.6464618301562999,0.00999057609,377.7584770451879,0.25361112515329204,0.18890815806208294,2.1433232052483104,375.3523811028285,-2.064022842714812,-0.572624878806729,-0.008641618982000004,0.19038375174847363,0.254352098403505,0.6358926362397126,0.7717775295874508,-1.9570943943233623,0.16993951624678585,,,,,,,,,,,-0.6569287051521182,-0.36925783419485364,0.753595827859412,0.15673999999989974,0.019331173543859825,-0.004640000000108557,-808.6457053220221,519.0397111245899,960.8902634848831,False,,
2023-06-29 09:49:00.228311-07:00,14.456146,1.48,-0.69,-1.31,-0.09,24.18,859.7,58.58,28.0,0.0,-0.00027732,9.2864e-05,0.000121277,33.9942712,-106.894667,1432.57937,-12.5375013,-0.19202593,-3.63182379,1.89181,-2.09903,14178.7,30.9458,11741.0,0.649206,-1.0,16.0,-1268.0,89.0,,0.0,,2023-06-29 16:49:00.228311+00:00,1.0072633810452245,0.01353444347816989,1.4805913060869142,-1.4284532671574146,-0.3894507404120099,-0.089878723,375.25036143642114,0.24884572611824615,0.175070523904227,1.6982044492152641,373.51617467282017,-1.6509386432183155,-0.3950507600379694,-0.003917022280000004,0.18002231203785318,0.250669476985084,0.3175322816794189,0.9482474624756252,-1.6909397483487643,0.226124959135271,,,,,,,,,,,-0.6791974745917729,-0.36925783481692137,0.7730850910899283,0.1524699999999939,0.01948926323051625,-0.004269999999905849,-808.6679740914617,519.0397111239678,960.9090040398419,False,,
2023-06-29 09:49:01.228600-07:00,15.456435,2.24,-0.94,-2.02,0.21,24.21,859.69,58.41,31.0,0.0,-0.000143588,-9.73051e-05,-0.000329314,33.9942711,-106.894667,1432.5729,-12.5032816,-0.201314151,-3.63103802,1.89348,-2.61147,14193.2,30.9465,11754.0,0.669386,-1.0,14.0,-1253.0,89.0,,0.0,,2023-06-29 16:49:01.228600+00:00,1.0071500451758624,0.013532696433534884,2.228129569617247,-2.1756959941066585,-0.4805292085097215,0.209670686,372.4545349552393,0.25553413694356636,0.19345333054250088,2.141932711104248,372.6068806824918,-2.089592979443806,-0.4527262430107169,0.18978353038,0.19139981476227674,0.25484145307025063,0.560989649549943,-0.8278228150382376,1.4758380061186653,0.18473652133721244,,,,,,,,,,,-0.6903318584771941,-0.3692578348770382,0.7828853194732002,0.14599999999995816,0.00980022838327188,-0.006470000000035725,-808.6791084753471,519.0397111239076,960.9183743732199,False,,
2023-06-29 09:49:02.228652-07:00,16.456487,2.14,-1.09,-1.84,0.09,24.17,859.7,58.62,36.0,0.0,2.64293e-05,-0.000216505,-0.000767772,33.9942709,-106.894667,1432.57998,-12.4560229,-0.199345048,-3.63407373,1.89412,-2.02013,14173.5,30.9535,11754.0,0.646087,-1.0,14.0,-1253.0,89.0,,0.0,,2023-06-29 16:49:02.228652+00:00,1.007297259135533,0.01353501277672171,2.1388184944414093,-2.032008619799983,-0.667447017540107,0.089232228,378.1836259423795,0.2534714952476407,0.1896612453707454,2.09190549641606,376.42846306059744,-1.993812219008658,-0.5880421779339259,0.13967051608,0.18870901239126886,0.25332464137681965,0.9926314079320712,0.12117296722781934,-0.8253052776783562,0.1859754184835758,,,,,,,,,,,-0.7126006291248086,-0.36925783615606256,0.8025901857060866,0.1530800000000454,0.019704866232886475,0.007080000000087239,-808.7013772459948,519.0397111226287,960.9371151546966,False,,
2023-06-29 09:49:03.228308-07:00,17.456143,1.63,-0.48,-1.52,0.36,24.74,859.7,56.58,35.0,0.0,-0.000293178,0.00010872,-0.000465917,33.9942707,-106.894667,1432.5751,-12.4142838,-0.194981471,-3.62735899,1.89286,-2.02391,14184.0,30.9621,11793.0,0.591205,-1.0,15.0,-1276.0,89.0,,0.0,,2023-06-29 16:49:03.228308+00:00,1.0053698381489027,0.013502640527985482,1.593906567853017,-1.5875415522440486,-0.1423023785589725,0.359534083,365.122129643648,0.25029346103508504,0.1789005242858067,1.6968629459287943,365.820202317638,-1.687688035182214,-0.16930573500022544,0.33748563460000003,0.1813921154953971,0.2512427025201466,0.3476955509261659,0.9376074892331812,-1.6412557920819393,0.22195534947210993,,,,,,,,,,,-0.7348693977358873,-0.3692578367428224,0.8224259126053207,0.14820000000008804,0.019835726899234074,-0.004879999999957363,-808.7236460146058,519.0397111220419,960.9558560853928,False,,
2023-06-29 09:49:04.228771-07:00,18.456606,1.97,-0.59,-1.87,0.19,24.12,859.71,58.83,30.0,0.0,-0.000237816,-0.000561917,-0.00191316,33.9942705,-106.894667,1432.57559,-12.3847865,-0.193672075,-3.64168039,1.89402,-2.25845,14170.3,30.9714,11783.0,0.55337,-1.0,17.0,-1314.0,89.0,,0.0,,2023-06-29 16:49:04.228771+00:00,1.007478402593127,0.013537899477494536,1.9614480820321214,-1.9535864692210005,-0.17543798272926164,0.18808684,365.13156944414175,0.2536499711358513,0.1878216291553742,1.9795388283254869,363.94775344068387,-1.971687282216432,-0.1385971778593932,0.1947086866,0.18833499435602274,0.2539341631215226,0.9209190870451424,-0.38975381347196786,0.6408358507167289,0.16431739036175566,,,,,,,,,,,-0.757138167658492,-0.3692578376404066,0.8423832593209147,0.14868999999998778,0.019957346715594015,0.0004899999998997373,-808.7459147845284,519.0397111211444,960.9745971675758,False,,
2023-06-29 09:49:05.228599-07:00,19.456434,2.1,-0.7,-1.95,0.31,24.42,859.71,57.73,27.0,0.0,-0.00055616,0.000276321,-0.00184302,33.9942703,-106.894667,1432.57449,-12.3493371,-0.193262942,-3.63550027,1.89037,-1.26668,14178.5,30.9802,11760.0,0.379063,-1.0,13.0,-1252.0,89.0,,0.0,,2023-06-29 16:49:05.228599+00:00,1.006462696975027,0.013520834316768721,2.0716326044733435,-2.0543142813417337,-0.2673097106212282,0.30815698,367.41373733002956,0.25445617112511687,0.19062925879896223,2.166569971719068,365.80260475650505,-2.1507672498562664,-0.2111706109789774,0.236711268,0.1933466628568285,0.2557260487534541,0.44494621490546793,0.8955572934443096,-2.02009486116431,0.20863956576386913,,,,,,,,,,,-0.7794069373902623,-0.36925783844595905,0.8624537815476551,0.14759000000003653,0.020070522226740328,-0.001099999999951251,-808.7681835542602,519.0397111203388,960.99333840019,False,,
2023-06-29 09:49:06.228404-07:00,20.456239,2.0,-0.8,-1.77,0.45,24.84,859.7,56.32,28.0,0.0,-0.000242383,-0.000107941,0.000125683,33.9942703,-106.894667,1432.5801,-12.3163298,-0.193680342,-3.64326606,1.89126,-1.19974,14173.9,30.9889,11796.0,0.297648,-1.0,15.0,-1272.0,89.0,,0.0,,2023-06-29 16:49:06.228404+00:00,1.0050324543983915,0.013496977464199414,1.9425514375184518,-1.9000181463718844,-0.4042735841760528,0.450125683,372.01189393516455,0.2524672972837192,0.18668740387449706,2.2283656666205176,360.10503730060617,-2.202013242828366,0.012103901977131737,0.353308636,0.1951820186793532,0.25703463176419694,0.4068157021904843,-0.9135102541576987,2.0164857344968303,0.2169143433953518,,,,,,,,,,,-0.7794069380756532,-0.36925783877067514,0.8624537823060753,0.1531999999999698,7.584202155186404e-10,0.0056099999999332795,-808.7681835549456,519.0397111200141,960.9933384005915,False,,
2023-06-29 09:49:07.228510-07:00,21.456345,2.73,-0.43,-2.69,0.11,24.24,859.7,58.3,33.0,0.0,0.000485603,0.000570616,-0.00331807,33.99427,-106.894667,1432.56594,-12.2731616,-0.188872517,-3.62876755,1.88976,-1.05658,14169.3,30.9981,11765.0,0.12028,-1.0,17.0,-1258.0,89.0,,0.0,,2023-06-29 16:49:07.228510+00:00,1.007060160348958,0.013531028712299465,2.7236085943521067,-2.7193563784889205,0.15213369778020913,0.10668193,356.7979400888118,0.2639927863286447,0.2106605207134897,2.6475932490993013,357.3063030257838,-2.637362515659831,0.11577900329964426,0.17733476399999998,0.20808755234116577,0.26272578420430814,0.7615575954976587,-0.6480972371024464,1.7974397389986865,0.1635312775166147,,,,,,,,,,,-0.8128100907402616,-0.36925783925490446,0.8927550590505735,0.1390400000000227,0.03030127674449823,-0.014159999999947104,-808.8015867076102,519.0397111195298,961.0214505305242,False,,
2023-06-29 09:49:08.228957-07:00,22.456792,2.57,-0.24,-2.55,0.14,24.48,859.7,57.54,38.0,0.0,7.3679e-05,6.16408e-05,-0.00251192,33.9942697,-106.894667,1432.57083,-12.2387777,-0.194888283,-3.63567265,1.88744,-0.900043,14183.1,31.0066,11731.0,-0.0419303,-1.0,15.0,-1243.0,89.0,,0.0,,2023-06-29 16:49:08.228957+00:00,1.0062480969195868,0.013517387204731366,2.5612168217797726,-2.542860309622306,0.30609321115508237,0.13748808,353.13612654167724,0.2619048647920601,0.20516495832638368,2.4926415346574413,353.15563565493767,-2.467197791164166,0.2958183745593241,0.167596796,0.2028633038457522,0.2608492235550056,0.6416676743827406,-0.7669827870638591,2.082115326548053,0.1747080456109004,,,,,,,,,,,-0.8462132457834743,-0.36925784084177904,0.9232703885441877,0.14392999999995482,0.03051532949361424,0.004889999999932115,-808.8349898626534,519.0397111179429,961.0495630005335,False,,
2023-06-29 09:49:09.229426-07:00,23.457261,2.07,-0.7,-1.93,0.32,24.68,859.7,56.78,37.0,0.0,2.50263e-05,0.000147034,-0.00292405,33.9942696,-106.894667,1432.57339,-12.2051967,-0.18576231,-3.63206461,1.88851,0.628672,14187.9,31.0156,11793.0,-0.22605,-1.0,14.0,-1258.0,89.0,,0.0,,2023-06-29 16:49:09.229426+00:00,1.0055723771486305,0.013506040693609852,2.052873098503482,-2.0342180545102426,-0.27612472772979024,0.31707595,367.7300828085967,0.2539578011926893,0.19056709704522107,2.1109593993659153,370.6213091114016,-2.0676082875085986,-0.38348966969432685,0.22125571800000002,0.1915284537248764,0.25412011450054706,0.9858220169321471,-0.16779437097779387,-0.031119527619725307,0.1862734365461421,,,,,,,,,,,-0.8573476306981511,-0.3692578414245672,0.9334861077259072,0.14649000000008527,0.010215719181719485,0.002560000000130458,-808.8461242475681,519.0397111173602,961.0589338990119,False,,
2023-06-29 09:49:10.228556-07:00,24.456391,2.32,-0.26,-2.3,0.22,24.3,859.71,58.14,31.0,0.0,0.000274263,0.000355217,-0.00285837,33.9942696,-106.894668,1432.56875,-12.1734158,-0.189059758,-3.63932263,1.88864,0.233335,14190.8,31.0245,11784.0,-0.409109,-1.0,16.0,-1269.0,89.0,,0.0,,2023-06-29 16:49:10.228556+00:00,1.0068687333631157,0.013527655112898539,2.3143229295666248,-2.3027531451913155,0.23112458681271442,0.21714163,354.2684857414192,0.2583858341647779,0.19816761463391244,2.419061184065628,356.9518946998761,-2.40737932735124,0.11661960080528391,0.172817766,0.20135657811617644,0.25945036213413714,0.79152521183909,-0.6111365142282728,1.5635447647746334,0.1590733337101899,,,,,,,,,,,-0.8573476300745798,-0.4615723017386065,0.9737011597645213,0.14184999999997672,0.040215052038614085,-0.004640000000108557,-808.8461242469446,518.9473966570462,961.0090807096618,False,,
2023-06-29 09:49:11.228687-07:00,25.456522,2.18,-0.45,-2.13,0.13,24.31,859.71,58.11,28.0,0.0,0.000248362,-0.000434529,-0.00105314,33.9942697,-106.894668,1432.56973,-12.144357,-0.197693831,-3.64165515,1.88626,0.363283,14209.8,31.0337,11737.0,-0.527879,-1.0,15.0,-1245.0,89.0,,0.0,,2023-06-29 16:49:11.228687+00:00,1.0068348844848343,0.013527086445151023,2.1774517788182295,-2.177435503617569,0.008418827969274621,0.12894686,359.7784729298815,0.2561838803724754,0.1946662275138135,2.177259836829509,358.14408980103184,-2.1713470921882703,0.07230118309938606,0.148169306,0.19451313415112043,0.2562909613265775,0.8681917425924973,0.4962288767234358,-1.014713838386729,0.1596214154003054,,,,,,,,,,,-0.8462132456375648,-0.46157230126624765,0.9639117420120378,0.14283000000000357,-0.009789417752483542,0.0009800000000268483,-808.8349898625075,518.9473966575184,960.9997093253975,False,,
2023-06-29 09:49:12.228937-07:00,26.456772,1.72,-0.58,-1.57,0.39,24.54,859.7,57.38,27.0,0.0,-0.000558697,0.000169792,0.0010759,33.9942697,-106.894668,1432.5743699999998,-12.1154826,-0.197638393,-3.63143454,1.8857,0.593815,14199.1,31.0423,11737.0,-0.67066,-1.0,15.0,-1245.0,89.0,,0.0,,2023-06-29 16:49:12.228937+00:00,1.0060452856534536,0.013513981210131252,1.6736197850980536,-1.6565929121758018,-0.23812414493400585,0.39107590000000003,368.1798542122627,0.25009958306012153,0.18150900712557136,1.927861196024106,364.5031630942625,-1.9200243257454015,-0.14037753543221113,0.22374710520000002,0.1881060019854921,0.25302341659688116,0.2907756808635702,0.9567912538366596,-1.877880855470081,0.23217554401195264,,,,,,,,,,,-0.8462132462530377,-0.4615723016019612,0.9639117427131159,0.14746999999988475,7.010780844751707e-10,0.004639999999881184,-808.8349898631229,518.9473966571828,960.9997093257341,False,,
2023-06-29 09:49:13.228721-07:00,27.456556,1.77,-0.61,-1.62,0.39,24.98,859.7,55.79,29.0,0.0,-0.000325416,-0.000375228,-0.00254344,33.9942696,-106.894667,1432.57205,-12.0798843,-0.196287142,-3.64403516,1.88618,1.40954,14185.8,31.0516,11799.0,-0.774171,-1.0,13.0,-1293.0,89.0,,0.0,,2023-06-29 16:49:13.228721+00:00,1.0045604973876383,0.01348905731030934,1.7314596253576702,-1.7121611076728989,-0.25779211705565264,0.38745656,368.562441728323,0.2504935058723218,0.18290497117534107,1.8910174938925697,365.39639171279725,-1.8783029823361037,-0.17492747799396088,0.313271022,0.1870531244798634,0.2523689275764402,0.7554714135454192,-0.6551816109413375,1.0984768647348544,0.15209622270189674,,,,,,,,,,,-0.8573476305180681,-0.36925784134700573,0.9334861075298315,0.14515000000005784,-0.03042563518328434,-0.002319999999826905,-808.846124247388,519.0397111174377,961.0589338989021,False,,
2023-06-29 09:49:14.228353-07:00,28.456188,1.81,-0.31,-1.78,0.04,23.8,859.71,59.93,34.0,0.0,-0.000107647,0.000336028,-0.00134624,33.9942695,-106.894667,1432.5722899999998,-12.0536712,-0.197652098,-3.64557165,1.8875,0.628345,14180.0,31.06,11749.0,-0.800466,-1.0,15.0,-1271.0,89.0,,0.0,,2023-06-29 16:49:14.228353+00:00,1.0085640839833603,0.013556150807333564,1.8064528708951897,-1.8051559056796889,0.06844071124130095,0.03865376,357.828726839366,0.2520388567168294,0.18523392068365796,1.7914882198685802,360.41185468186984,-1.7831978337283645,-0.018016729263052995,0.100002946,0.18473178236678925,0.2516349362273319,0.952326991841231,0.3050791710534036,-0.5611743345199756,0.1691672639564007,,,,,,,,,,,-0.8684820151235073,-0.3692578417955085,0.9437226098385398,0.14538999999990665,0.010236502308708317,0.0002399999998488056,-808.8572586319934,519.0397111169892,961.0683048348183,False,,
2023-06-29 09:49:15.229283-07:00,29.457118,1.97,-0.52,-1.89,0.13,23.94,859.7,58.62,37.0,0.0,0.000189088,0.000578451,-0.00165452,33.9942694,-106.894667,1432.5695999999998,-12.0169042,-0.198184508,-3.63996682,1.88295,1.49108,14183.1,31.0687,11739.0,-0.81553,-1.0,14.0,-1256.0,89.0,,0.0,,2023-06-29 16:49:15.229283+00:00,1.0080770846752722,0.013548120137783842,1.9596410282492882,-1.9562686390521058,-0.11491723743263937,0.12834548,363.3618668988429,0.2531485766964176,0.18916157456360944,1.7497065750056955,356.6266949724172,-1.7376873461049018,0.08778688018921002,0.1023219692,0.1838676211281663,0.25136722272145684,0.9505055071793421,-0.31070770962713745,0.6233547684342502,0.167880294702477,,,,,,,,,,,-0.8796164000340635,-0.36925784207441803,0.9539792267876389,0.14269999999987704,0.010256616949099073,-0.002690000000029613,-808.868393016904,519.0397111167104,961.0776758087073,False,,
2023-06-29 09:49:16.229169-07:00,30.457004,1.95,-0.45,-1.89,0.14,23.79,859.71,60.02,33.0,0.0,8.01851e-05,-0.000169536,-0.000781405,33.9942694,-106.894667,1432.57278,-11.9818194,-0.19566963,-3.6353912,1.88276,1.87696,14155.7,31.078,11783.0,-0.859295,-1.0,11.0,-1259.0,89.0,,0.0,,2023-06-29 16:49:16.229169+00:00,1.0085980492316924,0.013556721970114066,1.9430004954537037,-1.9424136831526653,-0.047749438055698167,0.139218595,361.40819147225506,0.25307990907714756,0.18890343733094755,1.818045152740444,359.2677486972596,-1.8136268846510855,0.018928893835690415,0.109803724,0.18573929880042075,0.2518945794289643,0.9039881724986002,0.4275574627844087,-0.7583182130930638,0.1586162746691938,,,,,,,,,,,-0.8796164004725251,-0.36925784225848163,0.9539792272631681,0.14588000000003376,4.755291715952126e-10,0.003180000000156724,-808.8683930173424,519.0397111165263,961.0776758089769,False,,
2023-06-29 09:49:17.228254-07:00,31.456089,1.63,-0.51,-1.55,-0.12,23.87,859.69,59.68,28.0,0.0,-0.000335153,-0.000331424,-0.000234427,33.9942693,-106.894667,1432.5751,-11.9525986,-0.196908873,-3.63633823,1.88003,2.65074,14132.4,31.0867,11793.0,-0.868768,-1.0,14.0,-1265.0,89.0,,0.0,,2023-06-29 16:49:17.228254+00:00,1.0083029339219394,0.013552074908859929,1.6321135509725853,-1.6223485157875563,-0.17826928111779208,-0.12023442699999999,366.27070143406814,0.24956231861696218,0.1812963540601,1.4429137434748496,355.9798874099125,-1.4246143923668761,0.07846036756206021,-0.03795929771999999,0.1772710932954561,0.2483768939040374,0.7031400448298993,-0.7110513886890365,1.0681426684038124,0.153138026003118,,,,,,,,,,,-0.890750785370499,-0.3692578428273781,0.9642553168781023,0.14820000000008804,0.010276089614934203,0.0023200000000542786,-808.8795274022405,519.0397111159574,961.0870468203223,False,,
2023-06-29 09:49:18.228500-07:00,32.456335,1.22,-0.15,-1.21,-0.02,24.25,859.69,58.33,27.0,0.0,0.000151086,-0.000557466,0.00160334,33.9942696,-106.894667,1432.57083,-11.9328925,-0.194279382,-3.63667615,1.87981,3.07847,14126.3,31.095,11746.0,-0.892455,-1.0,12.0,-1281.0,89.0,,0.0,,2023-06-29 16:49:18.228500+00:00,1.0070145845107412,0.013530420328087355,1.2198303493299778,-1.215424789685039,0.10357925354806613,-0.018396660000000002,355.12898742084514,0.24670458306916843,0.17322221090013284,1.0841567301191881,348.65820892936324,-1.0576566570349926,0.20093198717195931,0.041070823299999996,0.1707256160035929,0.24581177165900678,0.9651802126720602,0.261585850279247,-0.08273243782275311,0.15993031458669932,,,,,,,,,,,-0.8573476303541118,-0.36925784127639016,0.9334861073513148,0.14392999999995482,-0.030769209526787522,-0.004270000000133223,-808.846124247224,519.0397111175083,961.0589338988021,False,,
2023-06-29 09:49:19.228534-07:00,33.456369,1.25,-0.26,-1.18,-0.3,23.82,859.69,59.8,30.0,0.0,0.000231893,1.36783e-05,-0.00133473,33.9942695,-106.894667,1432.5726599999998,-11.9092638,-0.195323345,-3.63655381,1.87949,3.08463,14112.4,31.1034,11779.0,-0.910667,-1.0,11.0,-1266.0,89.0,,0.0,,2023-06-29 16:49:19.228534+00:00,1.0084726990386048,0.013554929459524957,1.2082888507174572,-1.2082417898297357,-0.010664149152664542,-0.30133473,360.5056892405584,0.24643229236939557,0.17319369921398048,1.1930835922901832,359.0062646280534,-1.1922387651762392,0.018607369140956283,-0.2551214146,0.17294206766175893,0.24637573702341137,0.0588830478623626,-0.9982648880304459,1.191265756031935,0.2455222320060241,,,,,,,,,,,-0.8684820151738776,-0.3692578418169247,0.9437226098932738,0.14575999999988198,0.01023650254195907,0.0018299999999271677,-808.8572586320438,519.0397111169679,961.0683048348491,False,,
2023-06-29 09:49:20.228147-07:00,34.455982,0.72,-0.13,-0.68,-0.19,23.81,859.68,59.91,35.0,0.0,-6.44001e-05,9.29966e-05,-0.000643014,33.9942696,-106.894667,1432.5785199999998,-11.8826247,-0.196644755,-3.63805692,1.87906,2.81076,14113.0,31.1125,11800.0,-0.929724,-1.0,12.0,-1296.0,89.0,,0.0,,2023-06-29 16:49:20.228147+00:00,1.0084949278718087,0.01355546092894203,0.6922207884354437,-0.6921035717173978,0.012738365601916407,-0.190643014,358.94557372685244,0.24353594136993678,0.1660669404527845,0.9886467608461894,369.87434404573656,-0.9502327487270031,-0.1821717593508073,-0.17048872001999998,0.16938800237308665,0.24461991811529743,0.8221183823238647,0.5693165775253624,-0.6907500084603531,0.13925996731889378,,,,,,,,,,,-0.8573476313875736,-0.3692578417215,0.9334861084765553,0.1516199999998662,-0.010236501416718502,0.005859999999984211,-808.8461242482575,519.0397111170632,961.0589338994317,False,,
2023-06-29 09:49:21.228474-07:00,35.456309,1.75,-1.63,-0.56,0.27,24.98,859.68,55.86,37.0,0.0,-0.000124413,-0.000557509,0.00190445,33.9942698,-106.894667,1432.58303,-11.8518596,-0.196123505,-3.63397279,1.88133,3.39349,14110.2,31.1212,11776.0,-0.944615,-1.0,14.0,-1263.0,89.0,,0.0,,2023-06-29 16:49:21.228474+00:00,1.004537127363272,0.013488978985652296,1.7239063269807724,-0.8833919664387232,-1.4803620022939872,0.27190445,419.1737611030819,0.24300023639289073,0.16842862926376373,1.553535983922896,412.7942581458451,-0.9283774469754794,-1.2378586767410271,0.2395991596,0.16913544176835474,0.24339611989953253,0.9759931134842992,-0.21780138298739965,-1.005939652080459,0.16152528408451947,,,,,,,,,,,-0.8350788628098134,-0.36925784111332405,0.9130761525389894,0.1561300000000756,-0.020409955937565893,0.004510000000209402,-808.8238554796798,519.0397111176715,961.0401921408541,False,,
2023-06-29 09:49:22.228242-07:00,36.456077,1.72,-1.32,-1.08,0.23,24.71,859.69,57.52,34.0,0.0,-0.000291361,-0.000381097,-0.000296295,33.9942698,-106.894667,1432.57559,-11.836445,-0.200402129,-3.63149827,1.87535,4.06162,14127.2,31.1303,11732.0,-0.965683,-1.0,14.0,-1239.0,89.0,,0.0,,2023-06-29 16:49:22.228242+00:00,1.005459401844808,0.013504301132279514,1.7060000041651102,-1.3281738025919418,-1.0706962054288873,0.229703705,398.8737334060288,0.24557231704423377,0.1756331533524508,1.6118372821049203,398.5410845146359,-1.243817897415633,-1.000329025025755,0.28831732686,0.17416067319140177,0.24520184043097695,0.7944243342723978,-0.6073631344721686,-0.03923658287250109,0.14234768179440105,,,,,,,,,,,-0.8350788618359195,-0.3692578406826845,0.9130761514741328,0.14868999999998778,-1.0648566473037135e-09,-0.007440000000087821,-808.8238554787058,519.039711118102,961.0401921402669,False,,
2023-06-29 09:49:23.228884-07:00,37.456719,1.29,-0.95,-0.88,0.06,24.26,859.69,58.23,29.0,0.0,-2.70197e-05,-0.000926652,0.000493492,33.9942699,-106.894667,1432.57424,-11.8191251,-0.196576428,-3.632234,1.87589,4.25589,14160.1,31.1387,11772.0,-0.967047,-1.0,11.0,-1277.0,89.0,,0.0,,2023-06-29 16:49:23.228884+00:00,1.006980725037808,0.01352985142373339,1.295723086879054,-1.0568514806669493,-0.7496420917234178,0.060493491999999996,395.34870316924497,0.2443320856373226,0.17102343442657597,1.3420331332031215,392.0544971820474,-1.1215338705619025,-0.7195707509956172,0.1270707424,0.17207596874560616,0.24472962458786957,0.9995751644112368,-0.02914602360955645,-0.6865767990616468,0.17192991750420486,,,,,,,,,,,-0.8239444763743455,-0.3692578401699332,0.9029041215293894,0.1473399999999856,-0.010172029944743421,-0.0013500000000021828,-808.8127210932442,519.0397111186148,961.0308213165451,False,,
2023-06-29 09:49:24.228625-07:00,38.45646,1.13,-0.77,-0.82,0.09,24.18,859.69,58.38,27.0,0.0,-0.000200145,0.000605521,0.00301764,33.99427,-106.894667,1432.57974,-11.7970327,-0.192180014,-3.63462852,1.87568,4.92263,14180.9,31.1474,11779.0,-0.96853,-1.0,15.0,-1271.0,89.0,,0.0,,2023-06-29 16:49:24.228625+00:00,1.0072516645931942,0.013534404025227502,1.1244431013280307,-0.959497345840487,-0.5862909955382745,0.09301764,391.42658759521436,0.24396380353810307,0.16968891885746576,1.129895978525181,388.71896006787927,-0.9837033079831201,-0.542704909314016,0.049033276,0.17003942686373202,0.24413445940295658,0.9494777835029764,0.31383425344323884,-0.8240060476621827,0.1551663179487564,,,,,,,,,,,-0.8128100924985062,-0.3692578400536711,0.8927550609817526,0.15283999999996922,-0.010149060547636757,0.005499999999983629,-808.8015867093684,519.039711118731,961.0214505315726,False,,
2023-06-29 09:49:25.228683-07:00,39.456518,1.28,-0.69,-1.07,0.14,24.24,859.69,58.19,27.0,0.0,0.000364144,0.000162,0.00204893,33.9942699,-106.894667,1432.5764399999998,-11.7745344,-0.18679348,-3.63361647,1.87496,4.35144,14166.9,31.1559,11735.0,-0.973451,-1.0,14.0,-1263.0,89.0,,0.0,,2023-06-29 16:49:25.228683+00:00,1.0070484462607836,0.013530989281238285,1.2729030706041364,-1.1881253211496094,-0.4567717683883019,0.14204893000000002,381.0291293231758,0.24535699520692156,0.17334559335479918,1.2185146255875534,386.65530923704677,-1.0877049087050081,-0.5431826085765948,0.0955486978,0.1717282115071102,0.24465381663811434,0.4064699474642008,-0.9136641515395304,0.7730095761657476,0.2061940256671945,,,,,,,,,,,-0.8239444766584851,-0.36925784029727277,0.9029041218407584,0.1495399999998881,0.010149060859005798,-0.003300000000081127,-808.8127210935285,519.0397111184875,961.0308213167156,False,,
2023-06-29 09:49:26.228432-07:00,40.456267,1.04,-0.55,-0.8,0.39,24.59,859.69,57.09,33.0,0.0,0.000262134,-5.26375e-05,0.00115356,33.9942698,-106.894667,1432.5730199999998,-11.7440564,-0.194056492,-3.62821405,1.87594,4.84567,14154.4,31.165,11757.0,-0.975132,-1.0,11.0,-1264.0,89.0,,0.0,,2023-06-29 16:49:26.228432+00:00,1.0058646383875007,0.013511104914610378,0.9707715334126727,-0.8952530147682287,-0.37539234093517354,0.39115356,382.7489982576048,0.24373070756798434,0.16900031775585436,1.0551394899702267,383.24020524912953,-0.9539640530351573,-0.4225337820736197,0.2871438952,0.16984121915624242,0.24399044865115943,0.19687382304412143,0.9804288336233242,-1.0184797048779635,0.2346259162829081,,,,,,,,,,,-0.8350788614995074,-0.36925784053392874,0.9130761511062995,0.14611999999988257,0.01017202926554106,-0.0034200000000055297,-808.8238554783694,519.0397111182508,961.0401921400642,False,,
2023-06-29 09:49:27.229099-07:00,41.456934,0.87,0.25,-0.77,0.31,24.26,859.68,58.35,37.0,0.0,-0.000118382,-0.000576381,-0.000291635,33.9942697,-106.894667,1432.5681399999999,-11.7196866,-0.201687286,-3.63410881,1.87329,5.01677,14151.6,31.1736,11798.0,-0.980022,-1.0,13.0,-1290.0,89.0,,0.0,,2023-06-29 16:49:27.229099+00:00,1.0069690117373737,0.01352981200030611,0.8100098407799291,-0.7037433143555656,0.40107516709485985,0.309708365,330.3204561596803,0.243523677861755,0.1668081848210826,1.0414167076765262,356.15466069508227,-1.0077051570940179,0.03753445336678847,0.2878071432,0.1708551317133965,0.24479829526945704,0.9795524896360241,-0.20118876720102155,0.2395059255004221,0.1642386150419383,,,,,,,,,,,-0.8462132454266593,-0.3692578406860774,0.9232703881548807,0.1412399999999252,0.010194237048581245,-0.004879999999957363,-808.8349898622965,519.0397111180987,961.0495630003172,False,,
2023-06-29 09:49:28.229218-07:00,42.457053,1.27,-0.58,-1.08,0.3,24.69,859.7,56.69,36.0,0.0,0.00019782,-1.29586e-05,0.000428378,33.9942697,-106.894667,1432.5650899999998,-11.7008573,-0.198034439,-3.63908694,1.87124,5.57169,14149.5,31.1827,11755.0,-0.980259,-1.0,15.0,-1281.0,89.0,,0.0,,2023-06-29 16:49:28.229218+00:00,1.005538614981791,0.013505473878045928,1.2258435664841125,-1.175195446318257,-0.3487235473026188,0.300428378,376.5275521960368,0.2452444716026579,0.1733944073861282,1.1632507139457533,377.761638704486,-1.1032614349593826,-0.3553046624504868,0.38086797260000005,0.17228022383373962,0.24481485372785888,0.06536692641315583,0.9978612954370447,-1.1241270584189544,0.2437699116959468,,,,,,,,,,,-0.8462132450220919,-0.36925784050953836,0.923270387713473,0.138189999999895,-4.414076881786855e-10,-0.0030500000000301952,-808.834989861892,519.0397111182751,961.0495630000721,False,,
2023-06-29 09:49:29.228685-07:00,43.45652,0.77,-0.36,-0.59,0.34,24.9,859.69,56.01,31.0,0.0,4.18097e-05,0.000669246,0.00374691,33.9942697,-106.894667,1432.5694799999999,-11.6803564,-0.203603727,-3.63656793,1.87033,5.86823,14162.9,31.1915,11784.0,-0.983153,-1.0,6.0,-1267.0,89.0,,0.0,,2023-06-29 16:49:29.228685+00:00,1.0048184446686612,0.013493542759699599,0.6905143359492245,-0.6499957599638005,-0.2330569891260073,0.34374691,379.72537406508854,0.24266421207884395,0.16642617680345706,0.6718346676494318,362.3960913825069,-0.621263036483093,-0.079838574782376,0.361264054,0.16631264938201085,0.24271331932606371,0.9980542655627916,-0.06235128701090742,-0.04094668022097913,0.16566876573485245,,,,,,,,,,,-0.8462132456044037,-0.3692578407636389,0.9232703883488107,0.14257999999995263,6.353376713619241e-10,0.004390000000057626,-808.8349898624743,519.039711118021,961.049563000425,False,,
2023-06-29 09:49:30.228789-07:00,44.456624,0.37,0.0,-0.21,0.3,24.94,859.7,56.66,28.0,0.0,-0.000271019,7.88302e-05,0.00307409,33.9942698,-106.894667,1432.56729,-11.6728456,-0.200179929,-3.63184731,1.86963,6.18071,14175.0,31.1999,11784.0,-0.98453,-1.0,6.0,-1267.0,89.0,,0.0,,2023-06-29 16:49:30.228789+00:00,1.0046952970115623,0.013491319243738044,0.20986811494120836,-0.20557811955884647,0.04221685004384939,0.30307408999999996,348.3952604345408,0.24169748132706678,0.16356841029020838,0.36223023791069214,352.42785272232794,-0.35117268530129514,0.05000248470475142,0.3182814114,0.16431077531657617,0.24200874517733734,0.2792913521362879,0.9602064052181094,-0.32323300020058293,0.22349897937923277,,,,,,,,,,,-0.835078860749452,-0.36925784020226693,0.9130761502861882,0.14039000000002488,-0.01019423806262254,-0.0021899999999277497,-808.8238554776194,519.0397111185824,961.040192139612,False,,
2023-06-29 09:49:31.228566-07:00,45.456401,0.41,0.09,-0.2,0.35,25.65,859.7,54.32,27.0,0.0,-0.000633112,-0.000327253,-0.00288253,33.9942696,-106.894666,1432.56533,-11.6615134,-0.2035814,-3.63126986,1.86871,7.44705,14189.4,31.2089,11776.0,-0.985193,-1.0,13.0,-1288.0,89.0,,0.0,,2023-06-29 16:49:31.228566+00:00,1.0023079688292391,0.0134512846142999,0.21921223618578134,-0.17800736017396893,0.12793507813522326,0.34711747,324.29494537272,0.2416546959400915,0.16353085954184154,0.27286603564935374,340.6108972371911,-0.2414546032529779,0.04744617215969686,0.30388046799999996,0.16384076026107877,0.2417461585719891,0.4591807790708166,-0.8883428460520847,0.23628083974234504,0.1938772022518784,,,,,,,,,,,-0.8573476296149649,-0.2769433815993644,0.900967587995312,0.1384299999999712,-0.012108562290876201,-0.0019600000000536966,-808.8461242464849,519.1320255771853,961.1087933675519,False,,
2023-06-29 09:49:32.228946-07:00,46.456781,0.73,0.14,-0.59,0.4,25.41,859.7,55.04,31.0,0.0,-0.000299156,-9.25156e-05,-0.00116728,33.9942696,-106.894666,1432.56802,-11.6381319,-0.202536308,-3.63089045,1.8651,6.64268,14223.1,31.2173,11738.0,-0.9811,-1.0,13.0,-1255.0,89.0,,0.0,,2023-06-29 16:49:32.228946+00:00,1.0031136826305485,0.013464790300586425,0.6063402867710077,-0.5497206559308355,0.25584320159918233,0.39883272000000003,335.04245655733826,0.24255505942518044,0.16567627638117507,0.49417224191210185,338.7195319919765,-0.44320745584864235,0.1871256914812859,0.37271903404,0.16504078992269394,0.24224433423017078,0.29544968647294256,-0.9553583007244141,0.47870814876712825,0.22156755788563123,,,,,,,,,,,-0.857347629976475,-0.2769433817161406,0.9009675883752148,0.1411200000000008,3.799028869266863e-10,0.002690000000029613,-808.8461242468464,519.1320255770686,961.108793367793,False,,
2023-06-29 09:49:33.228498-07:00,47.456333,1.14,-0.53,-0.96,0.31,24.73,859.7,57.5,36.0,0.0,-2.31714e-05,9.79479e-05,-0.00233573,33.9942695,-106.894666,1432.56899,-11.6182955,-0.202914674,-3.63373025,1.86568,7.1789,14251.3,31.2262,11751.0,-0.981051,-1.0,13.0,-1274.0,89.0,,0.0,,2023-06-29 16:49:33.228498+00:00,1.0054035889827333,0.01350320710098353,1.0964989706930919,-1.046969678522883,-0.3258289198102296,0.30766427,377.2867382830613,0.2442870409783175,0.171638351614875,0.8615907084592382,367.472571093603,-0.8383745825433809,-0.1360160944471954,0.318188742,0.1688852465237447,0.24341600862827323,0.9731399388634288,0.23021437702472483,-0.32536857606837427,0.16045401357443545,,,,,,,,,,,-0.8684820146742596,-0.2769433820842079,0.9115693318080091,0.1420900000000529,0.010601743432794297,0.0009700000000520959,-808.8572586315441,519.1320255767005,961.1181638176987,False,,
2023-06-29 09:49:34.228315-07:00,48.45615,0.45,-0.1,-0.37,0.24,25.28,859.7,55.59,38.0,0.0,0.000252064,0.000580618,-0.00230454,33.9942693,-106.894666,1432.56875,-11.598202,-0.194711007,-3.63321739,1.86389,7.77113,14248.0,31.2351,11787.0,-0.980771,-1.0,14.0,-1297.0,89.0,,0.0,,2023-06-29 16:49:34.228315+00:00,1.0035506520328943,0.013472117439688642,0.38268039836703244,-0.3819692769821414,-0.023318634953418,0.23769546,363.49348326190875,0.24179084350998303,0.164652640960072,0.5597655516664346,364.1376578564747,-0.5346586863410954,-0.0696406125471744,0.278243442,0.16589239319065946,0.24222783749360133,0.9172886356604165,-0.39822300145553075,0.14903284435906888,0.1447739548744062,,,,,,,,,,,-0.8907507844838717,-0.27694338272570584,0.9328100542415855,0.14184999999997672,0.02124072243357633,-0.00024000000007617928,-808.8795274013538,519.132025576059,961.1369048308047,False,,
2023-06-29 09:49:35.228840-07:00,49.456675,0.4,-0.03,-0.2,0.34,25.75,859.7,54.06,34.0,0.0,0.000376734,-8.34887e-05,0.000194652,33.9942693,-106.894666,1432.5688699999998,-11.5799469,-0.202535549,-3.62885096,1.86324,7.63784,14255.5,31.2485,11777.0,-0.980869,-1.0,15.0,-1265.0,89.0,,0.0,,2023-06-29 16:49:35.228840+00:00,1.0019726366215342,0.013445665399462405,0.20234123584019187,-0.2020346537198635,0.011134379984129514,0.34019465200000004,356.84554966498183,0.24143862043015657,0.1639207839299793,0.34409229109444395,350.44503540335637,-0.30406585235122374,0.019614686760832212,0.33264869968,0.1644322620126338,0.24163419512691156,0.2163625035667213,0.9763130988829047,-0.29261959183924435,0.2304512301567228,,,,,,,,,,,-0.8907507845006268,-0.2769433827309151,0.9328100542591318,0.14196999999990112,1.754629774808336e-11,0.0001199999999244028,-808.8795274013705,519.1320255760538,961.136904830816,False,,
2023-06-29 09:49:36.228286-07:00,50.456121,0.81,-0.02,-0.72,0.37,25.56,859.7,54.74,29.0,0.0,-0.000238922,-0.000266357,-0.00412832,33.9942693,-106.894667,1432.56973,-11.5637866,-0.197371644,-3.62172134,1.86027,7.59599,14292.7,31.2575,11768.0,-0.976175,-1.0,13.0,-1256.0,89.0,,0.0,,2023-06-29 16:49:36.228286+00:00,1.0026099597809803,0.01345634600626816,0.7204987356385402,-0.7096610755079642,0.12449733316667677,0.36587168,350.049734388077,0.24289534089477277,0.1674721260674156,0.6418760894163407,332.23927334081816,-0.563449307649806,0.2884434478378547,0.36471428440000003,0.16617467025158586,0.24247380520956963,0.7444038765853053,-0.6677296372969899,0.5909502225783754,0.14201115294865704,,,,,,,,,,,-0.8907507846207054,-0.36925784251655364,0.964255316066436,0.14283000000000357,0.031445261807304226,0.0008600000001024455,-808.8795274014906,519.0397111162682,961.087046819859,False,,
2023-06-29 09:49:37.228715-07:00,51.45655,1.31,-0.55,-1.12,0.38,24.86,859.69,57.89,26.0,0.0,0.000184705,-0.000261705,-0.00579334,33.9942692,-106.894667,1432.5718,-11.5430458,-0.199331735,-3.62661001,1.86177,8.80223,14298.2,31.2664,11796.0,-0.977685,-1.0,17.0,-1300.0,89.0,,0.0,,2023-06-29 16:49:37.228715+00:00,1.0049533151018235,0.01349580622695134,1.247964660989746,-1.2076665547786847,-0.31457477258711253,0.37420666,374.6000532021112,0.2451344200428266,0.1745279729625921,1.1509329340070795,372.8990210256786,-1.1172429603996676,-0.26354310048163093,0.432267496,0.1730755271538749,0.24462335865290186,0.817008957398912,0.5766249765054778,-0.8595472695455428,0.14128853696232305,,,,,,,,,,,-0.9018851701903329,-0.36925784307097986,0.9745502628795901,0.1449000000000069,0.010294946813154127,0.002070000000003347,-808.8906617870603,519.0397111157138,961.0964178693997,False,,
2023-06-29 09:49:38.229434-07:00,52.457269,1.16,-0.24,-1.06,0.41,25.05,859.71,56.43,29.0,0.0,-0.000470537,-0.000125185,-0.00399431,33.9942691,-106.894667,1432.5729,-11.5236759,-0.199599648,-3.6352941,1.86073,9.50243,14290.0,31.2754,11732.0,-0.981947,-1.0,14.0,-1284.0,89.0,,0.0,,2023-06-29 16:49:38.229434+00:00,1.0043363673335306,0.013485139925507324,1.0869656423068326,-1.0867034395379032,-0.023873459154378975,0.40600569,361.25851121276594,0.24468136291011583,0.17260347939962212,1.1918671767393114,356.8754791448503,-1.1482384191734123,0.06444028388731457,0.442939168,0.1736167822585604,0.24522595871282743,0.25710361031432327,-0.9663838438029376,1.1262068867601194,0.22930334137012257,,,,,,,,,,,-0.9130195549200919,-0.3692578435692608,0.9848634741444641,0.14599999999995816,0.010313211264873945,0.001099999999951251,-808.90179617179,519.0397111152155,961.1057889558851,False,,
2023-06-29 09:49:39.229218-07:00,53.457053,1.38,0.33,-1.25,0.49,24.42,859.69,59.48,34.0,0.0,1.84497e-06,0.000576243,-0.00366997,33.9942691,-106.894667,1432.5753399999999,-11.5041466,-0.202050634,-3.63152522,1.86593,9.43403,14279.3,31.2836,11742.0,-0.972298,-1.0,14.0,-1230.0,89.0,,0.0,,2023-06-29 16:49:39.229218+00:00,1.0064392829703748,0.013520755585399113,1.292310577897027,-1.15849677735762,0.5726708012432246,0.48633002999999997,333.69578561882145,0.24599595637401292,0.1738506577535543,1.3602835528227235,333.6915103296718,-1.2205007345370313,0.5995370474393649,0.47368056799999997,0.17502874430630813,0.24658508632380557,0.9999948745269147,-0.0032017057797595148,0.6034416587843325,0.17502695011892264,,,,,,,,,,,-0.9130195552692975,-0.36925784371049203,0.984863474521148,0.14843999999993684,3.766839062890881e-10,0.0024399999999786814,-808.9017961721393,519.0397111150743,961.1057889561029,False,,
2023-06-29 09:49:40.228754-07:00,54.456589,1.58,0.69,-1.35,0.45,24.5,859.7,58.29,38.0,0.0,5.41339e-05,0.000406384,-0.00614703,33.9942692,-106.894668,1432.5764399999998,-11.4877301,-0.205947845,-3.62891341,1.86794,8.81168,14253.8,31.2921,11742.0,-0.962006,-1.0,14.0,-1230.0,89.0,,0.0,,2023-06-29 16:49:40.228754+00:00,1.0061804840792092,0.01351625167864381,1.5158294492240212,-1.1851305003266392,0.9450950303172319,0.44385297,321.42901488578565,0.24676152734595594,0.17435673389404682,1.4581584799993148,328.0369291457335,-1.2315583597593802,0.766582171281855,0.471953286,0.1752203546141023,0.24686423133857813,0.9912440727996087,-0.13204237251596196,0.9224879213114884,0.17221914779629385,,,,,,,,,,,-0.9018851708462974,-0.46157230446804953,1.0131366411518246,0.1495399999998881,0.028273166630676583,0.001099999999951251,-808.8906617877162,518.9473966543167,961.0465666249801,False,,
2023-06-29 09:49:41.228249-07:00,55.456084,1.57,0.42,-1.4,0.57,24.57,859.71,58.12,36.0,0.0,0.000290682,-0.000232421,-0.0053221,33.9942695,-106.894668,1432.56497,-11.4680915,-0.19945249,-3.6264757,1.87027,9.01935,14244.4,31.3008,11799.0,-0.941595,-1.0,14.0,-1258.0,89.0,,0.0,,2023-06-29 16:49:41.228249+00:00,1.0059556117790502,0.01351231818059912,1.461985030534359,-1.2887769226578627,0.690256671920728,0.5646779,331.8269211717796,0.24714098608277738,0.17624597251629628,1.3820738966549737,332.6166318921707,-1.2147381080093296,0.6403054260684773,0.557431402,0.174968876904747,0.24646964895158363,0.6244908877004804,0.7810320935653451,-0.5488845437071952,0.16510914808180985,,,,,,,,,,,-0.8684820141269941,-0.4615723020083798,0.9835191908871912,0.1380699999999706,-0.02961745026463336,-0.01146999999991749,-808.857258630997,518.9473966567764,961.0184521313298,False,,
2023-06-29 09:49:42.228781-07:00,56.456616,1.44,0.14,-1.29,0.64,24.83,859.69,57.23,31.0,0.0,-0.000638217,-8.17009e-05,0.0013223,33.9942698,-106.894668,1432.57522,-11.451374,-0.201033894,-3.63549386,1.87056,9.75661,14244.5,31.3093,11762.0,-0.909378,-1.0,16.0,-1281.0,89.0,,0.0,,2023-06-29 16:49:42.228781+00:00,1.005054491689021,0.013497504335784102,1.2974592137473107,-1.2366073127156976,0.39268659956236135,0.6413223,342.38267232713065,0.2461867960155881,0.1753732126671124,1.232633199256762,335.77799837232686,-1.1225276547942145,0.5028118274738096,0.597425127,0.17347309509291317,0.24550228455647125,0.1269780872256959,-0.9919055223984306,1.1772874639224213,0.2415601379418951,,,,,,,,,,,-0.8350788617874867,-0.4615723011201967,0.9541518194531087,0.14832000000001244,-0.029367371434082523,0.010250000000041837,-808.8238554786574,518.9473966576645,960.9903379790701,False,,
2023-06-29 09:49:43.228356-07:00,57.456191,1.43,0.56,-1.23,0.47,25.23,859.69,55.95,27.0,0.0,6.60958e-05,2.23239e-05,-0.00685203,33.9942695,-106.894668,1432.5718,-11.4343935,-0.195165452,-3.63604351,1.86525,9.91573,14273.9,31.3185,11728.0,-0.90024,-1.0,13.0,-1262.0,89.0,,0.0,,2023-06-29 16:49:43.228356+00:00,1.0037071433524178,0.013474898664446941,1.351501360214453,-1.0945474491428342,0.7927936731813842,0.46314796999999996,324.0837409769699,0.24567715922101327,0.17306162233752395,1.3004342549181978,329.5141299118003,-1.116423002002203,0.6543124623687497,0.5357313539999999,0.17347690202578048,0.24564664868925568,0.31999183113506835,-0.9474203016649083,1.2670964603104415,0.2212080639407819,,,,,,,,,,,-0.8684820150568009,-0.46157230250254433,0.9835191919401581,0.1449000000000069,0.02936737248704946,-0.0034200000000055297,-808.8572586319267,518.9473966562822,961.0184521318455,False,,
2023-06-29 09:49:44.228923-07:00,58.456758,1.51,0.67,-1.29,0.43,25.11,859.7,56.28,27.0,0.0,0.000118043,0.00064796,-0.00763537,33.9942692,-106.894668,1432.5679,-11.4106924,-0.202329727,-3.63472348,1.8637,10.8488,14307.6,31.3268,11783.0,-0.885251,-1.0,14.0,-1285.0,89.0,,0.0,,2023-06-29 16:49:44.228923+00:00,1.004122648314144,0.01348171136701758,1.4531857492106857,-1.131301267110265,0.9120889565956442,0.42236463,321.12320011016004,0.24609153219361207,0.17374949606769474,1.3432454474715545,326.39668238090496,-1.1053170353224118,0.7394889119824686,0.44318095,0.173387428411357,0.24563781553966918,0.9838078308087118,-0.17922653832358956,0.9256171283954955,0.1680032433975476,,,,,,,,,,,-0.9018851696389834,-0.461572303850163,1.013136639795583,0.1410000000000764,0.02961744785542486,-0.0038999999999305146,-808.8906617865089,518.9473966549346,961.0465666242975,False,,
2023-06-29 09:49:45.229080-07:00,59.456915,1.49,0.54,-1.34,0.38,25.68,859.69,54.46,30.0,0.0,-3.76345e-06,-0.000498834,-0.00499536,33.9942691,-106.894668,1432.57241,-11.392666,-0.200925272,-3.63708422,1.86263,11.1854,14347.1,31.3354,11734.0,-0.876274,-1.0,14.0,-1260.0,89.0,,0.0,,2023-06-29 16:49:45.229080+00:00,1.002195687961364,0.013449559436102017,1.4451291940838629,-1.207428894775693,0.794049023457761,0.37500464,326.6696298147159,0.24645828225306277,0.17507289207049737,1.4385280290644942,320.4739771159974,-1.1030963409620784,0.9037745367063563,0.34160868599999994,0.17359723794881984,0.24591372743382736,0.9999715415218304,-0.007544279054634715,0.9120708832787976,0.1735873580272726,,,,,,,,,,,-0.9130195548499646,-0.4615723047197346,1.0230609463872204,0.14551000000005843,0.009924306591637455,0.004509999999982028,-808.9017961717199,518.947396654065,961.0559381970781,False,,
2023-06-29 09:49:46.229245-07:00,60.45708,1.08,0.4,-1.0,0.1,26.36,859.7,52.38,36.0,0.0,0.00044584,0.000203593,-0.00289424,33.994269,-106.894668,1432.5715599999999,-11.3766779,-0.201774528,-3.6363763,1.86307,11.2025,14370.5,31.3441,11773.0,-0.864536,-1.0,14.0,-1266.0,89.0,,0.0,,2023-06-29 16:49:46.229245+00:00,0.9999319591538733,0.013411491647598016,1.0771066513400585,-0.9012446334633294,0.5898447668790012,0.09710576,326.79613625573876,0.24393377488025791,0.17047264677946689,1.1582864115148614,320.97311346178896,-0.8976864446097549,0.7294405105302656,0.221400184,0.17045309313529947,0.24409776612252712,0.415389173735533,-0.9096437953085323,1.1195765954302324,0.20410929265279984,,,,,,,,,,,-0.9241539393002267,-0.4615723052014993,1.0330099207912542,0.14465999999993073,0.00994897440403375,-0.0008500000001276931,-808.9129305561702,518.9473966535833,961.0653098070405,False,,
2023-06-29 09:49:47.229079-07:00,61.456914,1.51,1.28,-0.72,0.35,23.87,859.69,60.69,38.0,0.0,-2.45596e-05,-0.000384189,-0.00202472,33.9942688,-106.894667,1432.57449,-11.3519882,-0.199952371,-3.64837428,1.8626,11.8063,14383.6,31.3528,11785.0,-0.85477,-1.0,14.0,-1292.0,89.0,,0.0,,2023-06-29 16:49:47.229079+00:00,1.0083029339219394,0.013552074908859929,1.4687002283029407,-0.45434856623036857,1.3966559135955852,0.34797528,288.02031516786343,0.24235219302087227,0.16606145389885144,1.4533775287686335,302.45205343860795,-0.7685791425616177,1.2128566947912005,0.3223981,0.16916339683673928,0.24390616635742632,0.997962985337339,-0.0637956103238,1.2594180634020655,0.16847784654852793,,,,,,,,,,,-0.9464227095869943,-0.3692578449651259,1.0159071322174469,0.14759000000003653,-0.017102788573807315,0.0029300000001057924,-808.9351993264569,519.0397111138196,961.133902441513,False,,
2023-06-29 09:49:48.228194-07:00,62.456029,1.29,0.3,-1.16,0.46,25.48,859.7,55.29,34.0,0.0,0.000189761,-0.000804241,0.000829367,33.9942688,-106.894667,1432.5743699999998,-11.3332683,-0.205197385,-3.64556865,1.86232,11.9734,14339.0,31.3614,11721.0,-0.845722,-1.0,14.0,-1271.0,89.0,,0.0,,2023-06-29 16:49:48.228194+00:00,1.0028785489943295,0.013460848284779503,1.1989718359763906,-1.0792304258344867,0.5222979527221119,0.46082936700000005,334.1751502316992,0.2449128655071122,0.17318435476362662,1.0801342718903548,324.40561356226385,-0.8696954242727243,0.6210350016425716,0.37798789,0.17031013824280358,0.24370397414408732,0.9732745680357137,0.22964454100826137,0.4047167664346378,0.16183967588142126,,,,,,,,,,,-0.9464227095691919,-0.36925784495818015,1.0159071321983375,0.14746999999988475,-1.910938074445312e-11,-0.00012000000015177648,-808.9351993264391,519.0397111138266,961.1339024415018,False,,
2023-06-29 09:49:49.228496-07:00,63.456331,1.2,0.42,-0.98,0.55,25.16,859.69,56.24,29.0,0.0,0.000132991,-0.000402317,-0.00429542,33.9942686,-106.894667,1432.57485,-11.321081,-0.201721343,-3.63921869,1.86787,11.6921,14356.0,31.3698,11754.0,-0.802508,-1.0,14.0,-1252.0,89.0,,0.0,,2023-06-29 16:49:49.228496+00:00,1.0039426684774042,0.013478849079459534,1.0666150876704754,-0.8788850530476875,0.6043416325023945,0.54570458,325.48668933357595,0.2436712111266949,0.17038294134620383,1.1247185619884326,335.22060561433557,-1.0189619949041344,0.4649818306342081,0.5019669419999999,0.17239445101197673,0.24442233273379874,0.9494695289544504,0.31385922574780895,0.12167545691758513,0.157266342418123,,,,,,,,,,,-0.9686914795039792,-0.36925784585518556,1.0366843970993391,0.1479500000000371,0.020777264901001624,0.00048000000015235855,-808.9574680963739,519.0397111129296,961.1526449534898,False,,
2023-06-29 09:49:50.228978-07:00,64.456813,1.65,0.94,-1.3,0.36,24.54,859.7,58.34,27.0,0.0,0.00021249,-0.000236711,-0.00454805,33.9942685,-106.894667,1432.57461,-11.3050222,-0.19832096,-3.63269553,1.86504,12.7568,14360.7,31.3782,11754.0,-0.763481,-1.0,14.0,-1252.0,89.0,,0.0,,2023-06-29 16:49:50.228978+00:00,1.0060452856534536,0.013513981210131252,1.604561125003215,-1.0907432618087234,1.1768158482491855,0.35545194999999996,312.8261958290551,0.24592469375298265,0.17347831228502594,1.553949314842185,324.7805023354622,-1.2245769620389548,0.914025901785485,0.41938791599999997,0.1758723024890215,0.2467168575425081,0.744153122948966,0.6680090789841865,-0.13785329928698176,0.14698922389131597,,,,,,,,,,,-0.9798258640447713,-0.369257846275905,1.0470960227636255,0.14770999999996093,0.010411625664286328,-0.00024000000007617928,-808.9686024809147,519.0397111125088,961.1620162655622,False,,
2023-06-29 09:49:51.229003-07:00,65.456838,1.79,1.1,-1.38,0.31,24.57,859.69,58.32,28.0,0.0,-9.44372e-05,-0.000113107,-0.00422104,33.9942686,-106.894667,1432.57668,-11.2856155,-0.207289541,-3.63980684,1.86579,13.3374,14359.4,31.3865,11792.0,-0.7099,-1.0,14.0,-1282.0,89.0,,0.0,,2023-06-29 16:49:51.229003+00:00,1.0059322095710548,0.013512239558257925,1.7647670414586925,-1.1381592375462741,1.3487016944480161,0.30577896,310.16076842275123,0.24654988521390153,0.17431180046488964,1.7913591075764868,311.6817298018811,-1.1881874338098977,1.3323476323442915,0.30278692,0.17524724768190003,0.24699999167642467,0.767615590828721,-0.6409105278560133,1.7842526503861942,0.14476511611297363,,,,,,,,,,,-0.968691479781853,-0.36925784596110894,1.036684397396717,0.14977999999996428,-0.010411625366908428,0.002070000000003347,-808.9574680966517,519.0397111128236,961.1526449536664,False,,
2023-06-29 09:49:52.228898-07:00,66.456733,1.57,0.47,-1.39,0.56,24.6,859.7,58.26,32.0,0.0,-0.000233977,-0.000730545,-0.00223512,33.9942687,-106.894667,1432.5751,-11.2734202,-0.203022248,-3.64307058,1.86333,12.2765,14360.4,31.3956,11721.0,-0.690308,-1.0,15.0,-1256.0,89.0,,0.0,,2023-06-29 16:49:52.228898+00:00,1.0058425561248585,0.013510576965777949,1.4678266990773858,-1.2720302560421197,0.7324303695491019,0.55776488,330.06681999234297,0.24660837268702654,0.1766436062864265,1.6140202328637603,326.3557336313372,-1.3319046174752878,0.897521162871034,0.48624596119999997,0.17781101083123535,0.2474697988571631,0.9523474517972883,-0.30501529642824743,1.2610032741077446,0.16290362352956225,,,,,,,,,,,-0.9575570942555797,-0.36925784543504486,1.0262879445723412,0.14820000000008804,-0.010396452824375846,-0.001579999999876236,-808.9463337111255,519.0397111133497,961.1432736784361,False,,
