Timestamp,Seconds,S,Um,Vm,Wm,T,P,H,MD,Sts,Vx,Vy,Vz,Lat,Lon,Alt,Yaw,Roll,Pitch,CH4,C2H6,H2O,T_a,Batt,R,C2C1,Power,Current,SOC,Lat_a,Lon_a,TS,Timestamp_UTC,Rho,Rho_err,Sc,V,U,W,WD,V_err,U_err,Sc_avg,WD_avg,V_avg,U_avg,W_avg,U_err_avg,V_err_avg,Nx,Ny,cross_wind,cross_wind_err,CH4_sub,CH4_res,CH4_adj,CH4_adj_err,BG_Samples_CH4,C2H6_sub,C2H6_res,C2H6_adj,C2H6_adj_err,BG_Samples_C2H6
2023-06-29 09:48:45.772165-07:00,0.0,2.88,1.12,-2.61,0.51,24.27,859.7,60.42,28.0,0.0,-0.000271187,0.000567685,0.00141333,33.9942729,-106.894667,1432.66616,-13.1476358,-0.189071095,-3.6183593,,,,,,,,,,,,,,2023-06-29 16:48:45.772165+00:00,1.0069585807483579,0.013529321988296735,2.8395405387185195,-2.2862605738105697,1.6840436632300322,0.51141333,323.6248975356227,0.2640185316727273,0.19456122553968241,,,,,,,,0.9023287175012713,0.4310485884126184,,,,,,,,,,,,
2023-06-29 09:48:45.981412-07:00,0.209247,2.54,0.75,-2.31,0.74,24.66,859.7,59.08,36.0,0.0,-0.0003464,0.000515972,0.000918439,33.9942729,-106.894667,1432.66348,-13.136187,-0.189225736,-3.61202108,,,,,,,,,,,,,,2023-06-29 16:48:45.981412+00:00,1.005639908284398,0.01350717447033879,2.4280826086568834,-2.078587583492803,1.2550134709283263,0.740918439,328.8771824709297,0.260078626613964,0.18868260008706123,,,,,,,,0.8302496829790471,0.5573916611442906,,,,,,,,,,,,
2023-06-29 09:48:46.191949-07:00,0.419784,2.23,0.66,-1.99,0.76,24.68,859.7,58.97,35.0,0.0,0.000185788,0.000243464,0.000703572,33.9942728,-106.894667,1432.6677499999998,-13.1251864,-0.197272907,-3.614771,1.89186,-6.4087,14297.4,30.8208,11744.0,0.852826,0.312007,18.0,-1253.0,89.0,,0.0,,2023-06-29 16:48:46.191949+00:00,1.0055723771486305,0.013506040693609852,2.0964818487298795,-1.7878978299624473,1.094832175116088,0.760703572,328.51847922526446,0.2563458691936824,0.18111278857748192,2.2003710115680324,329.7464692650087,-1.8808898500503997,1.1264475903792357,0.6408452874,0.18379806462707013,0.25769398443286073,0.7949724632971243,-0.606645516425616,2.036528210122415,0.1499544630407423,,,,,,,,,,
2023-06-29 09:48:46.401675-07:00,0.62951,1.92,0.57,-1.74,0.58,24.81,859.69,58.55,28.0,0.0,-0.000438385,0.000628379,0.000962955,33.9942728,-106.894667,1432.6660399999998,-13.11648,-0.198238603,-3.61927167,,,,,,,,,,,,,,2023-06-29 16:48:46.401675+00:00,1.0051219540659635,0.01349863665052375,1.8302187080449044,-1.5646253777554733,0.9495514449260247,0.580962955,328.7469634654498,0.25377985231252137,0.17590955297100944,,,,,,,,0.8201385624610079,0.5721649573019929,,,,,,,,,,,,
2023-06-29 09:48:46.612134-07:00,0.839969,1.91,0.25,-1.79,0.61,24.86,859.69,58.39,28.0,0.0,-0.000627325,-0.000410227,0.000228141,33.9942728,-106.894667,1432.66177,-13.1076325,-0.199779586,-3.61048551,,,,,,,,,,,,,,2023-06-29 16:48:46.612134+00:00,1.0049533151018235,0.01349580622695134,1.8075313536899749,-1.6870778852307056,0.6487971976957077,0.610228141,338.96482362777687,0.2542470423714084,0.1787241559601157,,,,,,,,0.5472988591852372,-0.8369372489825853,,,,,,,,,,,,
2023-06-29 09:48:46.821632-07:00,1.049467,2.07,0.45,-1.95,0.53,24.85,859.69,58.43,35.0,0.0,-0.000371731,0.000229555,0.000270945,33.9942728,-106.894667,1432.6635999999999,-13.1022812,-0.202971948,-3.62050356,,,,,,,,,,,,,,2023-06-29 16:48:46.821632+00:00,1.004987038367431,0.013496372214800222,2.000879950026844,-1.796995444384996,0.8799590600016557,0.530270945,333.90976986351353,0.2558741834655108,0.18141651601332998,,,,,,,,0.5254207100304473,0.8508425691460793,,,,,,,,,,,,
2023-06-29 09:48:47.027711-07:00,1.255546,1.81,0.19,-1.7,0.58,24.81,859.69,58.57,36.0,0.0,-0.000294174,-0.000113,0.00146581,33.9942728,-106.894667,1432.66897,-13.091105,-0.205884284,-3.61424275,,,,,,,,,,,,,,2023-06-29 16:48:47.027711+00:00,1.0051219540659635,0.01349863665052375,1.71059321992471,-1.6128969236391313,0.5698181093715908,0.58146581,340.54226574250856,0.25335000045189915,0.1770694508845815,,,,,,,,0.35858140445522096,-0.9334984608337185,,,,,,,,,,,,
2023-06-29 09:48:47.227433-07:00,1.455268,1.64,0.31,-1.47,0.65,24.84,859.69,58.42,29.0,0.0,-0.000308847,0.000247216,0.00154948,33.9942728,-106.894667,1432.6686,-13.0836284,-0.202544958,-3.62342846,1.8954,-6.48044,14292.0,30.8295,11761.0,0.87555,0.306974,15.0,-1240.0,89.0,,0.0,,2023-06-29 16:48:47.227433+00:00,1.0050207638964208,0.013496938251075764,1.5019769781366532,-1.3614169702710155,0.6344120710631228,0.65154948,335.01476564967334,0.25131576991206195,0.1717428387142879,1.6955288048936257,337.84144725215236,-1.5673482803593746,0.6409920850660151,0.5451866249999999,0.17621050126497428,0.2531488785924144,0.6249083444484421,0.7806981241419164,-0.8230645596704638,0.1689408013611533,,,,,,,,,,
2023-06-29 09:48:47.427675-07:00,1.65551,1.6,0.21,-1.52,0.47,25.03,859.7,57.79,27.0,0.0,-0.0008798,-0.000395187,0.00112784,33.9942728,-106.894667,1432.66885,-13.0781578,-0.203906483,-3.6136653,,,,,,,,,,,,,,2023-06-29 16:48:47.427675+00:00,1.0043920487161333,0.01348623098129283,1.534492894111111,-1.4334510845634536,0.5476188731602952,0.47112783999999996,339.0917284039314,0.2517194453909741,0.17320871264983703,,,,,,,,0.4097411909330268,-0.9122018178302348,,,,,,,,,,,,
2023-06-29 09:48:47.628214-07:00,1.856049,1.8,0.19,-1.72,0.49,25.32,859.69,56.82,32.0,0.0,-0.000733306,0.000549357,0.00151905,33.9942728,-106.894667,1432.6718999999998,-13.0645466,-0.204359706,-3.62124441,,,,,,,,,,,,,,2023-06-29 16:48:47.628214+00:00,1.0034044876654085,0.013469823029107892,1.7297009822688105,-1.6319809789382762,0.5731523117334114,0.49151905,340.6487066011349,0.25348499374162603,0.17761498806283507,,,,,,,,0.5995650998874832,0.80032599045446,,,,,,,,,,,,
2023-06-29 09:48:47.827666-07:00,2.055501,1.78,0.15,-1.69,0.54,25.45,859.69,56.43,37.0,0.0,-0.00106363,0.000649894,0.00159261,33.9942728,-106.894667,1432.6684799999998,-13.0548429,-0.19985383,-3.61872417,,,,,,,,,,,,,,2023-06-29 16:48:47.827666+00:00,1.002967640433672,0.013462498438576942,1.6956953784960265,-1.61178832803507,0.5268028115554211,0.54159261,341.9003474594635,0.25318279837602004,0.17718988000666513,,,,,,,,0.5213903625715873,0.8533182816613439,,,,,,,,,,,,
2023-06-29 09:48:48.028290-07:00,2.256125,1.98,0.02,-1.91,0.53,25.39,859.69,56.64,31.0,0.0,-0.000601848,5.70198e-06,0.00122123,33.9942728,-106.894667,1432.67007,-13.0452412,-0.199021078,-3.62069562,,,,,,,,,,,,,,2023-06-29 16:48:48.028290+00:00,1.0031692149577762,0.013465878008752662,1.909957276273591,-1.8561868743665113,0.4500078717310566,0.53122123,346.3723294984572,0.2553445807585529,0.1830902171835954,,,,,,,,0.009473694546419033,0.9999551235488726,,,,,,,,,,,,
2023-06-29 09:48:48.228587-07:00,2.456422,2.48,-0.93,-2.24,0.52,25.68,859.69,55.67,27.0,0.0,-0.000402848,0.00108241,0.00148476,33.9942729,-106.894667,1432.67043,-13.0409794,-0.19632981,-3.63037116,1.89486,-7.16124,14257.7,30.8385,11802.0,0.872813,0.297526,12.0,-1283.0,89.0,,0.0,,2023-06-29 16:48:48.228587+00:00,1.002195687961364,0.013449559436102017,2.42438562158552,-2.39099812033708,-0.4009658722324867,0.52148476,369.51981284700764,0.25906602542851553,0.1980375419316634,2.1224823903852577,367.2770647774432,-1.9698195962873861,-0.334687744979868,0.5450137254,0.18638725102107287,0.2547745613438194,0.9371961554206132,0.3488027612631842,-1.000746582236898,0.16661934819028817,,,,,,,,,,
2023-06-29 09:48:48.427934-07:00,2.655769,2.51,-1.7,-1.76,0.55,25.87,859.7,55.04,31.0,0.0,-8.17969e-05,-0.000641497,0.000724476,33.9942728,-106.894667,1432.67007,-13.0327823,-0.197357359,-3.62234328,,,,,,,,,,,,,,2023-06-29 16:48:48.427934+00:00,1.001570534031759,0.013438928661083914,2.4475494260454225,-2.098670475311023,-1.2593968512717038,0.5507244760000001,390.9676621418416,0.25380556720827785,0.18954772314451557,,,,,,,,0.9919684805841068,-0.126485309532999,,,,,,,,,,,,
2023-06-29 09:48:48.627484-07:00,2.855319,2.21,-1.39,-1.62,0.58,25.99,859.69,54.59,37.0,0.0,-0.000667681,9.16825e-05,4.5551e-05,33.9942727,-106.894667,1432.6675,-13.022256,-0.193417241,-3.62582168,,,,,,,,,,,,,,2023-06-29 16:48:48.627484+00:00,1.0011571084893176,0.013432160006946286,2.13482424952573,-1.8914541833872456,-0.9898866846816271,0.580045551,387.62517194044614,0.25247383494773074,0.18407089283892486,,,,,,,,0.13603828923333264,0.9907035802208792,,,,,,,,,,,,
2023-06-29 09:48:48.827459-07:00,3.055294,1.57,-0.53,-1.38,0.53,26.61,859.7,52.68,32.0,0.0,7.84202e-05,-0.000572359,-0.000889565,33.9942726,-106.894667,1432.6677499999998,-13.0116468,-0.193982368,-3.62104936,,,,,,,,,,,,,,2023-06-29 16:48:48.827459+00:00,0.9990980153662149,0.013397537163667966,1.4788319115534025,-1.4644689482957387,-0.20560768980333358,0.529110435,367.99194300737895,0.25044287983908664,0.1740919942128777,,,,,,,,0.9907439369655738,0.13574406567491307,,,,,,,,,,,,
2023-06-29 09:48:49.028305-07:00,3.25614,1.6,-0.86,-1.32,0.29,25.92,859.7,54.88,27.0,0.0,0.000217937,-0.000148413,0.000290828,33.9942725,-106.894667,1432.67312,-13.0004457,-0.196685524,-3.62237878,,,,,,,,,,,,,,2023-06-29 16:48:49.028305+00:00,1.0014030865221406,0.013436123719110753,1.575501015414693,-1.479779013787794,-0.5407934170512362,0.290290828,380.07511010280166,0.2499635965007471,0.1744644994973834,,,,,,,,0.5628696522980123,0.8265456760046082,,,,,,,,,,,,
2023-06-29 09:48:49.228527-07:00,3.456362,1.73,-0.74,-1.46,0.56,25.39,859.7,55.83,28.0,0.0,0.000186686,-4.46781e-05,0.000412589,33.9942725,-106.894667,1432.67751,-12.9915355,-0.192638165,-3.62255116,1.894,-6.01714,14275.7,30.8474,11740.0,0.872879,0.306022,13.0,-1257.0,89.0,,0.0,,2023-06-29 16:48:49.228527+00:00,1.0031808839223442,0.013465917023488672,1.6368247759381827,-1.5890307346455954,-0.39265337318907745,0.560412589,373.8798851057211,0.25103497366867644,0.17688405571181498,1.755011296725447,369.9691238295716,-1.7206752547295499,-0.27821824744097357,0.45159310580000006,0.18043394400965013,0.2526474591666267,0.23274959949621338,0.9725366954178913,-1.7381750117864398,0.23916077281873113,,,,,,,,,,
2023-06-29 09:48:49.427564-07:00,3.655399,1.86,-0.61,-1.67,0.54,25.48,859.69,55.59,36.0,0.0,5.94606e-05,0.000165323,-0.000262423,33.9942724,-106.894667,1432.67202,-12.9812324,-0.194887761,-3.61703716,,,,,,,,,,,,,,2023-06-29 16:48:49.427564+00:00,1.0028668835465107,0.013460809302381265,1.7777487393569598,-1.7641810979257342,-0.21921595290217888,0.539737577,367.08322789666,0.25284622286802966,0.1810276390012311,,,,,,,,0.9409883715854579,-0.3384388933632603,,,,,,,,,,,,
2023-06-29 09:48:49.627882-07:00,3.855717,2.33,-0.55,-2.24,0.34,24.97,859.71,57.2,34.0,0.0,0.000360826,0.000379031,-0.0015859,33.9942723,-106.894667,1432.6639599999999,-12.9709719,-0.191882371,-3.62348407,,,,,,,,,,,,,,2023-06-29 16:48:49.627882+00:00,1.0046058793065167,0.013489661887584646,2.3061500413639973,-2.3059164789928874,-0.03282080425904164,0.33841410000000005,360.815453035296,0.2589496229565936,0.19570153162494344,,,,,,,,0.7242866955185641,-0.6894989359635002,,,,,,,,,,,,
2023-06-29 09:48:49.828056-07:00,4.055891,2.2,-0.04,-2.17,0.39,24.33,859.71,59.44,28.0,0.0,0.000284763,0.000525235,-0.00300888,33.9942723,-106.894667,1432.6581099999999,-12.961278,-0.190516519,-3.61668556,,,,,,,,,,,,,,2023-06-29 16:48:49.828056+00:00,1.0067671935553948,0.013525949255931749,2.1699134744340745,-2.1231589230718804,0.4480186088889717,0.38699112,348.0845274605153,0.2580933496865767,0.19049632657506624,,,,,,,,0.8791091581279666,-0.4766204864412961,,,,,,,,,,,,
2023-06-29 09:48:50.027518-07:00,4.255353,2.31,-0.19,-2.3,0.23,23.94,859.7,60.94,27.0,0.0,3.61179e-05,0.000745758,-0.00267195,33.9942723,-106.894667,1432.65286,-12.950225,-0.188948336,-3.62343231,,,,,,,,,,,,,,2023-06-29 16:48:50.027518+00:00,1.0080770846752722,0.013548120137783842,2.3071015741999257,-2.2833338737588114,0.3303090895227633,0.22732805,351.76864367568993,0.25965468809846687,0.19511585089878905,,,,,,,,0.998829272114916,-0.04837442678096623,,,,,,,,,,,,
2023-06-29 09:48:50.228278-07:00,4.456113,2.25,0.01,-2.24,0.21,23.72,859.71,61.65,34.0,0.0,-3.69867e-05,0.000685759,-0.00228799,33.9942723,-106.894667,1432.64932,-12.9390296,-0.188382966,-3.61975801,1.89263,-5.4695,14322.5,30.8566,11768.0,0.874496,0.350994,14.0,-1233.0,89.0,,0.0,,2023-06-29 16:48:50.228278+00:00,1.0088358700402829,0.013560721484286789,2.239346227206164,-2.1801990165698135,0.5112766114839389,0.20771201,346.80210367539223,0.25889644858709054,0.1921779248360149,2.2392482836113965,347.9976262692715,-2.1892011528618083,0.46414392122608633,0.235896104,0.19244297928488394,0.2588900364282889,0.9985486509563065,0.053857141340219086,0.34556617047802973,0.19188625015329486,,,,,,,,,,
2023-06-29 09:48:50.428113-07:00,4.655948,2.33,-0.01,-2.33,0.16,23.73,859.71,62.52,36.0,0.0,0.000214251,-0.000319391,-0.00138483,33.9942723,-106.894667,1432.6516399999998,-12.9348685,-0.191986252,-3.62790051,,,,,,,,,,,,,,2023-06-29 16:48:50.428113+00:00,1.008801888772766,0.013560149977785216,2.330380115751762,-2.2734344241494266,0.5120228539660716,0.15861517,347.3076205133915,0.26000650004145165,0.19484498004076822,,,,,,,,0.8304584027063397,0.5570806417157527,,,,,,,,,,,,
2023-06-29 09:48:50.627487-07:00,4.855322,2.16,0.04,-2.15,0.2,23.77,859.71,61.59,29.0,0.0,-0.00088705,0.000677764,-0.00116583,33.9942722,-106.894667,1432.65249,-12.9274934,-0.191918357,-3.62276204,,,,,,,,,,,,,,2023-06-29 16:48:50.627487+00:00,1.0086659865918726,0.013557864442934086,2.149500026465057,-2.0858795267591104,0.5190924422686861,0.19883417,346.0252360213684,0.25779919572785875,0.1895798140737813,,,,,,,,0.6071288007348404,0.7946034352545139,,,,,,,,,,,,
2023-06-29 09:48:50.827774-07:00,5.055609,0.99,0.95,0.06,0.27,24.15,859.7,59.34,27.0,0.0,4.53575e-06,-0.00092723,-0.000634644,33.9942722,-106.894667,1432.65383,-12.9181433,-0.190883485,-3.63299838,,,,,,,,,,,,,,2023-06-29 16:48:50.827774+00:00,1.007365022153302,0.013536151520372738,0.9516337712981575,0.26993503140823605,0.9125469376935023,0.269365356,253.5215723254669,0.24482059939829898,0.15890678969469169,,,,,,,,0.9999880357499891,0.004891661975094828,,,,,,,,,,,,
2023-06-29 09:48:51.027876-07:00,5.255711,0.42,0.25,-0.04,0.33,24.46,859.7,59.04,33.0,0.0,-0.000329477,0.000928752,-0.000794332,33.9942721,-106.894667,1432.64907,-12.9125441,-0.191033382,-3.64056653,,,,,,,,,,,,,,2023-06-29 16:48:51.027876+00:00,1.0063157188474066,0.013518522925439001,0.2529147252011787,0.017806140471453496,0.252287137177262,0.329205668,265.9628234432175,0.24480046725550242,0.158353089158263,,,,,,,,0.9424533788104659,0.3343375970014987,,,,,,,,,,,,
2023-06-29 09:48:51.228341-07:00,5.456176,0.56,0.14,0.05,0.54,24.43,859.7,58.35,37.0,0.0,0.000308863,-0.00121546,-0.000700392,33.9942721,-106.894667,1432.6554199999998,-12.9094087,-0.192183151,-3.62431945,1.89343,-5.4257,14332.3,30.8655,11807.0,0.864069,0.366745,15.0,-1267.0,89.0,,0.0,,2023-06-29 16:48:51.228341+00:00,1.0064171687820975,0.013520226871521249,0.14827157993054144,0.07879819140239763,0.12559978681036862,0.539299608,237.8968595263015,0.24479501323010114,0.15841380910901956,0.5931588884914142,301.6906055709749,-0.2282295322888908,0.21419736724765323,0.33176154139999997,0.16056219228453655,0.24551722703340798,0.9691975164307576,0.24628474200496334,0.1513901048847495,0.15155653863074575,,,,,,,,,,
2023-06-29 09:48:51.427777-07:00,5.655612,0.64,-0.4,-0.35,0.36,24.54,859.7,58.06,30.0,0.0,-0.000278585,0.00072256,0.000795685,33.994272,-106.894667,1432.6571299999998,-12.9040465,-0.188972438,-3.6437661,,,,,,,,,,,,,,2023-06-29 16:48:51.427777+00:00,1.0060452856534536,0.013513981210131252,0.5310858522243274,-0.4297659217591599,-0.31201511970950985,0.360795685,395.9800914351011,0.24512701221120656,0.15984045247743311,,,,,,,,0.9330522533469408,0.3597408685765301,,,,,,,,,,,,
2023-06-29 09:48:51.628261-07:00,5.856096,1.09,-0.15,-1.07,0.16,24.25,859.69,58.99,26.0,0.0,-8.88707e-05,-0.00143855,0.00014139,33.9942719,-106.894667,1432.6557899999998,-12.8996551,-0.192128252,-3.62188046,,,,,,,,,,,,,,2023-06-29 16:48:51.628261+00:00,1.0070145845107412,0.013530420328087355,1.0818885138028658,-1.0779211029673812,0.09256809426664309,0.16014139,355.09168112478767,0.24804304307193065,0.16729682098327553,,,,,,,,0.9980971860208285,-0.06166041888686468,,,,,,,,,,,,
2023-06-29 09:48:51.827966-07:00,6.055801,0.99,-0.59,-0.72,0.33,24.38,859.69,58.6,30.0,0.0,-0.000399908,0.000109916,-0.000919184,33.9942719,-106.894667,1432.65347,-12.8863451,-0.188860952,-3.64444495,,,,,,,,,,,,,,2023-06-29 16:48:51.827966+00:00,1.0065745888935382,0.013523028375392336,0.9309395960905422,-0.8333369349399844,-0.41496757034020637,0.329080816,386.4714191631423,0.24622057871524022,0.16384293535724972,,,,,,,,0.2650248965860016,0.9642415694158696,,,,,,,,,,,,
2023-06-29 09:48:52.028260-07:00,6.256095,1.83,-0.01,-1.8,0.34,23.96,859.71,60.17,37.0,0.0,0.000206858,-0.00108296,-0.00123407,33.9942719,-106.894667,1432.6502899999998,-12.8748424,-0.192522074,-3.63055296,,,,,,,,,,,,,,2023-06-29 16:48:52.028260+00:00,1.0080209509570826,0.013547018873207594,1.8011298071180395,-1.7580576069141005,0.3915380350113282,0.33876593000000005,347.44453077878757,0.25388707262633703,0.18121751482260984,,,,,,,,0.9822417577266914,0.18761964017122404,,,,,,,,,,,,
2023-06-29 09:48:52.228692-07:00,6.456527,2.25,0.25,-2.2,0.38,23.76,859.7,60.74,32.0,0.0,0.000736933,0.000790524,-0.00304173,33.9942719,-106.894667,1432.64224,-12.8628239,-0.194783088,-3.64914937,1.89343,-5.78159,14285.2,30.8742,11807.0,0.857009,0.372343,15.0,-1267.0,89.0,,0.0,,2023-06-29 16:48:52.228692+00:00,1.0086882256784098,0.013558396146082624,2.2136574257751067,-2.088347932395714,0.7342221134968752,0.37695827,340.6293273383614,0.2582834506943674,0.18986509107070562,1.9217991793575493,348.64975844663,-1.7574422842258233,0.5079231400266766,0.35414127119999994,0.18298184311836224,0.25513812047073736,0.7314656359682605,-0.681878305416405,1.5698900892776493,0.15381064919249246,,,,,,,,,,
2023-06-29 09:48:52.427359-07:00,6.655194,2.59,-0.12,-2.57,0.25,23.78,859.72,60.67,27.0,0.0,8.52566e-05,-0.00118123,-0.00299881,33.9942718,-106.894667,1432.63809,-12.8557651,-0.193492367,-3.63769719,,,,,,,,,,,,,,2023-06-29 16:48:52.427359+00:00,1.00864374900327,0.013557332781894348,2.573977731532206,-2.533459414054813,0.45491181536724806,0.24700119,349.8203629219046,0.2630630818925712,0.2029223143557102,,,,,,,,0.99740543642837,0.07198885596488397,,,,,,,,,,,,
2023-06-29 09:48:52.627727-07:00,6.855562,2.15,0.99,-1.84,0.48,23.82,859.71,60.61,29.0,0.0,-0.000406752,-0.000176672,-0.00109985,33.9942717,-106.894667,1432.6368699999998,-12.8462534,-0.192260242,-3.64559132,,,,,,,,,,,,,,2023-06-29 16:48:52.627727+00:00,1.0084961603490548,0.013555008629000321,2.0892913362718515,-1.574009532824505,1.373911306598138,0.47890014999999997,318.8831520309545,0.25423641842517114,0.177061359985536,,,,,,,,0.39839098615369156,-0.9172156900922973,,,,,,,,,,,,
2023-06-29 09:48:52.827930-07:00,7.055765,2.26,0.81,-2.06,0.47,24.0,859.71,60.67,36.0,0.0,0.000686069,-0.00127789,0.000453964,33.9942716,-106.894667,1432.6395499999999,-12.839625,-0.195368925,-3.64713294,,,,,,,,,,,,,,2023-06-29 16:48:52.827930+00:00,1.0078852590908927,0.013544737849800134,2.2149688715710263,-1.8297689419128527,1.2482118094457144,0.47045396399999995,325.6994002703684,0.2566029659727368,0.18309871595007812,,,,,,,,0.8810534102361838,0.4730167949567868,,,,,,,,,,,,
2023-06-29 09:48:53.027596-07:00,7.255431,2.17,0.19,-2.1,0.51,24.71,859.7,58.15,35.0,0.0,-0.00022798,0.00128664,0.000398921,33.9942716,-106.894667,1432.63662,-12.8285556,-0.195687998,-3.64633604,,,,,,,,,,,,,,2023-06-29 16:48:53.027596+00:00,1.0054710974490588,0.013504340392488382,2.107283605296751,-2.004108323142225,0.6513017904662421,0.5103989210000001,341.9967024292167,0.25704226260452606,0.18770893411157513,,,,,,,,0.9846620528362118,0.174472466894858,,,,,,,,,,,,
2023-06-29 09:48:53.228885-07:00,7.45672,2.71,-0.55,-2.65,0.2,24.57,859.71,57.86,28.0,0.0,0.00042491,-0.000642814,-0.000304461,33.9942716,-106.894667,1432.6387,-12.8242144,-0.193972333,-3.63786315,1.8958,-3.95324,14315.6,30.8835,11794.0,0.858812,0.410175,16.0,-1274.0,89.0,,0.0,,2023-06-29 16:48:53.228885+00:00,1.0059556117790502,0.01351231818059912,2.707124598232702,-2.706618577894896,0.05233989062633204,0.199695539,358.8921670988677,0.2641419678555885,0.20854699145003305,2.464124497979806,350.31727086727705,-2.3640919445638695,0.34606566588690635,0.3387791188,0.19847560868309733,0.2606610787703557,0.8342197412816992,0.5514321565305155,-1.0149415089646205,0.1592497233780873,,,,,,,,,,
2023-06-29 09:48:53.427517-07:00,7.655352,2.57,-0.8,-2.43,0.3,24.64,859.71,57.63,27.0,0.0,0.00172192,0.00141074,0.00157254,33.9942716,-106.894667,1432.64041,-12.816445,-0.195103093,-3.64107213,,,,,,,,,,,,,,2023-06-29 16:48:53.427517+00:00,1.005719146844618,0.013508347727179532,2.556734013306009,-2.5455102729951604,-0.23930370843753174,0.30157254,365.3705982177004,0.26111335768358834,0.20350155291458139,,,,,,,,0.633747952191556,-0.7735396131375621,,,,,,,,,,,,
2023-06-29 09:48:53.627655-07:00,7.85549,2.74,-0.59,-2.67,0.21,24.28,859.7,59.03,34.0,0.0,0.00124177,-9.32548e-05,0.00177463,33.9942717,-106.894667,1432.6387,-12.8071329,-0.198991728,-3.63599218,,,,,,,,,,,,,,2023-06-29 16:48:53.627655+00:00,1.00692472543515,0.013528753177874097,2.7345114014925396,-2.734453606874213,0.01777854733377512,0.21177463,359.627486320232,0.26440483973533885,0.20952184898921886,,,,,,,,0.07488741078731474,0.9971919954078914,,,,,,,,,,,,
2023-06-29 09:48:53.828293-07:00,8.056128,2.69,-0.29,-2.67,0.14,24.09,859.72,59.55,37.0,0.0,0.00171479,0.00139643,0.000102349,33.9942717,-106.894667,1432.63247,-12.7973646,-0.202261525,-3.63426536,,,,,,,,,,,,,,2023-06-29 16:48:53.828293+00:00,1.007591805919597,0.0135396478967729,2.6845134042150245,-2.6665156084681167,0.3103332518536278,0.14010234900000001,353.36169141558605,0.26439194345132294,0.2073988312841661,,,,,,,,0.6314538050277881,-0.7754134975069289,,,,,,,,,,,,
2023-06-29 09:48:54.027817-07:00,8.255652,2.44,-0.59,-2.36,0.2,23.92,859.71,60.16,30.0,0.0,0.00123576,0.00253257,-0.00261529,33.9942717,-106.894667,1432.62942,-12.7837084,-0.20184165,-3.63085494,,,,,,,,,,,,,,2023-06-29 16:48:54.027817+00:00,1.0081566793646575,0.013549300680265525,2.430073628162956,-2.429518498126702,-0.051939441210391984,0.19738471000000002,361.2247107927783,0.26014936648706016,0.20006066117554697,,,,,,,,0.8987181005202045,-0.4385268244900824,,,,,,,,,,,,
2023-06-29 09:48:54.228368-07:00,8.456203,2.3,-0.28,-2.28,0.11,23.89,859.71,60.42,27.0,0.0,5.96882e-05,0.00252342,0.000318115,33.9942718,-106.894667,1432.63735,-12.7775438,-0.203777039,-3.63093322,1.89646,-4.17265,14286.3,30.8923,11740.0,0.866038,0.428766,15.0,-1262.0,89.0,,0.0,,2023-06-29 16:48:54.228368+00:00,1.008258499659503,0.013551012550069621,2.2946240638827464,-2.2829414752363832,0.23125270851451105,0.110318115,354.21589946489655,0.2591234268507237,0.1957121012481168,2.4143738157166155,356.9580678145739,-2.407372896963488,0.13063557277614518,0.12969727778,0.19945671149797373,0.2604227957509168,0.9997203687565795,-0.023647077899997683,0.18752637741733352,0.19934523162799142,,,,,,,,,,
2023-06-29 09:48:54.427930-07:00,8.655765,2.32,-0.5,-2.27,0.1,24.04,859.71,59.82,31.0,0.0,0.000996944,-0.000125451,-2.80491e-05,33.9942719,-106.894667,1432.6410199999998,-12.7678537,-0.206101781,-3.61860739,,,,,,,,,,,,,,2023-06-29 16:48:54.427930+00:00,1.0077496037513334,0.013542457609644412,2.3245455869741267,-2.3244969751163533,0.015033249675661109,0.09997195090000001,359.62945542221087,0.2589826129453625,0.1968852885827144,,,,,,,,0.12485095420549497,0.9921755082816636,,,,,,,,,,,,
2023-06-29 09:48:54.628138-07:00,8.855973,2.34,-0.37,-2.31,0.1,23.93,859.7,60.15,37.0,0.0,-0.000696526,0.00129027,0.000709264,33.994272,-106.894667,1432.63259,-12.7563857,-0.204074845,-3.62426085,,,,,,,,,,,,,,2023-06-29 16:48:54.628138+00:00,1.0081110175244938,0.013548690610381412,2.338112395348224,-2.3333919278698825,0.1484980950473179,0.100709264,356.3585819773978,0.2594666290201148,0.19722667519932438,,,,,,,,0.8799680628929949,0.47503284969394505,,,,,,,,,,,,
2023-06-29 09:48:54.827795-07:00,9.05563,2.18,-0.47,-2.12,0.11,24.0,859.71,60.0,32.0,0.0,-0.000517257,-0.000312626,-7.18254e-05,33.994272,-106.894667,1432.62905,-12.7471623,-0.205082178,-3.61643234,,,,,,,,,,,,,,2023-06-29 16:48:54.827795+00:00,1.0078852590908927,0.013544737849800134,2.1717846090376685,-2.171766606182268,0.008842868564767119,0.1099281746,359.7667077824303,0.25713158009226095,0.1925387321673486,,,,,,,,0.5172569197794756,-0.8558301694496689,,,,,,,,,,,,
2023-06-29 09:48:55.027576-07:00,9.255411,2.26,-0.56,-2.18,0.15,23.91,859.7,60.28,27.0,0.0,-0.0011269,0.00114181,-0.000277249,33.9942719,-106.894667,1432.62112,-12.7351861,-0.206674284,-3.62435837,,,,,,,,,,,,,,2023-06-29 16:48:55.027576+00:00,1.0081788900766735,0.013549831702572025,2.249669488739212,-2.248678112852479,-0.06677988725927682,0.149722751,361.7010355760574,0.2578243897567337,0.19481389019366313,,,,,,,,0.7117385284318589,0.702444493996253,,,,,,,,,,,,
2023-06-29 09:48:55.228658-07:00,9.456493,2.21,-0.65,-2.1,0.22,23.9,859.7,60.25,30.0,0.0,-0.000303367,-0.000708943,0.000101572,33.9942719,-106.894667,1432.6207499999998,-12.7310617,-0.210852761,-3.61703075,1.89409,-4.38523,14236.9,30.9015,11795.0,0.853182,0.435754,14.0,-1245.0,89.0,,0.0,,2023-06-29 16:48:55.228658+00:00,1.0082128297800932,0.013550402322177541,2.199025226857079,-2.1923246701639676,-0.1715356783420865,0.220101572,364.4739209460075,0.2568691645502885,0.19316152712062093,2.2816813250920704,363.933037847133,-2.270929412359095,-0.16020509598310428,0.17972537791999998,0.19547033830501595,0.25782976127628204,0.9193635572045603,-0.3934090106799502,0.7461173665148676,0.16996797589244378,,,,,,,,,,
2023-06-29 09:48:55.427595-07:00,9.65543,2.39,-0.64,-2.3,0.17,23.91,859.71,60.21,38.0,0.0,-0.000973898,9.08441e-05,-0.000358092,33.9942719,-106.894667,1432.6141599999999,-12.7226785,-0.209335945,-3.62108743,,,,,,,,,,,,,,2023-06-29 16:48:55.427595+00:00,1.0081906171778725,0.01354987125452215,2.387341006683623,-2.384386972509866,-0.118725934481098,0.169641908,362.85057814481763,0.25928532849014335,0.19881733307615665,,,,,,,,0.0928756868429531,0.9956777123112929,,,,,,,,,,,,
2023-06-29 09:48:55.627581-07:00,9.855416,2.41,-0.96,-2.2,0.25,23.91,859.71,60.29,33.0,0.0,-0.000746934,-0.000114245,-0.000767516,33.994272,-106.894667,1432.60891,-12.7187542,-0.204928884,-3.62025291,,,,,,,,,,,,,,2023-06-29 16:48:55.627581+00:00,1.0081906171778725,0.01354987125452215,2.4005862941427676,-2.3574907000868945,-0.45282684839782716,0.249232484,370.8729467863524,0.2580383434919837,0.1980202089672904,,,,,,,,0.1511936242661872,-0.988504166901311,,,,,,,,,,,,
2023-06-29 09:48:55.828124-07:00,10.055959,2.27,-0.81,-2.1,0.26,23.94,859.71,60.22,27.0,0.0,-0.000490674,0.00061127,-0.00166214,33.994272,-106.894667,1432.60159,-12.7108631,-0.205206758,-3.61562349,,,,,,,,,,,,,,2023-06-29 16:48:55.828124+00:00,1.0080888105922745,0.01354815967875532,2.2502667120444086,-2.2261489414877373,-0.3285744446060579,0.25833786000000003,368.3961050607864,0.256833252648974,0.19422936681519437,,,,,,,,0.7798359316898748,0.6259839611726367,,,,,,,,,,,,
2023-06-29 09:48:56.028127-07:00,10.255962,2.18,-0.76,-2.04,0.19,23.88,859.72,60.39,29.0,0.0,-0.000515165,0.000168787,-0.00119924,33.994272,-106.894667,1432.5986599999999,-12.7038907,-0.203619038,-3.62456625,,,,,,,,,,,,,,2023-06-29 16:48:56.028127+00:00,1.0083041726140154,0.013551622834650409,2.1768724663580428,-2.1570246838703597,-0.2932886768385745,0.18880076,367.7429715180557,0.2561296449352662,0.19227947545808058,,,,,,,,0.31135152831930646,0.9502948099475405,,,,,,,,,,,,
2023-06-29 09:48:56.228485-07:00,10.45632,2.02,-0.74,-1.86,0.26,23.98,859.71,60.09,36.0,0.0,-0.00103355,0.000465981,-0.000633009,33.994272,-106.894667,1432.59817,-12.6950662,-0.200668541,-3.61522141,1.89484,-3.8812,14208.2,30.9098,11808.0,0.840257,0.451731,14.0,-1264.0,89.0,,0.0,,2023-06-29 16:48:56.228485+00:00,1.0079531004572369,0.01354587826357248,2.001500929226856,-1.9766875034523292,-0.31418542835619534,0.259366991,369.0313525644156,0.2541489086298393,0.18740773101282987,2.14066259171895,368.24471114287974,-2.1184816502994956,-0.30640658430324574,0.20927348440000001,0.19127582012314276,0.2556805117615946,0.41101262356819274,0.9116296524727523,-2.057207664725478,0.2149308461683264,,,,,,,,,,
2023-06-29 09:48:56.427522-07:00,10.655357,2.17,-0.74,-2.04,0.14,23.85,859.71,60.55,34.0,0.0,-0.00074987,0.000441512,0.000238069,33.994272,-106.894667,1432.59817,-12.6879588,-0.199760404,-3.62584649,,,,,,,,,,,,,,2023-06-29 16:48:56.427522+00:00,1.0083942920500295,0.013553295729476153,2.169725921848588,-2.152277642017581,-0.27461159409781893,0.14023806900000002,367.2711477414562,0.2561006166739549,0.19220635541677772,,,,,,,,0.5073718304494672,0.8617272339124238,,,,,,,,,,,,
2023-06-29 09:48:56.627435-07:00,10.85527,2.11,-0.77,-1.96,0.2,23.84,859.7,60.58,28.0,0.0,-0.00035541,0.000943591,-0.000376258,33.994272,-106.894667,1432.59609,-12.6792339,-0.200862978,-3.61435011,,,,,,,,,,,,,,2023-06-29 16:48:56.627435+00:00,1.0084165159977665,0.013553827069346566,2.1049469291168537,-2.0802694806694717,-0.3213727776175822,0.19962374200000002,368.781978829685,0.2551901359199387,0.19025617191283128,,,,,,,,0.9358184383542928,0.3524824115273452,,,,,,,,,,,,
2023-06-29 09:48:56.827900-07:00,11.055735,2.06,-0.79,-1.89,0.21,23.88,859.71,60.46,27.0,0.0,-0.000650157,-0.000478849,-0.000241859,33.9942719,-106.894667,1432.5970699999998,-12.6708238,-0.199398366,-3.62641838,,,,,,,,,,,,,,2023-06-29 16:48:56.827900+00:00,1.0082924443283803,0.013551583271372944,2.049047518920099,-2.0177365205856828,-0.3568403960980259,0.20975814099999998,370.0291622574451,0.25441809382601466,0.18855430147765925,,,,,,,,0.5930272144700829,-0.8051824159144649,,,,,,,,,,,,
2023-06-29 09:48:57.028095-07:00,11.25593,2.2,-0.86,-2.0,0.3,24.04,859.71,59.85,34.0,0.0,-0.000794564,0.000279691,-0.000706411,33.9942719,-106.894667,1432.59609,-12.6638499,-0.194863464,-3.61902016,,,,,,,,,,,,,,2023-06-29 16:48:57.028095+00:00,1.0077496037513334,0.013542457609644412,2.1769336988536434,-2.1396047936568063,-0.4014120777523015,0.29929358899999997,370.62576491654676,0.2556048646595973,0.19192698673102904,,,,,,,,0.33203528147413436,0.9432669674362568,,,,,,,,,,,,
2023-06-29 09:48:57.229059-07:00,11.456894,1.9,-0.63,-1.77,0.24,24.19,859.69,59.28,36.0,0.0,-0.000220266,0.000308377,-0.000595467,33.9942718,-106.894667,1432.5956099999999,-12.6499976,-0.200899969,-3.62101514,1.89193,-3.17782,14180.7,30.9191,11737.0,0.778368,0.454821,17.0,-1247.0,89.0,,0.0,,2023-06-29 16:48:57.229059+00:00,1.0072177891756726,0.013533834779164505,1.8784967221818438,-1.8646934047467436,-0.22730693245461878,0.239404533,366.95009020916393,0.2531390694333455,0.1846652853378739,2.32572559699261,365.758244222987,-2.309135899667808,-0.20779108808944172,0.2191387366,0.19746075981321604,0.25845980948305014,0.8137375719857399,0.5812324525856696,-1.5112321378197142,0.15722666812853517,,,,,,,,,,
2023-06-29 09:48:57.428334-07:00,11.656169,2.57,-0.61,-2.49,0.25,24.21,859.7,59.26,30.0,0.0,-0.000575279,0.00105848,-0.00114734,33.9942718,-106.894667,1432.58694,-12.641993,-0.201961915,-3.6285139,,,,,,,,,,,,,,2023-06-29 16:48:57.428334+00:00,1.0071617604458456,0.013532735875534671,2.562583308230769,-2.562079154859439,-0.05082928149891254,0.24885266,361.13654619406356,0.2616566827015919,0.20454823393401667,,,,,,,,0.8786181953505997,0.4775249384051637,,,,,,,,,,,,
2023-06-29 09:48:57.627998-07:00,11.855833,2.97,-0.65,-2.89,0.1,23.99,859.7,60.13,27.0,0.0,-0.000769041,0.000628962,-0.00161524,33.9942717,-106.894667,1432.58584,-12.6408939,-0.203908646,-3.62802541,,,,,,,,,,,,,,2023-06-29 16:48:57.627998+00:00,1.0079074546886202,0.013545268509523948,2.961566736776695,-2.961565624490369,-0.002566752643349853,0.09838476,360.0496575377157,0.26748033679470135,0.21760899158550145,,,,,,,,0.6330850157198563,0.7740822713839849,,,,,,,,,,,,
2023-06-29 09:48:57.827716-07:00,12.055551,2.67,-0.83,-2.53,0.18,24.36,859.7,58.75,32.0,0.0,-0.000525632,0.00071881,-0.000636289,33.9942717,-106.894667,1432.58889,-12.632837,-0.203917446,-3.63343725,,,,,,,,,,,,,,2023-06-29 16:48:57.827716+00:00,1.006653964862279,0.013524204450009281,2.6620030892081674,-2.6495569783676,-0.25711527635942033,0.17936371099999998,365.5426766187936,0.2621924431543375,0.20733368856360843,,,,,,,,0.807205040933782,0.5902711426887574,,,,,,,,,,,,
2023-06-29 09:48:58.027397-07:00,12.255232,2.45,-1.08,-2.18,0.27,24.55,859.7,58.02,37.0,0.0,4.85483e-05,0.000271087,0.000707057,33.9942716,-106.894667,1432.59207,-12.6253006,-0.201417515,-3.62435794,,,,,,,,,,,,,,2023-06-29 16:48:58.027397+00:00,1.0060114917238046,0.013513413714563457,2.4325835374653093,-2.3630773502045295,-0.5773457401744445,0.27070705700000003,373.72950983966024,0.25763531057773004,0.19849536613980126,,,,,,,,0.9843395388899143,-0.1762829321800352,,,,,,,,,,,,
2023-06-29 09:48:58.228720-07:00,12.456555,2.57,-1.13,-2.31,0.18,24.49,859.7,58.27,32.0,0.0,-0.000339103,-6.41207e-05,0.000214731,33.9942716,-106.894667,1432.58828,-12.6176773,-0.198932347,-3.62696931,1.89441,-3.15379,14160.9,30.9275,11786.0,0.765544,0.515232,15.0,-1270.0,89.0,,0.0,,2023-06-29 16:48:58.228720+00:00,1.0062142893635824,0.013516819417363168,2.5717166436330974,-2.501118353702285,-0.5984425418643411,0.180214731,373.4561777675452,0.2592417832311675,0.2026935597886097,2.549645423158657,375.18823040032555,-2.438595551619833,-0.6593447696596174,0.18790218539999998,0.2008590071467729,0.2584058947826464,0.1857967721499565,-0.9825881942394062,2.2736310696096673,0.24958194264760863,,,,,,,,,,
2023-06-29 09:48:58.428059-07:00,12.655894,2.51,-1.12,-2.24,0.09,24.61,859.7,56.89,27.0,0.0,-0.000261411,0.000481423,-0.000377326,33.9942716,-106.894667,1432.5883999999999,-12.6121075,-0.196431684,-3.62903361,,,,,,,,,,,,,,2023-06-29 16:48:58.428059+00:00,1.005808775813328,0.013510009761788355,2.503991976636149,-2.43002021609848,-0.6041337338792677,0.089622674,373.96140492053837,0.2583499459836428,0.20055393057041,,,,,,,,0.8788020798504375,0.4771864462142081,,,,,,,,,,,,
2023-06-29 09:48:58.628249-07:00,12.856084,2.59,-1.72,-1.92,0.22,24.82,859.7,57.14,30.0,0.0,-6.8198e-05,-0.000169157,-0.000397246,33.9942715,-106.894667,1432.58828,-12.603145,-0.199134626,-3.63142812,,,,,,,,,,,,,,2023-06-29 16:48:58.628249+00:00,1.005099913032106,0.013498109689294081,2.5779318688505617,-2.2492048597262713,-1.2596865560206136,0.219602754,389.25138285509024,0.2546099909663541,0.19521849067143512,,,,,,,,0.9274613765448216,-0.37391896851802603,,,,,,,,,,,,
2023-06-29 09:48:58.827454-07:00,13.055289,2.53,-1.26,-2.19,0.06,24.22,859.71,58.32,37.0,0.0,-0.000796078,0.000971345,-0.00125331,33.9942715,-106.894667,1432.5821799999999,-12.5961066,-0.197994099,-3.63096445,,,,,,,,,,,,,,2023-06-29 16:48:58.827454+00:00,1.007139606345155,0.013532206211005933,2.525908374387678,-2.4110957471839902,-0.7528814074693819,0.05874669,377.3413370354549,0.25770676557027317,0.20004728558337018,,,,,,,,0.7734336501268744,0.6338772663942285,,,,,,,,,,,,
2023-06-29 09:48:59.028006-07:00,13.255841,2.29,-1.02,-2.05,-0.04,24.0,859.69,59.22,33.0,0.0,-0.000454439,-0.000346684,-0.00204077,33.9942715,-106.894667,1432.57925,-12.5876925,-0.197330172,-3.63143283,,,,,,,,,,,,,,2023-06-29 16:48:59.028006+00:00,1.0078618119922411,0.013544658812092126,2.290183489290654,-2.2233643351386525,-0.5491734223840161,-0.04204077,373.87441236336946,0.2560324429752236,0.1945222290972808,,,,,,,,0.6065354285734296,-0.7950564595582167,,,,,,,,,,,,
2023-06-29 09:48:59.228911-07:00,13.456746,2.12,-1.07,-1.83,0.01,24.17,859.72,58.54,27.0,0.0,-0.000724444,0.000596893,-9.42391e-06,33.9942714,-106.894667,1432.5836399999998,-12.5798939,-0.196280666,-3.63655766,1.89352,-3.35887,14157.7,30.9369,11772.0,0.738275,0.529021,19.0,-1285.0,89.0,,0.0,,2023-06-29 16:48:59.228911+00:00,1.007320692827731,0.013535091690935126,2.1195108142371013,-2.0185175733242917,-0.6464618301562999,0.00999057609,377.7584770451879,0.25361112515329204,0.18890815806208294,2.1433232052483104,375.3523811028285,-2.064022842714812,-0.572624878806729,-0.008641618982000004,0.19038375174847363,0.254352098403505,0.6358926362397126,0.7717775295874508,-1.9570943943233623,0.16993951624678585,,,,,,,,,,
2023-06-29 09:48:59.427845-07:00,13.65568,1.77,-0.74,-1.6,-0.14,24.07,859.69,58.92,28.0,0.0,-0.000219334,-0.000449557,0.000444854,33.9942714,-106.894667,1432.5819299999998,-12.5710978,-0.19428104,-3.62751982,,,,,,,,,,,,,,2023-06-29 16:48:59.427845+00:00,1.0076244446319038,0.013540668956753881,1.763324481673021,-1.7231539246906185,-0.3742375976445264,-0.13955514600000002,372.25330886795916,0.2513473788382076,0.1814514458927855,,,,,,,,0.8987385857769525,-0.4384848394592945,,,,,,,,,,,,
2023-06-29 09:48:59.627724-07:00,13.855559,2.02,-0.95,-1.78,0.07,24.08,859.7,58.83,36.0,0.0,-0.00024504,2.47948e-05,-0.000349445,33.9942713,-106.894667,1432.58413,-12.5617139,-0.195798307,-3.63596823,,,,,,,,,,,,,,2023-06-29 16:48:59.627724+00:00,1.0076022645297469,0.013540138662551247,2.0176888666530983,-1.9439826332365087,-0.5403701363794206,0.069650555,375.53437020217126,0.2530627794805285,0.1869896401068487,,,,,,,,0.10067267597577476,0.9949196009285759,,,,,,,,,,,,
2023-06-29 09:48:59.828281-07:00,14.056116,1.74,-0.75,-1.56,-0.05,24.08,859.7,58.89,35.0,0.0,-0.000187077,0.000155124,0.000610135,33.9942713,-106.894667,1432.5866899999999,-12.5552837,-0.193708351,-3.62924106,,,,,,,,,,,,,,2023-06-29 16:48:59.828281+00:00,1.0076022645297469,0.013540138662551247,1.730816017958529,-1.6855762926841105,-0.39313693487525286,-0.049389865000000005,373.1287289242076,0.2509518121227016,0.18063656502796802,,,,,,,,0.6383041138824818,0.7697842932930625,,,,,,,,,,,,
2023-06-29 09:49:00.027493-07:00,14.255328,1.62,-0.66,-1.48,-0.11,24.09,859.7,58.88,29.0,0.0,-5.94574e-05,0.000210101,3.61982e-05,33.9942712,-106.894667,1432.58682,-12.5459109,-0.192815547,-3.62903959,,,,,,,,,,,,,,2023-06-29 16:49:00.027493+00:00,1.0075683659203898,0.013539568924152222,1.6202997054356,-1.5878172648190685,-0.3228118166628735,-0.1099638018,371.4919173357012,0.25023308779537184,0.17844262623863083,,,,,,,,0.9622122223663125,0.2723006410732114,,,,,,,,,,,,
2023-06-29 09:49:00.228311-07:00,14.456146,1.48,-0.69,-1.31,-0.09,24.18,859.7,58.58,28.0,0.0,-0.00027732,9.2864e-05,0.000121277,33.9942712,-106.894667,1432.57937,-12.5375013,-0.19202593,-3.63182379,1.89181,-2.09903,14178.7,30.9458,11741.0,0.649206,-1.0,16.0,-1268.0,89.0,,0.0,,2023-06-29 16:49:00.228311+00:00,1.0072633810452245,0.01353444347816989,1.4805913060869142,-1.4284532671574146,-0.3894507404120099,-0.089878723,375.25036143642114,0.24884572611824615,0.175070523904227,1.6982044492152641,373.51617467282017,-1.6509386432183155,-0.3950507600379694,-0.003917022280000004,0.18002231203785318,0.250669476985084,0.3175322816794189,0.9482474624756252,-1.6909397483487643,0.226124959135271,,,,,,,,,,
2023-06-29 09:49:00.427707-07:00,14.655542,1.73,-0.81,-1.52,-0.09,24.18,859.7,58.63,35.0,0.0,0.000294434,0.000102832,-0.000407061,33.9942713,-106.894667,1432.57729,-12.5275614,-0.19262631,-3.63310874,,,,,,,,,,,,,,2023-06-29 16:49:00.427707+00:00,1.0072633810452245,0.01353444347816989,1.7221751711790056,-1.6594051426521996,-0.46071888692007285,-0.090407061,375.51683480312676,0.25053846373621086,0.18012583583394404,,,,,,,,0.3297222081782557,-0.9440779975373089,,,,,,,,,,,,
2023-06-29 09:49:00.627874-07:00,14.855709,1.97,-0.81,-1.76,0.32,24.52,859.7,57.39,37.0,0.0,5.38596e-05,0.000302169,5.43394e-05,33.9942712,-106.894667,1432.57412,-12.5204765,-0.191934106,-3.63912801,,,,,,,,,,,,,,2023-06-29 16:49:00.627874+00:00,1.006112880324442,0.01351511634712691,1.9371400454162726,-1.893441248778784,-0.4091354213196376,0.3200543394,372.19303086464396,0.25277829515288963,0.18583600918449605,,,,,,,,0.9844834281683388,-0.1754775759517873,,,,,,,,,,,,
2023-06-29 09:49:00.828069-07:00,15.055904,2.3,-0.96,-2.07,0.24,24.25,859.7,58.35,29.0,0.0,-0.000235609,0.000246831,1.85159e-05,33.9942712,-106.894667,1432.57412,-12.5142297,-0.191900066,-3.63032112,,,,,,,,,,,,,,2023-06-29 16:49:00.828069+00:00,1.0070262982050324,0.013530459755503215,2.2815849952154825,-2.2285893632249554,-0.4888962471864775,0.24001851589999998,372.37324401933984,0.25613076934090234,0.19492701627562808,,,,,,,,0.7233590703399798,0.6904720525530922,,,,,,,,,,,,
2023-06-29 09:49:01.027917-07:00,15.255752,2.38,-0.82,-2.23,0.22,24.06,859.7,59.06,27.0,0.0,-0.000272083,-0.00010148,0.000446963,33.9942712,-106.894667,1432.57729,-12.5076757,-0.199064396,-3.64143101,,,,,,,,,,,,,,2023-06-29 16:49:01.027917+00:00,1.007670068591826,0.013541278286064507,2.3761209579431424,-2.354764626364049,-0.31785902724512655,0.220446963,367.6876305777156,0.25804956582786165,0.19861181560482633,,,,,,,,0.349459003363885,-0.9369516556193923,,,,,,,,,,,,
2023-06-29 09:49:01.228600-07:00,15.456435,2.24,-0.94,-2.02,0.21,24.21,859.69,58.41,31.0,0.0,-0.000143588,-9.73051e-05,-0.000329314,33.9942711,-106.894667,1432.5729,-12.5032816,-0.201314151,-3.63103802,1.89348,-2.61147,14193.2,30.9465,11754.0,0.669386,-1.0,14.0,-1253.0,89.0,,0.0,,2023-06-29 16:49:01.228600+00:00,1.0071500451758624,0.013532696433534884,2.228129569617247,-2.1756959941066585,-0.4805292085097215,0.209670686,372.4545349552393,0.25553413694356636,0.19345333054250088,2.141932711104248,372.6068806824918,-2.089592979443806,-0.4527262430107169,0.18978353038,0.19139981476227674,0.25484145307025063,0.560989649549943,-0.8278228150382376,1.4758380061186653,0.18473652133721244,,,,,,,,,,
2023-06-29 09:49:01.427647-07:00,15.655482,2.14,-0.87,-1.95,0.19,24.29,859.71,58.19,38.0,0.0,-0.000123476,-0.000567494,-0.000561004,33.9942711,-106.894667,1432.57522,-12.4929136,-0.203511373,-3.63710903,,,,,,,,,,,,,,2023-06-29 16:49:01.427647+00:00,1.006902584517411,0.013528223829412902,2.1358558832742376,-2.092594304604285,-0.42770250227802226,0.189438996,371.55150649007044,0.2547285397221709,0.19116923898298194,,,,,,,,0.9771378394118707,-0.21260677973550401,,,,,,,,,,,,
2023-06-29 09:49:01.627478-07:00,15.855313,1.69,-0.88,-1.44,0.09,24.27,859.7,58.15,32.0,0.0,-0.00077984,-0.000123688,-0.000657509,33.994271,-106.894667,1432.5760699999998,-12.4857521,-0.203346027,-3.62977275,,,,,,,,,,,,,,2023-06-29 16:49:01.627478+00:00,1.0069585807483579,0.013529321988296735,1.6879721494711315,-1.5963206089190822,-0.5486442298342366,0.089342491,378.96748737009347,0.24976425351675202,0.17883767240544649,,,,,,,,0.15664879181236638,-0.9876543707308372,,,,,,,,,,,,
2023-06-29 09:49:01.828275-07:00,16.05611,2.1,-1.34,-1.61,0.03,24.29,859.69,58.18,27.0,0.0,-0.000245465,-0.000986983,-0.000316396,33.994271,-106.894667,1432.5774199999998,-12.4768984,-0.203204173,-3.63638058,,,,,,,,,,,,,,2023-06-29 16:49:01.828275+00:00,1.0068791602793652,0.01352814500339124,2.095673418627631,-1.8624655079771861,-0.9607649604027533,0.029683604,387.2872410866097,0.2512405344330863,0.18516820612937196,,,,,,,,0.9704380774964888,-0.2413502387504906,,,,,,,,,,,,
2023-06-29 09:49:02.027689-07:00,16.255524,2.25,-0.92,-2.05,0.17,24.27,859.69,58.26,29.0,0.0,-0.000482359,0.000418621,-0.000562344,33.9942709,-106.894667,1432.57839,-12.4673631,-0.19890008,-3.63324348,,,,,,,,,,,,,,2023-06-29 16:49:02.027689+00:00,1.006946867841754,0.01352928256817018,2.246663729334581,-2.199853393581461,-0.456226872789951,0.16943765600000002,371.7164604222607,0.255813187392474,0.19426675736998372,,,,,,,,0.6554458835176269,0.7552421424813353,,,,,,,,,,,,
2023-06-29 09:49:02.228652-07:00,16.456487,2.14,-1.09,-1.84,0.09,24.17,859.7,58.62,36.0,0.0,2.64293e-05,-0.000216505,-0.000767772,33.9942709,-106.894667,1432.57998,-12.4560229,-0.199345048,-3.63407373,1.89412,-2.02013,14173.5,30.9535,11754.0,0.646087,-1.0,14.0,-1253.0,89.0,,0.0,,2023-06-29 16:49:02.228652+00:00,1.007297259135533,0.01353501277672171,2.1388184944414093,-2.032008619799983,-0.667447017540107,0.089232228,378.1836259423795,0.2534714952476407,0.1896612453707454,2.09190549641606,376.42846306059744,-1.993812219008658,-0.5880421779339259,0.13967051608,0.18870901239126886,0.25332464137681965,0.9926314079320712,0.12117296722781934,-0.8253052776783562,0.1859754184835758,,,,,,,,,,
2023-06-29 09:49:02.427986-07:00,16.655821,1.98,-0.96,-1.73,0.14,24.19,859.69,58.54,34.0,0.0,-0.000437826,0.000622557,5.08221e-05,33.9942708,-106.894667,1432.57974,-12.4502993,-0.195583475,-3.63599004,,,,,,,,,,,,,,2023-06-29 16:49:02.427986+00:00,1.0072177891756726,0.013533834779164505,1.978037853200547,-1.8956626522756308,-0.564886588140973,0.1400508221,376.59347689745795,0.25233647273020415,0.18613955087067266,,,,,,,,0.817973139658525,0.5752564148248805,,,,,,,,,,,,
2023-06-29 09:49:02.627745-07:00,16.85558,2.02,-0.71,-1.87,0.27,24.62,859.7,57.07,28.0,0.0,-0.000451859,-1.85399e-05,-5.17297e-05,33.9942708,-106.894667,1432.57998,-12.4419427,-0.190254452,-3.62761991,,,,,,,,,,,,,,2023-06-29 16:49:02.627745+00:00,1.0057749977706842,0.013509442606373542,2.000333986476131,-1.9790709214090303,-0.290885450795845,0.2699482703,368.3615109542793,0.2537615170806933,0.1883093022155705,,,,,,,,0.04099578378941042,-0.9991593194838809,,,,,,,,,,,,
2023-06-29 09:49:02.828058-07:00,17.055893,2.12,-0.59,-2.01,0.31,24.66,859.7,57.04,28.0,0.0,-0.000147652,0.000522036,-0.00055981,33.9942708,-106.894667,1432.5781499999998,-12.4324172,-0.188803988,-3.63334143,,,,,,,,,,,,,,2023-06-29 16:49:02.828058+00:00,1.005639908284398,0.01350717447033879,2.094292400674004,-2.0893645753134975,-0.14358388121906657,0.30944019,363.93126047371715,0.2552889889958547,0.19131101350038549,,,,,,,,0.9622514518878842,0.272161979967186,,,,,,,,,,,,
2023-06-29 09:49:03.027790-07:00,17.255625,1.71,-0.6,-1.57,0.3,24.72,859.7,56.59,35.0,0.0,3.9611e-05,5.17835e-06,-0.000894307,33.9942708,-106.894667,1432.57559,-12.4238793,-0.193007502,-3.62043855,,,,,,,,,,,,,,2023-06-29 16:49:03.027790+00:00,1.0054373420827092,0.013503773722482446,1.6807329128792203,-1.662315072261137,-0.24813650470843607,0.299105693,368.4899478673255,0.25076116901955336,0.18055449909891502,,,,,,,,0.1296271060058894,-0.9915628136374104,,,,,,,,,,,,
2023-06-29 09:49:03.228308-07:00,17.456143,1.63,-0.48,-1.52,0.36,24.74,859.7,56.58,35.0,0.0,-0.000293178,0.00010872,-0.000465917,33.9942707,-106.894667,1432.5751,-12.4142838,-0.194981471,-3.62735899,1.89286,-2.02391,14184.0,30.9621,11793.0,0.591205,-1.0,15.0,-1276.0,89.0,,0.0,,2023-06-29 16:49:03.228308+00:00,1.0053698381489027,0.013502640527985482,1.593906567853017,-1.5875415522440486,-0.1423023785589725,0.359534083,365.122129643648,0.25029346103508504,0.1789005242858067,1.6968629459287943,365.820202317638,-1.687688035182214,-0.16930573500022544,0.33748563460000003,0.1813921154953971,0.2512427025201466,0.3476955509261659,0.9376074892331812,-1.6412557920819393,0.22195534947210993,,,,,,,,,,
2023-06-29 09:49:03.427497-07:00,17.655332,1.57,-0.5,-1.44,0.36,24.75,859.69,56.56,28.0,0.0,-0.000355062,0.000255211,0.000182528,33.9942707,-106.894667,1432.5802199999998,-12.4116123,-0.195529246,-3.6312844,,,,,,,,,,,,,,2023-06-29 16:49:03.427497+00:00,1.005324395547145,0.013502034757768944,1.5241241700879873,-1.5135568045048917,-0.17916552509714942,0.360182528,366.750906125907,0.24960058799538837,0.17730275400392664,,,,,,,,0.5836514101369792,0.8120043296960403,,,,,,,,,,,,
2023-06-29 09:49:03.627685-07:00,17.85552,1.63,-0.47,-1.52,0.36,24.65,859.7,56.95,27.0,0.0,-0.000788799,-0.000187455,-0.000834321,33.9942707,-106.894667,1432.57937,-12.4031327,-0.198379193,-3.63446298,,,,,,,,,,,,,,2023-06-29 16:49:03.627685+00:00,1.0056736772537833,0.013507741431516132,1.5912586781497422,-1.5856621715874968,-0.1333403854175026,0.35916567899999996,364.8067674775922,0.25026930555485144,0.17889178658795177,,,,,,,,0.23120697333943535,-0.9729045870378131,,,,,,,,,,,,
2023-06-29 09:49:03.827342-07:00,18.055177,1.87,-0.48,-1.8,0.23,24.36,859.7,57.88,33.0,0.0,-0.000464261,-7.84612e-05,-0.00133996,33.9942706,-106.894667,1432.5777799999998,-12.3961798,-0.195915208,-3.64052504,,,,,,,,,,,,,,2023-06-29 16:49:03.827342+00:00,1.006653964862279,0.013524204450009281,1.8629999408561335,-1.8611560291400062,-0.08286745335631249,0.22866004,362.54939481669516,0.25293607837611787,0.18543404009526773,,,,,,,,0.1666393447554759,-0.986017915039816,,,,,,,,,,,,
2023-06-29 09:49:04.027519-07:00,18.255354,1.97,-0.38,-1.93,0.19,24.17,859.7,58.54,37.0,0.0,-0.000198268,0.000520825,-0.00181181,33.9942706,-106.894667,1432.5760699999998,-12.3884078,-0.195302168,-3.62873547,,,,,,,,,,,,,,2023-06-29 16:49:04.027519+00:00,1.007297259135533,0.01353501277672171,1.9665286173679144,-1.9660648175550801,0.042707564892771444,0.18818819,358.75559623806475,0.2543089010556446,0.18816285199711194,,,,,,,,0.9345721914431673,0.3557735501426657,,,,,,,,,,,,
2023-06-29 09:49:04.228771-07:00,18.456606,1.97,-0.59,-1.87,0.19,24.12,859.71,58.83,30.0,0.0,-0.000237816,-0.000561917,-0.00191316,33.9942705,-106.894667,1432.57559,-12.3847865,-0.193672075,-3.64168039,1.89402,-2.25845,14170.3,30.9714,11783.0,0.55337,-1.0,17.0,-1314.0,89.0,,0.0,,2023-06-29 16:49:04.228771+00:00,1.007478402593127,0.013537899477494536,1.9614480820321214,-1.9535864692210005,-0.17543798272926164,0.18808684,365.13156944414175,0.2536499711358513,0.1878216291553742,1.9795388283254869,363.94775344068387,-1.971687282216432,-0.1385971778593932,0.1947086866,0.18833499435602274,0.2539341631215226,0.9209190870451424,-0.38975381347196786,0.6408358507167289,0.16431739036175566,,,,,,,,,,
2023-06-29 09:49:04.428310-07:00,18.656145,2.03,-0.61,-1.92,0.22,24.05,859.7,59.03,26.0,0.0,0.000150805,-0.000297453,-0.000762183,33.9942705,-106.894667,1432.57974,-12.376728,-0.192350042,-3.62643036,,,,,,,,,,,,,,2023-06-29 16:49:04.428310+00:00,1.0077039740450089,0.013541848171191181,2.014854332739026,-2.0064220875673913,-0.1841423055110831,0.219237817,365.24371397017524,0.2541765284599576,0.18924259440275318,,,,,,,,0.8919203200496043,0.45219259467909406,,,,,,,,,,,,
2023-06-29 09:49:04.627727-07:00,18.855562,2.1,-0.73,-1.96,0.15,24.08,859.71,58.99,30.0,0.0,7.59801e-05,-0.000346707,-0.000629454,33.9942704,-106.894667,1432.57998,-12.3659102,-0.191557869,-3.64003398,,,,,,,,,,,,,,2023-06-29 16:49:04.627727+00:00,1.0076139849236578,0.013540178152341953,2.091863168632239,-2.0712070075986824,-0.2932457125930803,0.149370546,368.0584927343428,0.25459933658004175,0.19101385612960675,,,,,,,,0.9768188132037485,0.21406776070025166,,,,,,,,,,,,
2023-06-29 09:49:04.828137-07:00,19.055972,2.06,-0.82,-1.88,0.19,24.09,859.7,58.9,38.0,0.0,1.82397e-05,0.000393205,-0.000900689,33.9942704,-106.894667,1432.57839,-12.3603773,-0.195470094,-3.63121126,,,,,,,,,,,,,,2023-06-29 16:49:04.828137+00:00,1.0075683659203898,0.013539568924152222,2.0506592590574435,-2.0115585046472955,-0.3985420669630252,0.189099311,371.2066535091036,0.25370980377826585,0.18945191625104743,,,,,,,,0.9989258445547898,-0.046337426347390506,,,,,,,,,,,,
2023-06-29 09:49:05.028030-07:00,19.255865,2.1,-0.7,-1.97,0.26,24.18,859.71,58.51,32.0,0.0,-0.000282737,0.000291758,-0.00151225,33.9942704,-106.894667,1432.5732699999999,-12.3516652,-0.196315294,-3.63905572,,,,,,,,,,,,,,2023-06-29 16:49:05.028030+00:00,1.0072750974972549,0.013534482931456185,2.0904158073991757,-2.0738467432815,-0.262674576624889,0.25848775,367.2186761036293,0.25468467187501476,0.19115002236045184,,,,,,,,0.7181215884194354,0.6959176562251794,,,,,,,,,,,,
2023-06-29 09:49:05.228599-07:00,19.456434,2.1,-0.7,-1.95,0.31,24.42,859.71,57.73,27.0,0.0,-0.00055616,0.000276321,-0.00184302,33.9942703,-106.894667,1432.57449,-12.3493371,-0.193262942,-3.63550027,1.89037,-1.26668,14178.5,30.9802,11760.0,0.379063,-1.0,13.0,-1252.0,89.0,,0.0,,2023-06-29 16:49:05.228599+00:00,1.006462696975027,0.013520834316768721,2.0716326044733435,-2.0543142813417337,-0.2673097106212282,0.30815698,367.41373733002956,0.25445617112511687,0.19062925879896223,2.166569971719068,365.80260475650505,-2.1507672498562664,-0.2111706109789774,0.236711268,0.1933466628568285,0.2557260487534541,0.44494621490546793,0.8955572934443096,-2.02009486116431,0.20863956576386913,,,,,,,,,,
2023-06-29 09:49:05.427459-07:00,19.655294,2.32,-0.65,-2.21,0.26,24.78,859.7,56.51,29.0,0.0,-4.91578e-05,-0.000557933,-0.00145689,33.9942703,-106.894667,1432.5753399999999,-12.3395519,-0.195936563,-3.64352314,,,,,,,,,,,,,,2023-06-29 16:49:05.427459+00:00,1.0052348574704684,0.01350037472087889,2.3041658806801575,-2.2984112620778765,-0.16274543325128762,0.25854311,364.05022789599053,0.25751400523774837,0.19748138280277608,,,,,,,,0.9961410316671426,-0.08776699282259123,,,,,,,,,,,,
2023-06-29 09:49:05.627633-07:00,19.855468,2.33,-0.46,-2.27,0.17,24.67,859.71,56.94,36.0,0.0,-0.000141127,0.000160578,-0.000730811,33.9942702,-106.894667,1432.57668,-12.3351771,-0.194073761,-3.63973883,,,,,,,,,,,,,,2023-06-29 16:49:05.627633+00:00,1.005617838757836,0.013506646832759633,2.3159763069852177,-2.315705457932925,0.03541873256554314,0.16926918900000001,359.1237289437724,0.2582655917511246,0.198020734070905,,,,,,,,0.7511347447175829,0.6601489190160441,,,,,,,,,,,,
2023-06-29 09:49:05.828323-07:00,20.056158,2.67,-0.46,-2.63,0.1,24.54,859.71,57.33,34.0,0.0,0.000397313,-0.000342064,-0.00108976,33.9942702,-106.894667,1432.5777799999998,-12.3270569,-0.193793718,-3.64145069,,,,,,,,,,,,,,2023-06-29 16:49:05.828323+00:00,1.0060569879366414,0.01351402053236824,2.670283562394598,-2.667913268032618,0.11248598957337368,0.09891024000000001,357.58569456862625,0.26318158372485967,0.20881634618128184,,,,,,,,0.6524501460659909,0.7578316481240851,,,,,,,,,,,,
2023-06-29 09:49:06.028181-07:00,20.256016,2.44,-0.3,-2.41,0.29,24.63,859.69,57.02,28.0,0.0,-0.000166636,0.00056855,0.000245567,33.9942703,-106.894667,1432.58169,-12.3216268,-0.194479256,-3.64495226,,,,,,,,,,,,,,2023-06-29 16:49:06.028181+00:00,1.0057295232503676,0.013508836210306024,2.4280190583438332,-2.4179370777318616,0.2210358247216485,0.290245567,354.7768210353099,0.2600854989301963,0.2011075354055456,,,,,,,,0.9596321727250633,0.28125805423307304,,,,,,,,,,,,
2023-06-29 09:49:06.228404-07:00,20.456239,2.0,-0.8,-1.77,0.45,24.84,859.7,56.32,28.0,0.0,-0.000242383,-0.000107941,0.000125683,33.9942703,-106.894667,1432.5801,-12.3163298,-0.193680342,-3.64326606,1.89126,-1.19974,14173.9,30.9889,11796.0,0.297648,-1.0,15.0,-1272.0,89.0,,0.0,,2023-06-29 16:49:06.228404+00:00,1.0050324543983915,0.013496977464199414,1.9425514375184518,-1.9000181463718844,-0.4042735841760528,0.450125683,372.01189393516455,0.2524672972837192,0.18668740387449706,2.2283656666205176,360.10503730060617,-2.202013242828366,0.012103901977131737,0.353308636,0.1951820186793532,0.25703463176419694,0.4068157021904843,-0.9135102541576987,2.0164857344968303,0.2169143433953518,,,,,,,,,,
2023-06-29 09:49:06.427545-07:00,20.65538,2.13,-0.75,-1.92,0.54,24.93,859.7,55.96,35.0,0.0,0.000265044,0.000353479,-0.00104044,33.9942703,-106.894667,1432.57693,-12.3077308,-0.189937425,-3.64324168,,,,,,,,,,,,,,2023-06-29 16:49:06.427545+00:00,1.0047290025703726,0.01349188484800956,2.060895322653243,-2.0353904801405367,-0.3232261194385275,0.53895956,369.02339345252375,0.25404397392274675,0.1902618933928359,,,,,,,,0.8000708846815465,-0.5999054754583321,,,,,,,,,,,,
2023-06-29 09:49:06.627620-07:00,20.855455,2.08,0.02,-2.04,0.39,24.54,859.71,57.39,36.0,0.0,0.000290977,8.60499e-05,-0.00169787,33.9942702,-106.894667,1432.57351,-12.3024061,-0.191125028,-3.64886107,,,,,,,,,,,,,,2023-06-29 16:49:06.627620+00:00,1.0060569879366414,0.01351402053236824,2.040078952192462,-1.9888072418649294,0.4544973992052168,0.38830213,347.1273835114064,0.2553948049594629,0.1890369145426055,,,,,,,,0.28358686407115513,-0.9589465524867838,,,,,,,,,,,,
2023-06-29 09:49:06.827788-07:00,21.055623,2.71,-0.65,-2.62,0.22,24.31,859.69,58.18,29.0,0.0,4.02843e-05,4.87706e-05,-0.00272678,33.9942702,-106.894667,1432.5691199999999,-12.2944179,-0.194813596,-3.63835849,,,,,,,,,,,,,,2023-06-29 16:49:06.827788+00:00,1.006811461821739,0.013527007633700943,2.699375962392139,-2.6982728767336916,-0.07716261415851192,0.21727322,361.6380432018908,0.26299123659898616,0.20990046347625288,,,,,,,,0.7709963429683234,-0.6368395709513279,,,,,,,,,,,,
2023-06-29 09:49:07.027517-07:00,21.255352,2.7,-0.52,-2.65,0.11,24.09,859.7,58.97,27.0,0.0,4.02932e-05,0.000315318,-0.00127401,33.9942701,-106.894667,1432.5719199999999,-12.2841064,-0.191312072,-3.64860142,,,,,,,,,,,,,,2023-06-29 16:49:07.027517+00:00,1.0075683659203898,0.013539568924152222,2.7002225644994247,-2.699646814889626,0.05575816252484024,0.10872599,358.81678847174703,0.26341569648031293,0.20998437351391294,,,,,,,,0.9919340296614074,-0.12675520028654486,,,,,,,,,,,,
2023-06-29 09:49:07.228510-07:00,21.456345,2.73,-0.43,-2.69,0.11,24.24,859.7,58.3,33.0,0.0,0.000485603,0.000570616,-0.00331807,33.99427,-106.894667,1432.56594,-12.2731616,-0.188872517,-3.62876755,1.88976,-1.05658,14169.3,30.9981,11765.0,0.12028,-1.0,17.0,-1258.0,89.0,,0.0,,2023-06-29 16:49:07.228510+00:00,1.007060160348958,0.013531028712299465,2.7236085943521067,-2.7193563784889205,0.15213369778020913,0.10668193,356.7979400888118,0.2639927863286447,0.2106605207134897,2.6475932490993013,357.3063030257838,-2.637362515659831,0.11577900329964426,0.17733476399999998,0.20808755234116577,0.26272578420430814,0.7615575954976587,-0.6480972371024464,1.7974397389986865,0.1635312775166147,,,,,,,,,,
2023-06-29 09:49:07.428131-07:00,21.655966,2.71,-0.59,-2.63,0.17,24.75,859.7,56.55,38.0,0.0,0.000527137,0.000623658,-0.00322991,33.99427,-106.894667,1432.56533,-12.2670797,-0.191543626,-3.64716374,,,,,,,,,,,,,,2023-06-29 16:49:07.428131+00:00,1.005336089580989,0.013502074003482144,2.694739332065385,-2.6946843852569744,-0.017208475598983485,0.16677009,360.3658905755591,0.26309944520356054,0.20988636526741433,,,,,,,,0.7637325562726641,-0.6455327896313416,,,,,,,,,,,,
2023-06-29 09:49:07.627379-07:00,21.855214,2.44,-0.05,-2.42,0.29,24.47,859.69,57.64,31.0,0.0,0.000236442,0.000552437,-0.00277741,33.9942699,-106.894667,1432.5702099999999,-12.2627689,-0.192132899,-3.62727814,,,,,,,,,,,,,,2023-06-29 16:49:07.627379+00:00,1.0062702017118959,0.01351791569342379,2.420019792187451,-2.3748521229299397,0.4653742459506673,0.28722259,348.9128527909104,0.26012975641003616,0.20000603873475903,,,,,,,,0.9193357537872568,-0.3934739785658211,,,,,,,,,,,,
2023-06-29 09:49:07.827484-07:00,22.055319,2.57,-0.04,-2.56,0.24,24.17,859.7,58.68,27.0,0.0,-4.40744e-05,0.000337481,-0.00203497,33.9942698,-106.894667,1432.5722899999998,-12.2540373,-0.19183325,-3.64302781,,,,,,,,,,,,,,2023-06-29 16:49:07.827484+00:00,1.007297259135533,0.01353501277672171,2.559972929724309,-2.5098257322217843,0.5042183999009224,0.23796503,348.64061588703476,0.2620695022731492,0.20410644104777986,,,,,,,,0.9915796203308976,0.12949848085762575,,,,,,,,,,,,
2023-06-29 09:49:08.028180-07:00,22.256015,2.39,-0.01,-2.38,0.17,24.16,859.7,58.53,30.0,0.0,0.000181648,0.000273716,-0.00279549,33.9942698,-106.894667,1432.56875,-12.2473498,-0.194950251,-3.63079078,,,,,,,,,,,,,,2023-06-29 16:49:08.028180+00:00,1.007331139504815,0.013535582124120588,2.3797910790454133,-2.3276809974356363,0.49528451831363984,0.16720451,347.9877387965786,0.2595651816483227,0.19865565794671694,,,,,,,,0.8332136391807204,-0.5529512017196637,,,,,,,,,,,,
2023-06-29 09:49:08.228957-07:00,22.456792,2.57,-0.24,-2.55,0.14,24.48,859.7,57.54,38.0,0.0,7.3679e-05,6.16408e-05,-0.00251192,33.9942697,-106.894667,1432.57083,-12.2387777,-0.194888283,-3.63567265,1.88744,-0.900043,14183.1,31.0066,11731.0,-0.0419303,-1.0,15.0,-1243.0,89.0,,0.0,,2023-06-29 16:49:08.228957+00:00,1.0062480969195868,0.013517387204731366,2.5612168217797726,-2.542860309622306,0.30609321115508237,0.13748808,353.13612654167724,0.2619048647920601,0.20516495832638368,2.4926415346574413,353.15563565493767,-2.467197791164166,0.2958183745593241,0.167596796,0.2028633038457522,0.2608492235550056,0.6416676743827406,-0.7669827870638591,2.082115326548053,0.1747080456109004,,,,,,,,,,
2023-06-29 09:49:08.427528-07:00,22.655363,2.5,-0.35,-2.47,0.16,24.31,859.69,58.11,34.0,0.0,-7.75607e-05,-7.95695e-05,-0.00262697,33.9942697,-106.894667,1432.5726599999998,-12.2333758,-0.192797838,-3.63094135,,,,,,,,,,,,,,2023-06-29 16:49:08.427528+00:00,1.006811461821739,0.013527007633700943,2.494748050340656,-2.4881553036643096,0.18124850213359642,0.15737303,355.8336747992761,0.26077174893058147,0.20349372726764806,,,,,,,,0.7160881323834155,-0.6980098757608176,,,,,,,,,,,,
