Timestamp,Seconds,S,Um,Vm,Wm,T,P,H,MD,Sts,Vx,Vy,Vz,Lat,Lon,Alt,Yaw,Roll,Pitch,CH4,C2H6,H2O,T_a,Batt,R,C2C1,Power,Current,SOC,Lat_a,Lon_a,TS,Timestamp_UTC,Rho,Rho_err,Sc,V,U,W,WD,V_err,U_err,Sc_avg,WD_avg,V_avg,U_avg,W_avg,U_err_avg,V_err_avg,Nx,Ny,cross_wind,cross_wind_err,CH4_sub,CH4_res,CH4_adj,CH4_adj_err,BG_Samples_CH4,C2H6_sub,C2H6_res,C2H6_adj,C2H6_adj_err,BG_Samples_C2H6
2022-11-16 10:04:29.313759-07:00,0.0,2.5,1.84,-1.69,0.17,12.77,975.73,30.42,25.0,0.0,-6.36207e-05,-0.000229428,-0.000468245,32.821382,-111.786993,325.42638500000004,2.04120727,-0.407659995,0.197331706,,,,,,,,,,,,,,2022-11-16 17:04:29.313759+00:00,1.188830593023916,0.014751376904881288,2.4984552802161746,-1.754694653921844,1.7785739958568447,0.169531755,314.6127764924295,0.21748775047108004,0.2303107089640908,,,,,,,,0.9636362023483079,-0.26721764448428725,,,,,,,,,,,,
2022-11-16 10:04:29.523852-07:00,0.210093,2.53,1.95,-1.59,0.19,12.57,975.73,30.82,27.0,0.0,-0.000396764,-0.000114834,0.000625977,32.821382,-111.786993,325.42836900000003,2.05825501,-0.407472114,0.19662399,,,,,,,,,,,,,,2022-11-16 17:04:29.523852+00:00,1.1896627577957373,0.014764987207184867,2.5158458072401744,-1.659124430078955,1.8912393426859404,0.190625977,311.2594522455467,0.21541252035278724,0.22858734965981123,,,,,,,,0.2780162211281636,-0.9605763794668366,,,,,,,,,,,,
2022-11-16 10:04:29.733295-07:00,0.419536,2.5,1.87,-1.65,0.18,12.37,975.74,31.21,25.0,0.0,-0.000253238,0.000120521,0.000648715,32.821382,-111.786993,325.426447,2.06982076,-0.407213774,0.194968366,,,,,,,,,,,,,,2022-11-16 17:04:29.733295+00:00,1.1905082894721217,0.014778670978997004,2.4936058288253737,-1.716342354690455,1.808933097449296,0.180648715,313.49548227469626,0.2165873383293111,0.2296804590536668,,,,,,,,0.4297344016303294,0.9029553389041026,,,,,,,,,,,,
2022-11-16 10:04:29.944326-07:00,0.630567,2.49,1.85,-1.65,0.16,12.83,975.73,30.25,22.0,0.0,-5.06869e-05,-0.000513239,0.000270448,32.821382,-111.786993,325.42397500000004,2.08188798,-0.406041272,0.206782932,2.0068,-7.29733,3796.96,28.6075,11699.0,0.0392333,-1.0,20.0,-1294.0,89.0,,0.0,,2022-11-16 17:04:29.944326+00:00,1.1885811705622702,0.014747298726497668,2.479229816163192,-1.7166305581785206,1.7887873009612616,0.160270448,313.82077024182274,0.2165551425472911,0.2297105846455411,2.3333929356317005,308.4185601640367,-1.4622184565165497,1.8019339298612014,0.24237379843999998,0.22583355270391853,0.21233414366658243,0.9951587286880429,-0.09828074438056668,1.936918197173972,0.22366160652079217,,,,,,,,,,
2022-11-16 10:04:30.153538-07:00,0.839779,2.29,1.87,-1.3,0.21,13.34,975.73,29.25,24.0,0.0,-9.61477e-05,0.000360965,7.40452e-05,32.821382,-111.786993,325.423578,2.09273606,-0.403579994,0.1980883,,,,,,,,,,,,,,2022-11-16 17:04:30.153538+00:00,1.1864652977674548,0.014712725432770047,2.2771830700020206,-1.3670587918241903,1.8211845030089653,0.2100740452,306.893456513032,0.21003321238948489,0.2238168997940621,,,,,,,,0.9663079687624543,0.2573886351534964,,,,,,,,,,,,
2022-11-16 10:04:30.363787-07:00,1.050028,1.96,1.73,-0.79,0.47,13.79,975.74,28.45,28.0,0.0,-0.000336507,0.000982066,0.000249807,32.8213821,-111.786993,325.42486,2.10185944,-0.403203589,0.203407756,,,,,,,,,,,,,,2022-11-16 17:04:30.363787+00:00,1.1846167380291357,0.014682402117010844,1.9011001559277414,-0.8519361478106282,1.699525405200543,0.47024980699999996,296.62363954508606,0.20308250471403783,0.2173724703665115,,,,,,,,0.9460054324999128,0.32415076998312525,,,,,,,,,,,,
2022-11-16 10:04:30.573749-07:00,1.25999,1.85,1.5,-1.03,0.31,13.48,975.75,29.08,26.0,0.0,0.000285059,-0.000273088,0.000800584,32.8213821,-111.786993,325.429346,2.11624676,-0.403364375,0.208274017,,,,,,,,,,,,,,2022-11-16 17:04:30.573749+00:00,1.1859100947659436,0.01470335864333532,1.8199795317022778,-1.0849612041868244,1.4612271148677465,0.310800584,306.59388819571575,0.20590251292782905,0.21998527683059704,,,,,,,,0.6917818346563899,0.7221065664009982,,,,,,,,,,,,
2022-11-16 10:04:30.777724-07:00,1.463965,1.81,1.6,-0.64,0.56,13.87,975.75,28.35,23.0,0.0,-8.75784e-05,0.000623435,-2.20497e-05,32.8213821,-111.786993,325.426965,2.13053847,-0.401743976,0.200519916,,,,,,,,,,,,,,2022-11-16 17:04:30.777724+00:00,1.1842986915990608,0.014677063545407062,1.722919874807525,-0.6984162941243539,1.5750135158494296,0.5599779503000001,293.91417942935414,0.20156396767916937,0.21608723425459656,,,,,,,,0.9902767522869241,0.13911130033200733,,,,,,,,,,,,
2022-11-16 10:04:30.977905-07:00,1.664146,1.78,1.7,-0.41,0.32,13.83,975.75,28.37,23.0,0.0,-2.58446e-05,-1.45941e-05,-0.00067839,32.8213821,-111.786993,325.426782,2.13957591,-0.405026032,0.218418893,,,,,,,,,,,,,,2022-11-16 17:04:30.977905+00:00,1.1844637621533292,0.014679756129180906,1.7487214738293997,-0.4731965024445488,1.6834820649791058,0.31932161000000003,285.6997172356955,0.19991741358115944,0.2145795606882843,,,,,,,,0.49170694856403646,-0.8707607459766683,,,,,,,,,,,,
2022-11-16 10:04:31.177907-07:00,1.864148,1.89,1.74,-0.65,0.36,13.86,975.74,28.36,25.0,0.0,-0.000312951,0.000133828,0.000885702,32.8213821,-111.786993,325.430444,2.14910212,-0.40668792,0.202799465,2.00761,-6.97701,3786.81,28.6085,11702.0,0.029367,-1.0,18.0,-1265.0,89.0,,0.0,,2022-11-16 17:04:31.177907+00:00,1.1843278171843497,0.014677689040753351,1.8571041301353515,-0.7146591742491267,1.7140881000775126,0.360885702,292.63284564014026,0.20158748558608233,0.21627579964871554,2.01867354149345,292.81102083646226,-0.7919719474773999,1.8492335125824209,0.42620729865999996,0.2172737282450022,0.20258567938936972,0.39318978493160184,0.9194573361638052,-0.0010846900434384743,0.17452919842679,,,,,,,,,,
2022-11-16 10:04:31.377477-07:00,2.063718,2.46,2.26,-0.79,0.55,13.01,975.74,29.91,27.0,0.0,-0.000538566,0.000317651,0.000515068,32.8213821,-111.786993,325.428979,2.16181179,-0.407866754,0.212017973,,,,,,,,,,,,,,2022-11-16 17:04:31.377477+00:00,1.1878457045362043,0.01473512570495786,2.393479519923662,-0.8743713175050206,2.2280527398198045,0.550515068,291.42690139191564,0.20288489909141738,0.2177803864974685,,,,,,,,0.5080267336082934,0.8613413016564851,,,,,,,,,,,,
2022-11-16 10:04:31.577878-07:00,2.264119,2.39,2.09,-1.12,0.34,13.48,975.74,29.04,23.0,0.0,-0.000434196,-0.000664892,0.000336163,32.8213821,-111.786993,325.42901,2.17609738,-0.406539355,0.211764361,,,,,,,,,,,,,,2022-11-16 17:04:31.577878+00:00,1.1858979409345853,0.01470331091639378,2.3711427087713086,-1.1992164490639492,2.0455311421862516,0.340336163,300.38146048520576,0.20697463100902,0.22164566013594617,,,,,,,,0.8372815639467813,-0.5467719658823337,,,,,,,,,,,,
2022-11-16 10:04:31.778239-07:00,2.46448,2.29,1.9,-1.24,0.26,13.59,975.73,28.82,22.0,0.0,-0.000185473,7.3533e-05,-0.000235083,32.8213821,-111.786993,325.4255,2.18312205,-0.405437669,0.198539642,,,,,,,,,,,,,,2022-11-16 17:04:31.778239+00:00,1.1854308542840137,0.014695837143065623,2.2686384467707685,-1.3114040042903652,1.8511995947756907,0.259764917,305.3140497698006,0.20878550209236027,0.22326038007681187,,,,,,,,0.36855365999040457,0.9296064757238287,,,,,,,,,,,,
2022-11-16 10:04:31.977976-07:00,2.664217,2.39,1.96,-1.34,0.29,13.61,975.73,28.75,24.0,0.0,-0.000123353,9.60433e-05,-0.000334768,32.8213822,-111.786993,325.43017000000003,2.19514456,-0.405597581,0.210534238,2.00642,-7.1524,3773.87,28.609,11619.0,-0.0213116,-1.0,17.0,-1276.0,89.0,,0.0,,2022-11-16 17:04:31.977976+00:00,1.185348176724083,0.014694487762287208,2.374122547407358,-1.4139947499313266,1.9071121407181715,0.289665232,306.5544359702112,0.21040587334872654,0.22485802969295848,2.4996544976069117,306.0022468294945,-1.472382022970951,2.014796678118418,0.26004819826,0.22600838835994042,0.21159934154719023,0.6143473683698272,0.7890356842228796,0.07602308006996772,0.1569421297505746,,,,,,,,,,
2022-11-16 10:04:32.177861-07:00,2.864102,2.68,2.09,-1.66,0.19,12.79,975.73,30.42,27.0,0.0,-0.000513626,5.49557e-05,9.20683e-05,32.8213822,-111.786993,325.43273300000004,2.20197714,-0.402532782,0.201158609,,,,,,,,,,,,,,2022-11-16 17:04:32.177861+00:00,1.1887474405728407,0.014750017260422939,2.668600620227366,-1.7390218742755186,2.024162096045953,0.1900920683,310.6669211156927,0.21644047181202877,0.23050484624229015,,,,,,,,0.10638832068427073,0.994324657856769,,,,,,,,,,,,
2022-11-16 10:04:32.377540-07:00,3.063781,2.82,2.31,-1.61,0.22,12.24,975.72,31.57,24.0,0.0,-0.000115859,-0.000256399,0.000382611,32.8213822,-111.786993,325.43111600000003,2.21345494,-0.405067335,0.203473791,,,,,,,,,,,,,,2022-11-16 17:04:32.377540+00:00,1.1910261729728298,0.014787451142544674,2.815768164857758,-1.6982730372935955,2.245978416866024,0.220382611,307.09436680656205,0.21539022947381553,0.22977302565169525,,,,,,,,0.911282717142998,-0.4117812640668279,,,,,,,,,,,,
2022-11-16 10:04:32.577641-07:00,3.263882,2.8,2.27,-1.63,0.16,12.19,975.72,31.56,22.0,0.0,8.12754e-05,-0.000118349,-2.42376e-05,32.8213822,-111.786993,325.428064,2.22173013,-0.405744706,0.203028158,,,,,,,,,,,,,,2022-11-16 17:04:32.577641+00:00,1.1912348759540055,0.0147908680768214,2.7947387747826062,-1.716893665579137,2.205185017264451,0.1599757624,307.9032996284863,0.21577267778010012,0.2301462698398988,,,,,,,,0.8243329637458399,0.5661052595427815,,,,,,,,,,,,
2022-11-16 10:04:32.777408-07:00,3.463649,2.72,2.23,-1.55,0.15,12.31,975.72,31.38,23.0,0.0,7.17545e-05,-0.000700686,-0.00138677,32.8213822,-111.786993,325.42510400000003,2.23430688,-0.408039277,0.203651697,,,,,,,,,,,,,,2022-11-16 17:04:32.777408+00:00,1.1907341116258527,0.014782670096718525,2.716248132087174,-1.6364613687440788,2.1679479015131604,0.14861322999999999,307.04709265139917,0.21414410021261535,0.22870461671071274,,,,,,,,0.9947973826743547,0.10187329102494656,,,,,,,,,,,,
2022-11-16 10:04:32.977679-07:00,3.66392,2.73,2.26,-1.53,0.16,12.24,975.73,31.54,26.0,0.0,-0.000145458,-4.79067e-06,-0.000460886,32.8213822,-111.786992,325.427118,2.24744512,-0.410297124,0.20271234,,,,,,,,,,,,,,2022-11-16 17:04:32.977679+00:00,1.1910383796117525,0.014787499427083253,2.729079699983233,-1.617454378481317,2.1981167717826526,0.159539114,306.34698855050004,0.21371963972910138,0.22841883777553598,,,,,,,,0.03291722590886583,-0.9994580812812836,,,,,,,,,,,,
2022-11-16 10:04:33.178034-07:00,3.864275,2.72,2.21,-1.57,0.14,12.19,975.72,31.64,26.0,0.0,-8.70688e-05,-0.000224537,-0.00119786,32.8213822,-111.786992,325.42424900000003,2.25595289,-0.412675315,0.205562775,2.00398,-7.10318,3790.59,28.6096,11673.0,-0.0548173,-1.0,19.0,-1286.0,89.0,,0.0,,2022-11-16 17:04:33.178034+00:00,1.1912348759540055,0.0147908680768214,2.710972120909354,-1.6560013402814684,2.146399171014968,0.13880214000000002,307.65109622133394,0.21447694782605795,0.22913018569568483,2.716459473397002,308.1546530528366,-1.6775603985557912,2.1354576845230926,0.16264037280000002,0.22954159011335365,0.2149251839615804,0.9323565043477934,-0.36154024506320614,2.597513459526774,0.20150582850132812,,,,,,,,,,
2022-11-16 10:04:33.377757-07:00,4.063998,2.75,2.17,-1.67,0.18,12.19,975.73,31.63,23.0,0.0,-0.000293261,2.55605e-05,-0.00225676,32.8213822,-111.786992,325.42135,2.27000002,-0.411158526,0.202803067,,,,,,,,,,,,,,2022-11-16 17:04:33.377757+00:00,1.1912470847318921,0.014790916384050029,2.737969581647496,-1.7546146268793759,2.1018574978261286,0.17774324,309.8548718274927,0.21646694105895173,0.2310045621661114,,,,,,,,0.08683036895620445,0.9962231110684641,,,,,,,,,,,,
2022-11-16 10:04:33.578133-07:00,4.264374,2.7,2.13,-1.64,0.19,12.22,975.73,31.58,23.0,0.0,-7.85899e-05,0.0001979,-0.00149586,32.8213822,-111.786992,325.424463,2.28079691,-0.407630054,0.204592028,,,,,,,,,,,,,,2022-11-16 17:04:33.578133+00:00,1.1911218528836178,0.01478886601963672,2.6880278323577516,-1.7232702783927158,2.0629670804785527,0.18850414000000001,309.873216013457,0.21581829098117566,0.23044974821872335,,,,,,,,0.9293970491958655,0.3690814611248009,,,,,,,,,,,,
2022-11-16 10:04:33.777884-07:00,4.464125,2.72,2.2,-1.6,0.16,12.34,975.73,31.33,23.0,0.0,0.000156714,-0.000213303,-0.000942747,32.8213822,-111.786992,325.42568400000005,2.29563431,-0.408513103,0.210581449,,,,,,,,,,,,,,2022-11-16 17:04:33.777884+00:00,1.1906211886840103,0.014780670266408193,2.7205493170187185,-1.687051671029244,2.1343020511653106,0.159057253,308.32448538817255,0.2149660904171103,0.2298161006484042,,,,,,,,0.8058789432871993,0.5920803397903928,,,,,,,,,,,,
2022-11-16 10:04:33.977361-07:00,4.663602,2.53,2.03,-1.49,0.23,12.44,975.73,31.12,27.0,0.0,-0.000124963,0.000838496,-0.0017881,32.8213823,-111.786992,325.421014,2.30857891,-0.406964433,0.204568082,,,,,,,,,,,,,,2022-11-16 17:04:33.977361+00:00,1.190204289917007,0.01477384743627188,2.5175136466934007,-1.5697234281271217,1.968208149682432,0.22821190000000002,308.5737382699044,0.21278424312699004,0.22778621239453778,,,,,,,,0.9890763178371983,0.1474043333610295,,,,,,,,,,,,
2022-11-16 10:04:34.177559-07:00,4.8638,2.71,2.16,-1.61,0.22,12.36,975.73,31.23,24.0,0.0,-0.000313668,0.000181464,-0.00171535,32.8213823,-111.786992,325.41985500000004,2.32265155,-0.409052564,0.219098075,2.00619,-7.91168,3786.98,28.6102,11685.0,-0.183241,-1.0,18.0,-1275.0,89.0,,0.0,,2022-11-16 17:04:34.177559+00:00,1.1905377855675738,0.014779305194211771,2.693653936072817,-1.696033762818669,2.09266361432021,0.21828465,309.02360840894085,0.21509436219524775,0.2300703085155615,2.6864408135840705,307.4379551211034,-1.6312653097963672,2.1317068508531447,0.1962143106,0.22893436041589948,0.2138411154589142,0.5007608158770762,0.8655857007149118,-0.34452466438804263,0.17019248094655154,,,,,,,,,,
2022-11-16 10:04:34.377591-07:00,5.063832,2.79,2.25,-1.64,0.2,12.56,975.73,30.79,22.0,0.0,6.85849e-05,0.000104323,-0.00223474,32.8213823,-111.786992,325.41814600000004,2.33033026,-0.409620636,0.206164462,,,,,,,,,,,,,,2022-11-16 17:04:34.377591+00:00,1.1897043966168424,0.014765668384376453,2.784248239767323,-1.7300260422542253,2.181524273018666,0.19776526,308.41566295912605,0.21568538526560566,0.23072395950556338,,,,,,,,0.8355959690259428,-0.5493444971487342,,,,,,,,,,,,
2022-11-16 10:04:34.577265-07:00,5.263506,2.73,2.34,-1.38,0.18,12.61,975.73,30.74,23.0,0.0,0.000166839,0.000952346,-0.00224751,32.8213823,-111.786992,325.417078,2.34135705,-0.410618257,0.214339934,,,,,,,,,,,,,,2022-11-16 17:04:34.577265+00:00,1.1894962316538287,0.014762263129421806,2.716238928368092,-1.473491644752576,2.281836166079105,0.17775248999999999,302.8522805793732,0.2106754962896172,0.22627522101543066,,,,,,,,0.9849991111642132,-0.17255941297335786,,,,,,,,,,,,
2022-11-16 10:04:34.777811-07:00,5.464052,2.38,1.9,-1.39,0.33,12.86,975.73,30.31,26.0,0.0,0.000182994,0.000613304,-0.00141031,32.8213823,-111.786992,325.420312,2.35735614,-0.412970907,0.219906284,,,,,,,,,,,,,,2022-11-16 17:04:34.777811+00:00,1.1884564985748682,0.01474526048640373,2.353927541548449,-1.4663612040124279,1.8414015559425239,0.32858969,308.53132181430647,0.21080676647081656,0.22620303341517156,,,,,,,,0.958254045385219,-0.28591814301100715,,,,,,,,,,,,
2022-11-16 10:04:34.977848-07:00,5.664089,2.11,1.73,-1.14,0.38,13.32,975.74,29.41,26.0,0.0,-4.91642e-05,0.000950265,-0.00070726,32.8213824,-111.786992,325.421289,2.36524482,-0.413212433,0.211759398,2.00686,-6.9807,3738.23,28.6117,11648.0,-0.214906,-1.0,16.0,-1283.0,89.0,,0.0,,2022-11-16 17:04:34.977848+00:00,1.1865602918633025,0.014714125978699873,2.071239995504105,-1.209474892888914,1.6814296305368226,0.37929274,305.727971079368,0.20668378555738443,0.2223995880068896,2.337020290852623,307.0855509653459,-1.403588401876665,1.8656436977089499,0.26497040520000004,0.2252766566886904,0.2097181578381023,0.9986643038211878,0.05166825208328993,1.7906308051815492,0.22467595382166208,,,,,,,,,,
2022-11-16 10:04:35.177750-07:00,5.863991,2.34,1.87,-1.38,0.23,12.82,975.74,30.37,24.0,0.0,-0.000258872,0.000258438,-0.000221614,32.8213824,-111.786992,325.427209,2.375333,-0.416910943,0.222639261,,,,,,,,,,,,,,2022-11-16 17:04:35.177750+00:00,1.1886349155858316,0.014748026288315536,2.3237060186681373,-1.456058917183693,1.810939560251633,0.229778386,308.800502085334,0.21057662113381687,0.22608613901920427,,,,,,,,0.706513301520389,0.707699763158615,,,,,,,,,,,,
2022-11-16 10:04:35.378064-07:00,6.064305,2.23,1.77,-1.34,0.21,12.86,975.73,30.31,22.0,0.0,-9.60696e-05,-6.375e-05,-0.00056128,32.8213824,-111.786992,325.431085,2.38484737,-0.416011091,0.212215503,,,,,,,,,,,,,,2022-11-16 17:04:35.378064+00:00,1.1884564985748682,0.01474526048640373,2.219988970174332,-1.4125553505457127,1.7126115757346645,0.20943872,309.5156792683477,0.20984811973887638,0.22541930198675578,,,,,,,,0.552919178007029,-0.8332348904072797,,,,,,,,,,,,
2022-11-16 10:04:35.578260-07:00,6.264501,2.35,1.73,-1.59,0.2,12.7,975.72,30.63,24.0,0.0,4.79745e-05,0.000309711,-4.70026e-05,32.8213824,-111.786992,325.431329,2.39508659,-0.418596472,0.216285964,,,,,,,,,,,,,,2022-11-16 17:04:35.578260+00:00,1.189109531239167,0.014756089567052827,2.349495853754311,-1.6605979471465466,1.6620906186912234,0.1999529974,314.9742606710616,0.21449418958305855,0.22964497153693822,,,,,,,,0.9882145307033807,-0.1530752798680994,,,,,,,,,,,,
2022-11-16 10:04:35.778092-07:00,6.464333,2.53,2.15,-1.27,0.38,12.66,975.73,30.72,27.0,0.0,-0.000320607,-0.000454996,-0.000683155,32.8213824,-111.786992,325.42653800000005,2.40264663,-0.414507532,0.214875213,,,,,,,,,,,,,,2022-11-16 17:04:35.778092+00:00,1.1892881395241526,0.014758859451336185,2.497057016467568,-1.3594704142465137,2.094548623517326,0.379316845,302.9856564957067,0.2086126435362527,0.2246510703712039,,,,,,,,0.8174472114845657,-0.5760035212011362,,,,,,,,,,,,
2022-11-16 10:04:35.977906-07:00,6.664147,2.84,2.46,-1.32,0.52,12.57,975.72,30.9,24.0,0.0,-0.000122332,-0.000200973,-0.0017072,32.8213824,-111.786992,325.42424900000003,2.41334157,-0.415733983,0.209290295,2.00383,-7.14131,3698.23,28.6122,11634.0,-0.202323,-1.0,16.0,-1294.0,89.0,,0.0,,2022-11-16 17:04:35.977906+00:00,1.1896505652552005,0.014764939072050294,2.7917707730358248,-1.4226166263031095,2.4021128166143666,0.5182928,300.635525678679,0.20942026113729345,0.22566311641523756,2.6773961874450425,307.7548310999427,-1.6283102393207933,2.1110088662294455,0.30109556987999997,0.22933227665255104,0.2136582945863444,0.8541974065632237,-0.5199488346180446,2.6498563100966397,0.1770219562169182,,,,,,,,,,
2022-11-16 10:04:36.177649-07:00,6.86389,2.9,2.35,-1.69,0.19,12.42,975.72,31.24,23.0,0.0,-0.000234954,0.000373057,-0.000901193,32.8213824,-111.786992,325.427118,2.42559442,-0.412311286,0.209394202,2.00383,-7.14131,3698.23,28.6122,11634.0,-0.202323,-1.0,16.0,-1294.0,89.0,,0.0,,2022-11-16 17:04:36.177649+00:00,1.1902754473674262,0.014775163293296697,2.894165942179806,-1.78756936082066,2.276135382864723,0.189098807,308.14441943181936,0.21647485695833082,0.23210895897220646,2.7866185533402734,306.7344543164319,-1.667453707381594,2.2230516478028237,0.30085230639999994,0.23010971233050065,0.21434267017332273,0.8461650704395901,0.5329208886579354,0.9924477426201551,0.1756437007056349,,,,,,,,,,
2022-11-16 10:04:36.377803-07:00,7.064044,2.87,2.2,-1.82,0.22,12.61,975.74,30.81,23.0,0.0,-0.000522678,0.000539487,-0.0011836,32.8213824,-111.786992,325.423669,2.43528461,-0.4093571,0.20665844,,,,,,,,,,,,,,2022-11-16 17:04:36.377803+00:00,1.1895084224876826,0.014762311246824355,2.854491351787702,-1.9112968480871368,2.120156889459589,0.2188164,312.03429322244693,0.2192895217167864,0.23459326596716898,,,,,,,,0.7182069775859377,0.6958295318157116,,,,,,,,,,,,
2022-11-16 10:04:36.577364-07:00,7.263605,2.9,2.3,-1.76,0.2,12.26,975.72,31.54,26.0,0.0,-0.000317551,0.000442936,-0.00126332,32.8213824,-111.786992,325.42519500000003,2.45122946,-0.408207739,0.215045649,,,,,,,,,,,,,,2022-11-16 17:04:36.577364+00:00,1.1909427122550573,0.014786084812627566,2.8956076832304665,-1.8563152874505504,2.2223045265581156,0.19873668,309.87237675350724,0.21791606751795028,0.2335321499266863,,,,,,,,0.8127184821951404,0.5826565615338312,,,,,,,,,,,,
2022-11-16 10:04:36.778028-07:00,7.464269,2.96,2.47,-1.62,0.18,12.39,975.73,31.23,26.0,0.0,-0.00022724,0.000452017,-0.000939655,32.8213824,-111.786992,325.42336400000005,2.46114033,-0.405319131,0.211090409,,,,,,,,,,,,,,2022-11-16 17:04:36.778028+00:00,1.190412702799601,0.014777258060557668,2.9534134946575255,-1.7241198861943816,2.397928666256411,0.17906034499999998,305.71627956520905,0.21492274843307926,0.2310141668312415,,,,,,,,0.8934514038654345,0.4491598701251974,,,,,,,,,,,,
2022-11-16 10:04:36.977580-07:00,7.663821,3.13,2.64,-1.68,0.18,12.57,975.72,30.8,23.0,0.0,-0.000798966,0.000224017,-0.000987804,32.8213824,-111.786992,325.42458500000004,2.47169874,-0.408617641,0.218344641,,,,,,,,,,,,,,2022-11-16 17:04:36.977580+00:00,1.1896505652552005,0.014764939072050294,3.1284339275107933,-1.792065368800629,2.5642933827364747,0.17901219599999998,304.9479089090572,0.2161415373094245,0.23233083195749224,,,,,,,,0.2699724532883908,0.962868046237618,,,,,,,,,,,,
2022-11-16 10:04:37.177592-07:00,7.863833,3.08,2.56,-1.7,0.19,12.47,975.72,31.02,22.0,0.0,-0.000300207,0.000597133,-0.000460034,32.8213825,-111.786992,325.42705700000005,2.4807334,-0.405071539,0.211635333,2.00588,-7.19903,3694.23,28.6126,11680.0,-0.22462,-1.0,17.0,-1294.0,89.0,,0.0,,2022-11-16 17:04:37.177592+00:00,1.1900670804030384,0.014771753640062472,3.0724498899127033,-1.8086152874928845,2.4837187980670463,0.189539966,306.06167390621096,0.21654198093898014,0.2326855259757297,3.031173492042655,305.01182606840047,-1.73862837482493,2.4825663075155227,0.1773416554,0.23136498385262136,0.21509196120774657,0.8934432149628807,0.44917615880274825,1.437081608155869,0.18971509511760448,,,,,,,,,,
2022-11-16 10:04:37.378120-07:00,8.064361,3.14,2.68,-1.62,0.17,12.45,975.74,31.18,24.0,0.0,-0.000353931,0.000815908,-0.000103744,32.8213825,-111.786992,325.42989500000004,2.48987917,-0.406828689,0.216259564,,,,,,,,,,,,,,2022-11-16 17:04:37.378120+00:00,1.190174813760785,0.014773213690838114,3.130834440808667,-1.734081674672891,2.6067383914227715,0.16989625600000002,303.63305914664716,0.21484498550554823,0.2312938087758994,,,,,,,,0.9174034249914311,0.39795848503831605,,,,,,,,,,,,
2022-11-16 10:04:37.578298-07:00,8.264539,2.87,2.43,-1.53,0.17,12.49,975.73,31.03,27.0,0.0,-0.000714725,0.000398379,-0.000800486,32.8213825,-111.786992,325.426263,2.50289149,-0.405251358,0.215648965,,,,,,,,,,,,,,2022-11-16 17:04:37.578298+00:00,1.1899959499978927,0.014770438392482047,2.870735707323585,-1.6342596569638645,2.360152299094911,0.16919951400000002,304.7002088148782,0.21300855385170078,0.22950058572274382,,,,,,,,0.4868654252743421,0.8734769932130061,,,,,,,,,,,,
2022-11-16 10:04:37.777544-07:00,8.463785,2.8,2.49,-1.25,0.33,12.67,975.72,30.7,24.0,0.0,-0.000307893,0.000564144,-0.00108488,32.8213825,-111.786992,325.420587,2.51211058,-0.405823141,0.213701226,,,,,,,,,,,,,,2022-11-16 17:04:37.777544+00:00,1.1892343415601283,0.014758130814869187,2.7856005049999926,-1.3573726615433073,2.432510972462622,0.32891512,299.16208370475874,0.20795497714286923,0.22497345517008244,,,,,,,,0.8777790589149526,0.47906567788809523,,,,,,,,,,,,
2022-11-16 10:04:37.977965-07:00,8.664206,3.01,2.74,-1.19,0.36,12.74,975.73,30.63,22.0,0.0,8.85059e-05,0.000160977,-0.000508132,32.8213825,-111.786992,325.41994600000004,2.52572082,-0.406535656,0.2168001,2.00644,-7.85113,3682.0,28.6131,11680.0,-0.298406,-1.0,17.0,-1294.0,89.0,,0.0,,2022-11-16 17:04:37.977965+00:00,1.1889553435146316,0.014753416843629604,2.9872652484439315,-1.3094289453286705,2.6849859406887457,0.359491868,295.9978244915729,0.2069540160205214,0.22429794714022394,2.823228300836856,301.9368840733057,-1.4846470261703886,2.3925347355619215,0.3416963234,0.22710195458501797,0.21022470303641877,0.8762881905679156,-0.4817873048049402,2.811834023621744,0.18108584497266636,,,,,,,,,,
2022-11-16 10:04:38.177918-07:00,8.864159,2.84,2.44,-1.37,0.46,12.81,975.72,30.42,23.0,0.0,-0.000342744,1.04654e-05,0.000137184,32.8213825,-111.786992,325.42135,2.53581556,-0.409703688,0.211796071,,,,,,,,,,,,,,2022-11-16 17:04:38.177918+00:00,1.1886521174455025,0.014748609840793018,2.7980063988991497,-1.4766030509499701,2.3766537901439975,0.46013718400000003,301.85247640863406,0.2099309541325052,0.22690749948906636,,,,,,,,0.030519935520074877,0.9995341582636635,,,,,,,,,,,,
2022-11-16 10:04:38.377542-07:00,9.063783,2.71,2.18,-1.55,0.39,12.91,975.74,30.17,27.0,0.0,-0.000553786,-0.000171893,0.000737931,32.8213825,-111.786992,325.421716,2.54844987,-0.407052307,0.213486648,,,,,,,,,,,,,,2022-11-16 17:04:38.377542+00:00,1.1882609480880941,0.014741912658883902,2.6745336445176235,-1.64557081606613,2.1083706754193328,0.39073793100000004,307.9718269466846,0.21327501403449728,0.22983028540297326,,,,,,,,0.29644385732301926,-0.9550502811137482,,,,,,,,,,,,
2022-11-16 10:04:38.577428-07:00,9.263669,2.92,2.42,-1.57,0.46,12.66,975.73,30.8,26.0,0.0,-0.000221566,-0.00010787,0.0012448,32.8213825,-111.786992,325.4255,2.56124567,-0.406342228,0.204082388,,,,,,,,,,,,,,2022-11-16 17:04:38.577428+00:00,1.1892881395241526,0.014758859451336185,2.884548759604625,-1.6766827041977348,2.3472018779774255,0.4612448,305.5394546789465,0.2136376298447021,0.23043148502654948,,,,,,,,0.43773193336245486,-0.8991055302436791,,,,,,,,,,,,
2022-11-16 10:04:38.777802-07:00,9.464043,3.02,2.39,-1.82,0.2,12.42,975.73,31.16,22.0,0.0,-0.000234054,-0.000329815,0.000485056,32.8213825,-111.786992,325.42193000000003,2.57164017,-0.406900481,0.20993227,,,,,,,,,,,,,,2022-11-16 17:04:38.777802+00:00,1.190287646312281,0.01477521149626685,3.0041123134240304,-1.925732656675739,2.305698273122154,0.20048505600000002,309.86882947723484,0.21894633457029175,0.2352738975552304,,,,,,,,0.8155167819647503,-0.5787334259690362,,,,,,,,,,,,
2022-11-16 10:04:38.977945-07:00,9.664186,3.05,2.43,-1.83,0.2,12.39,975.71,31.3,22.0,0.0,-0.000460224,-6.98602e-05,0.000382385,32.8213825,-111.786992,325.42543900000004,2.579644,-0.40740999,0.207911361,,,,,,,,,,,,,,2022-11-16 17:04:38.977945+00:00,1.1903883023465494,0.014777161627789857,3.0416956319680555,-1.9375849952266202,2.3447124991789945,0.20038238500000002,309.56908697733195,0.21915320441840547,0.23554598102801594,,,,,,,,0.15007688930786706,-0.9886743282272855,,,,,,,,,,,,
2022-11-16 10:04:39.178215-07:00,9.864456,2.96,2.42,-1.69,0.22,12.45,975.72,31.15,25.0,0.0,-0.000274194,-0.000285778,9.1364e-05,32.8213826,-111.786992,325.425592,2.58386468,-0.404406385,0.209309465,,,,,,,,,,,,,,2022-11-16 17:04:39.178215+00:00,1.1901504184338794,0.014773117311715421,2.9516509771177453,-1.797665185036618,2.3410773958217193,0.220091364,307.5199172652804,0.2160567470272509,0.23276446900335512,,,,,,,,0.7215801408646975,-0.6923309182101312,,,,,,,,,,,,
2022-11-16 10:04:39.378051-07:00,10.064292,2.87,2.34,-1.64,0.21,12.51,975.73,31.07,27.0,0.0,0.000122652,-0.000252735,-0.000937854,32.8213826,-111.786992,325.422235,2.59447433,-0.405990319,0.215123223,,,,,,,,,,,,,,2022-11-16 17:04:39.378051+00:00,1.189912634451439,0.014769075217265747,2.857732834540518,-1.7444955883924755,2.263486712063973,0.209062146,307.6218601762401,0.21497558524734056,0.2317834710064972,,,,,,,,0.8996549973210599,0.4366015183153212,,,,,,,,,,,,
2022-11-16 10:04:39.578077-07:00,10.264318,2.87,2.33,-1.66,0.21,12.49,975.71,31.1,24.0,0.0,0.00022038,0.000277657,-0.000177041,32.8213826,-111.786992,325.42330300000003,2.6035304,-0.407257777,0.215976803,,,,,,,,,,,,,,2022-11-16 17:04:39.578077+00:00,1.1899715580872208,0.014770342050222759,2.8608588146411593,-1.7638480279783733,2.2524105512776353,0.209822959,308.0642643915366,0.21536945244241493,0.23218647859505004,,,,,,,,0.7832651362906695,-0.6216878045060551,,,,,,,,,,,,
2022-11-16 10:04:39.777480-07:00,10.463721,2.88,2.29,-1.73,0.22,12.61,975.73,30.82,23.0,0.0,-0.000212275,-0.000444377,-0.000437398,32.8213826,-111.786992,325.420496,2.61331195,-0.410195606,0.219704165,,,,,,,,,,,,,,2022-11-16 17:04:39.777480+00:00,1.1894962316538287,0.014762263129421806,2.8701378477436785,-1.8330579275736827,2.2085266353861326,0.219562602,309.6923785308821,0.21684103565804297,0.23353799342327847,,,,,,,,0.9023341879236906,-0.43103713680388817,,,,,,,,,,,,
2022-11-16 10:04:39.978149-07:00,10.66439,2.83,2.26,-1.68,0.24,12.71,975.72,30.58,24.0,0.0,0.000176688,0.000599382,-0.000891281,32.8213826,-111.786992,325.417169,2.62214153,-0.413535087,0.204579088,,,,,,,,,,,,,,2022-11-16 17:04:39.978149+00:00,1.1890679336203593,0.014755409277120522,2.81578324195858,-1.7810344059211465,2.180952019330063,0.239108719,309.2361628755264,0.215742541084055,0.23257609008711505,,,,,,,,0.959192397025976,-0.28275421391654343,,,,,,,,,,,,
2022-11-16 10:04:40.177665-07:00,10.863906,2.87,2.17,-1.87,0.19,12.75,975.71,30.54,27.0,0.0,-0.00037156,-7.18113e-05,-0.00110246,32.8213826,-111.786992,325.41829800000005,2.63157948,-0.413985684,0.216932236,2.00538,-7.09891,3669.81,28.6147,11631.0,-0.274412,-1.0,15.0,-1272.0,89.0,,0.0,,2022-11-16 17:04:40.177665+00:00,1.1888893873803208,0.014752640693635691,2.8643560667272276,-1.9677322063363212,2.08148159759914,0.18889754,313.3908860366806,0.21994309853095997,0.23632272716292196,2.8284174863084375,311.01331847378384,-1.8558526390331505,2.132860755966836,0.2351535032,0.23408322140773152,0.21739968461084946,0.18975818236205788,-0.981830857238989,2.2268611677747896,0.20974095595919517,,,,,,,,,,
2022-11-16 10:04:40.378175-07:00,11.064416,2.88,2.2,-1.84,0.2,12.57,975.73,30.93,26.0,0.0,-2.27244e-05,2.40523e-06,-0.000847356,32.8213826,-111.786992,325.41601,2.64131565,-0.41643217,0.210588947,,,,,,,,,,,,,,2022-11-16 17:04:40.378175+00:00,1.1896627577957373,0.014764987207184867,2.868012315803475,-1.9394260988734209,2.112846669924024,0.19915264400000002,312.54947211667616,0.21922709748421226,0.23576727261284997,,,,,,,,0.10525555975545405,0.9944452057004277,,,,,,,,,,,,
2022-11-16 10:04:40.578086-07:00,11.264327,2.75,2.16,-1.66,0.33,12.85,975.72,30.29,22.0,0.0,-0.000436702,8.74181e-05,-0.000953989,32.8213826,-111.786992,325.41634500000004,2.65022418,-0.416867986,0.214085841,,,,,,,,,,,,,,2022-11-16 17:04:40.578086+00:00,1.1884858723941114,0.014745891828051843,2.7237979593092265,-1.7580125564611813,2.0804968575948215,0.329046011,310.1976928091538,0.21524465029697717,0.23221202375249228,,,,,,,,0.19628388552610568,0.9805471106901364,,,,,,,,,,,,
2022-11-16 10:04:40.777690-07:00,11.463931,2.81,2.27,-1.61,0.39,12.78,975.73,30.52,22.0,0.0,-0.000754854,-2.35553e-05,-0.000504082,32.8213826,-111.786992,325.42070900000004,2.66120534,-0.418826048,0.214360704,,,,,,,,,,,,,,2022-11-16 17:04:40.777690+00:00,1.1887890153443084,0.014750697051187062,2.782403783610302,-1.7136835574825502,2.192044588931273,0.389495918,308.0173729279219,0.2141750601064362,0.23141300404036375,,,,,,,,0.031189925177047346,-0.9995134759308902,,,,,,,,,,,,
2022-11-16 10:04:40.977373-07:00,11.663614,2.66,2.0,-1.73,0.23,12.7,975.72,30.64,26.0,0.0,-0.00092028,0.000513139,-0.000126304,32.8213826,-111.786992,325.42293700000005,2.66848666,-0.416330811,0.210904778,,,,,,,,,,,,,,2022-11-16 17:04:40.977373+00:00,1.189109531239167,0.014756089567052827,2.643388569765862,-1.8207249913323142,1.9163673021388026,0.22987369600000002,313.53396588279526,0.21669719140944757,0.23347975380501518,,,,,,,,0.487000209823538,0.8734018523176087,,,,,,,,,,,,
2022-11-16 10:04:41.177520-07:00,11.863761,2.61,2.03,-1.63,0.16,12.72,975.74,30.59,27.0,0.0,-0.00057354,-0.000560521,0.00162505,32.8213826,-111.786992,325.43117700000005,2.67981509,-0.414235341,0.212979129,2.00674,-7.46893,3666.12,28.6148,11659.0,-0.329746,-1.0,14.0,-1276.0,89.0,,0.0,,2022-11-16 17:04:41.177520+00:00,1.189050711197678,0.01475482518536178,2.6033620063827567,-1.7236896943163047,1.9509965591935359,0.16162505,311.460337007783,0.2145376617114265,0.2316445738595371,2.7036797474738803,310.3367668297225,-1.7482798522622083,2.06000121473988,0.2588298788,0.23215897916911743,0.21499730033116723,0.6989431526454729,-0.7151772293424946,2.6901536843399874,0.15797314332754414,,,,,,,,,,
2022-11-16 10:04:41.377889-07:00,12.06413,2.63,2.13,-1.51,0.27,12.84,975.73,30.36,24.0,0.0,-0.000481129,0.000423319,0.00124706,32.8213826,-111.786992,325.428827,2.69168728,-0.413794161,0.207285088,,,,,,,,,,,,,,2022-11-16 17:04:41.377889+00:00,1.1885396103269277,0.014746619250256695,2.610298756384973,-1.607938748661093,2.056256933882324,0.27124706000000004,308.02447078506617,0.21209023329297788,0.22960803228677576,,,,,,,,0.6605623582690493,0.750771184075436,,,,,,,,,,,,
2022-11-16 10:04:41.577648-07:00,12.263889,2.88,2.27,-1.77,0.24,12.63,975.72,30.82,22.0,0.0,0.000376175,-0.000235874,0.00190767,32.8213826,-111.786992,325.432092,2.70418887,-0.414629062,0.207055434,,,,,,,,,,,,,,2022-11-16 17:04:41.577648+00:00,1.1894007960834065,0.0147608533609875,2.8789456212255087,-1.8753622695187806,2.1843406895534634,0.24190767,310.6476875450462,0.21748635513554823,0.23464953185389534,,,,,,,,0.5312367336503897,0.8472234255616785,,,,,,,,,,,,
2022-11-16 10:04:41.777820-07:00,12.464061,2.99,2.16,-2.03,0.34,12.66,975.71,30.76,24.0,0.0,-0.000339241,-0.000558262,0.000606397,32.8213826,-111.786992,325.428033,2.71636047,-0.411144056,0.19975445,,,,,,,,,,,,,,2022-11-16 17:04:41.777820+00:00,1.1892637621218072,0.014758763262685659,2.964368417866867,-2.130643339909476,2.0610286448630215,0.340606397,315.95147272440664,0.22358568946001167,0.24006297124005252,,,,,,,,0.8545862958949458,-0.5193094095705912,,,,,,,,,,,,
2022-11-16 10:04:41.977690-07:00,12.663931,2.92,2.14,-1.97,0.23,12.57,975.72,30.89,27.0,0.0,-0.000460307,-0.000539941,0.000364217,32.8213826,-111.786992,325.42611100000005,2.72536136,-0.40955171,0.202834604,2.00577,-7.55165,3666.85,28.6162,11702.0,-0.282555,-1.0,17.0,-1267.0,89.0,,0.0,,2022-11-16 17:04:41.977690+00:00,1.1896505652552005,0.014764939072050294,2.908754664116959,-2.07006571611931,2.04344846447607,0.230364217,315.37073772701393,0.222090697828457,0.2387612350668583,2.9827386325103515,316.10885006495045,-2.1487965652108527,2.061922205399275,0.21866788359999995,0.24062567680723718,0.22416399797054493,0.7609946154298027,-0.6487581947743293,2.963161076327464,0.16828475084021594,,,,,,,,,,
2022-11-16 10:04:42.178016-07:00,12.864257,3.18,2.22,-2.27,0.22,12.71,975.71,30.65,24.0,0.0,-0.000168253,-0.000560489,0.000632174,32.8213826,-111.786992,325.42733200000004,2.73624383,-0.410087825,0.204479409,,,,,,,,,,,,,,2022-11-16 17:04:42.178016+00:00,1.189055747051122,0.014755361205522224,3.175413537750134,-2.373951464551679,2.1089347025642495,0.22063217400000001,318.3832422432648,0.22977399901156262,0.24575836233222967,,,,,,,,0.9577762759044315,-0.28751453061478194,,,,,,,,,,,,
2022-11-16 10:04:42.377767-07:00,13.064008,2.98,2.02,-2.2,0.06,12.41,975.71,31.36,22.0,0.0,-0.000464552,0.000254524,-0.00017104,32.8213826,-111.786992,325.423944,2.74497492,-0.409966181,0.197291498,,,,,,,,,,,,,,2022-11-16 17:04:42.377767+00:00,1.1903049301443958,0.014775797206458274,2.9862109215922907,-2.2939600359550165,1.9118585255395697,0.05982896,320.1911100850207,0.22788324841714508,0.24389628354315018,,,,,,,,0.4804982942539218,0.8769956608895346,,,,,,,,,,,,
2022-11-16 10:04:42.578073-07:00,13.264314,3.14,2.32,-2.12,0.1,12.51,975.71,31.07,24.0,0.0,-0.000165025,-0.000440197,0.000337654,32.8213826,-111.786992,325.426172,2.75707541,-0.409740836,0.204636811,,,,,,,,,,,,,,2022-11-16 17:04:42.578073+00:00,1.1898882442485252,0.01476897889309478,3.142933593155376,-2.229581622000664,2.215174341179821,0.10033765400000001,315.18571851888544,0.22576984182513693,0.24241770226175116,,,,,,,,0.936363353166033,-0.35103229316925094,,,,,,,,,,,,
2022-11-16 10:04:42.777530-07:00,13.463771,3.24,2.58,-1.95,0.17,12.54,975.71,31.03,27.0,0.0,0.000238524,-0.000130387,-4.4043e-05,32.8213826,-111.786992,325.42653800000005,2.76674198,-0.41040384,0.198981073,,,,,,,,,,,,,,2022-11-16 17:04:42.777530+00:00,1.1897632953622237,0.014766934631073467,3.234288934624383,-2.072393900793867,2.4831045955791122,0.16995595700000002,309.84830471175434,0.22150804819827047,0.23894097224167488,,,,,,,,0.4796542849944734,0.8774575584530802,,,,,,,,,,,,
2022-11-16 10:04:42.977535-07:00,13.663776,3.0,2.21,-2.03,0.05,12.48,975.7,31.15,25.0,0.0,-0.000249696,-0.000616771,-0.000327737,32.8213826,-111.786992,325.42440200000004,2.77507254,-0.410649871,0.210676793,,,,,,,,,,,,,,2022-11-16 17:04:42.977535+00:00,1.1900010229995153,0.014770975548398858,3.001096516635864,-2.1352338138091733,2.108875734255067,0.049672263,315.35583136613974,0.22345016487213146,0.24033341450449372,,,,,,,,0.9269203662973666,-0.37525809057654663,,,,,,,,,,,,
2022-11-16 10:04:43.178273-07:00,13.864514,3.05,2.21,-2.09,0.11,12.51,975.71,31.06,23.0,0.0,-0.000203546,-0.000495321,-0.00109254,32.8213826,-111.786992,325.422754,2.78610389,-0.415807771,0.20921703,,,,,,,,,,,,,,2022-11-16 17:04:43.178273+00:00,1.1898882442485252,0.01476897889309478,3.0419594745933507,-2.1954474786255562,2.105594408632617,0.10890746,316.1967920954807,0.22493688509065193,0.24171996801827647,,,,,,,,0.9249472268173781,-0.3800955506222636,,,,,,,,,,,,
2022-11-16 10:04:43.377840-07:00,14.064081,2.96,2.15,-2.04,0.11,12.35,975.72,31.38,23.0,0.0,-0.000624333,0.000512823,-0.00137037,32.8213826,-111.786992,325.41796300000004,2.79251809,-0.411715714,0.213322215,,,,,,,,,,,,,,2022-11-16 17:04:43.377840+00:00,1.1905672837293024,0.014779939463991872,2.962996126297222,-2.141811276784225,2.0474351025349424,0.10862963,316.29055240011485,0.22365962808067955,0.24055519194054015,,,,,,,,0.6347231907244173,0.772739588190365,,,,,,,,,,,,
2022-11-16 10:04:43.577839-07:00,14.26408,2.94,2.15,-2.0,0.18,12.29,975.73,31.55,26.0,0.0,-0.000637379,-9.95157e-05,-0.00145194,32.8213826,-111.786992,325.421106,2.80010762,-0.412134363,0.218555178,,,,,,,,,,,,,,2022-11-16 17:04:43.577839+00:00,1.1908297476085974,0.014784084054893168,2.9360357625240714,-2.1027426455022957,2.0490923272528043,0.17854805999999998,315.7403390903598,0.22264860396084876,0.2397003042703718,,,,,,,,0.15426373908801735,-0.9880297054251882,,,,,,,,,,,,
2022-11-16 10:04:43.778128-07:00,14.464369,2.95,2.18,-1.97,0.22,12.26,975.72,31.56,26.0,0.0,-0.000581584,0.000789189,-0.000500867,32.8213827,-111.786992,325.42244900000003,2.80752583,-0.412599059,0.207130874,,,,,,,,,,,,,,2022-11-16 17:04:43.778128+00:00,1.1909427122550573,0.014786084812627566,2.937278728018005,-2.0736247436940065,2.0803092915254293,0.219499133,314.9077991983381,0.22189589121313455,0.2391061618952233,,,,,,,,0.8050186595064254,0.5932494903887217,,,,,,,,,,,,
2022-11-16 10:04:43.977755-07:00,14.663996,2.88,2.13,-1.92,0.23,12.29,975.72,31.52,23.0,0.0,-0.000455038,0.000265541,-0.000161088,32.8213827,-111.786992,325.421259,2.81714401,-0.413922016,0.21691472,2.00789,-7.32336,3682.12,28.6185,11636.0,-0.273707,-1.0,17.0,-1246.0,89.0,,0.0,,2022-11-16 17:04:43.977755+00:00,1.1908175431078891,0.014784035793030644,2.867119808402356,-2.0221006740636267,2.0326054363020356,0.229838912,314.8515608337414,0.2206664318240115,0.23801691403958217,2.8785693361421316,315.5169230923789,-2.053531482237644,2.0170254979440436,0.23713149900000002,0.23869422857793862,0.2214426831482635,0.5040157045817836,0.8636944885403219,-0.757011295747001,0.17596643348026078,,,,,,,,,,
2022-11-16 10:04:44.177484-07:00,14.863725,2.89,2.09,-1.98,0.28,12.28,975.71,31.54,22.0,0.0,-0.000534243,-0.000129603,-0.00107629,32.8213827,-111.786992,325.42003800000003,2.82737315,-0.409740523,0.207708535,2.00789,-7.32336,3682.12,28.6185,11636.0,-0.273707,-1.0,17.0,-1246.0,89.0,,0.0,,2022-11-16 17:04:44.177484+00:00,1.1908470583051318,0.01478467047014437,2.8786999785712135,-2.080812635836032,1.9892542173314622,0.27892371000000005,316.2886830902686,0.22209317376615895,0.23929993027312074,2.852409098564742,315.2447723270618,-2.025384061342412,2.0081995648789253,0.23924623600000006,0.23812331918931218,0.2207473039081386,0.23575386855689115,-0.9718127975389397,2.4417349669984207,0.20889786738390054,,,,,,,,,,
2022-11-16 10:04:44.377378-07:00,15.063619,2.79,2.03,-1.89,0.28,12.36,975.73,31.36,25.0,0.0,-0.000154281,-0.000270902,-0.00115232,32.8213827,-111.786992,325.42312000000004,2.83545538,-0.406621028,0.210881086,,,,,,,,,,,,,,2022-11-16 17:04:44.377378+00:00,1.1905377855675738,0.014779305194211771,2.7737124031950127,-1.9883767120922577,1.9338662173084864,0.27884768000000004,315.7962332491867,0.21990931497716387,0.23734783241139518,,,,,,,,0.8689609438969054,-0.4948806704467243,,,,,,,,,,,,
2022-11-16 10:04:44.577879-07:00,15.26412,2.81,2.1,-1.86,0.19,12.46,975.71,31.24,27.0,0.0,1.0057e-05,7.62748e-05,-0.000878255,32.8213827,-111.786992,325.421777,2.84907162,-0.405296899,0.210101078,,,,,,,,,,,,,,2022-11-16 17:04:44.577879+00:00,1.190096550723132,0.01477238725975612,2.8052345746371214,-1.962005541026136,2.004962661927212,0.189121745,314.37958526377435,0.2191717077602243,0.23684575732723967,,,,,,,,0.9914192209462611,-0.13072080300514005,,,,,,,,,,,,
2022-11-16 10:04:44.777684-07:00,15.463925,2.89,2.24,-1.83,0.13,12.47,975.7,31.14,25.0,0.0,-0.000177843,0.000307216,-0.000863045,32.8213826,-111.786992,325.42312000000004,2.85419444,-0.405077418,0.210100598,,,,,,,,,,,,,,2022-11-16 17:04:44.777684+00:00,1.1900426867843692,0.014771657280383692,2.8921523542144842,-1.938962298996363,2.1459194866208566,0.129136955,312.0996362037404,0.218463685730755,0.2363906367909331,,,,,,,,0.8654493646758129,0.500996404360582,,,,,,,,,,,,
2022-11-16 10:04:44.977949-07:00,15.66419,2.72,2.12,-1.69,0.2,12.74,975.72,30.63,22.0,0.0,-0.000287681,-0.000296669,-0.000864629,32.8213826,-111.786992,325.423334,2.86353819,-0.403920495,0.215802818,2.00716,-7.09177,3670.5,28.6184,11648.0,-0.259174,-1.0,17.0,-1269.0,89.0,,0.0,,2022-11-16 17:04:44.977949+00:00,1.1889431582241976,0.014753368785223969,2.711161159425214,-1.7940960689312562,2.0326372346833765,0.199135371,311.4330567101081,0.21531645641075564,0.2335292051942896,2.783174097160526,311.6568780151182,-1.850025863730086,2.0760187909997914,0.23311793600000003,0.23469694965344715,0.21658933626634186,0.7178980113773955,-0.6961482925788017,2.7782621079031773,0.1601504888175038,,,,,,,,,,
2022-11-16 10:04:45.177987-07:00,15.864228,2.84,2.16,-1.83,0.24,12.68,975.72,30.79,24.0,0.0,-0.000326816,-0.000107947,-0.000723341,32.8213825,-111.786992,325.42473800000005,2.86896841,-0.402145291,0.206910132,,,,,,,,,,,,,,2022-11-16 17:04:45.177987+00:00,1.189192735208746,0.014757450335918647,2.8308245873105147,-1.93592661637341,2.065370664103358,0.239276659,313.14709794686917,0.2184265381687222,0.2363633386603339,,,,,,,,0.31363347992237844,-0.9495441223407046,,,,,,,,,,,,
2022-11-16 10:04:45.377838-07:00,16.064079,2.7,2.21,-1.51,0.41,12.99,975.73,30.19,27.0,0.0,-0.000213521,-0.000108298,-0.00108105,32.8213825,-111.786992,325.42345600000004,2.87725125,-0.402495479,0.218118509,,,,,,,,,,,,,,2022-11-16 17:04:45.377838+00:00,1.187916555383372,0.014736434647391305,2.6764978102152948,-1.6191387933232642,2.1312039076641525,0.40891895,307.2250139510991,0.21156829326125207,0.2303558102944395,,,,,,,,0.45234373486497703,-0.8918436777420151,,,,,,,,,,,,
2022-11-16 10:04:45.578100-07:00,16.264341,2.62,1.8,-1.9,0.19,12.99,975.73,30.06,26.0,0.0,8.9486e-05,0.000246649,-0.00106191,32.8213825,-111.786992,325.420404,2.88978661,-0.399919109,0.21121462,,,,,,,,,,,,,,2022-11-16 17:04:45.578100+00:00,1.187916555383372,0.014736434647391305,2.6171212860292847,-1.9880840732597775,1.7020122042565935,0.18893809,319.43294464745054,0.22001310847225525,0.23751149804766275,,,,,,,,0.9400435460311213,-0.34105444076457236,,,,,,,,,,,,
2022-11-16 10:04:45.777575-07:00,16.463816,2.46,1.54,-1.91,0.2,13.03,975.73,30.11,23.0,0.0,1.29381e-05,7.40732e-05,-0.000546269,32.8213825,-111.786992,325.42165500000004,2.89676998,-0.399279107,0.214687102,,,,,,,,,,,,,,2022-11-16 17:04:45.777575+00:00,1.1877505177070309,0.014733721139050754,2.453455354926755,-1.9853117656691563,1.4415201600096985,0.19945373100000002,324.0168765796716,0.22023424044230802,0.23747032933330645,,,,,,,,0.9850862141448026,-0.17206147361295093,,,,,,,,,,,,
2022-11-16 10:04:45.977971-07:00,16.664212,2.61,1.59,-2.05,0.27,12.72,975.74,30.63,23.0,0.0,5.0305e-05,4.54576e-05,-2.58883e-05,32.8213826,-111.786992,325.42336400000005,2.90845158,-0.399549605,0.206908091,,,,,,,,,,,,,,2022-11-16 17:04:45.977971+00:00,1.189050711197678,0.01475482518536178,2.5943314808214164,-2.127990914539193,1.483984669738772,0.2699741117,325.109461425957,0.22364495162251016,0.24057293890851036,,,,,,,,0.6704553988013274,-0.7419498353784797,,,,,,,,,,,,
2022-11-16 10:04:46.177864-07:00,16.864105,2.26,1.41,-1.75,0.15,12.92,975.74,30.24,26.0,0.0,0.0003564,0.000381946,0.000131399,32.8213827,-111.786992,325.421899,2.92053309,-0.399451991,0.208686393,2.00571,-7.15988,3663.28,28.6196,11702.0,-0.243229,-1.0,20.0,-1266.0,89.0,,0.0,,2022-11-16 17:04:46.177864+00:00,1.1882194106689978,0.014741233680939592,2.247253992362636,-1.8191857831456058,1.3193610546740855,0.150131399,324.04857122793373,0.21648244234618985,0.23419615813033418,2.416114160339059,320.8505002512924,-1.8695935447689986,1.516738458220285,0.22642196794,0.23534575852429093,0.21758178344483775,0.7311344517257355,-0.6822334010437396,2.3844389036794005,0.1615026009504971,,,,,,,,,,
2022-11-16 10:04:46.377490-07:00,17.063731,2.34,1.8,-1.46,0.31,13.25,975.73,29.63,27.0,0.0,7.64208e-05,-0.000263464,0.000532298,32.8213827,-111.786992,325.42196,2.93287951,-0.405284435,0.209396137,,,,,,,,,,,,,,2022-11-16 17:04:46.377490+00:00,1.1868381395160548,0.014718814766071208,2.317904279478247,-1.5504499916833363,1.7230162715751456,0.310532298,311.98234994409864,0.2104416566241256,0.22933734612842027,,,,,,,,0.9604133010049576,0.2785790574554389,,,,,,,,,,,,
2022-11-16 10:04:46.577903-07:00,17.264144,2.48,1.71,-1.78,0.2,13.21,975.73,29.71,24.0,0.0,-0.00064839,0.000329098,0.0020183,32.8213827,-111.786992,325.42278400000004,2.93982391,-0.407100378,0.203354235,,,,,,,,,,,,,,2022-11-16 17:04:46.577903+00:00,1.1870039221867512,0.014721522761905081,2.46762569410624,-1.8650292688077008,1.615810135103724,0.2020183,319.09524207880094,0.21710562618905513,0.23515202012088338,,,,,,,,0.4525998356314903,0.8917137370178548,,,,,,,,,,,,
2022-11-16 10:04:46.778157-07:00,17.464398,2.52,1.79,-1.76,0.2,13.2,975.73,29.76,23.0,0.0,-0.000246838,-6.82122e-05,0.00129655,32.8213827,-111.786992,325.421442,2.94646106,-0.408477883,0.212879197,,,,,,,,,,,,,,2022-11-16 17:04:46.778157+00:00,1.187045375091315,0.014722199917257811,2.5102020950821116,-1.8497524798483955,1.6969178888353238,0.20129655000000002,317.4674869195378,0.2166386103846903,0.23486190846457344,,,,,,,,0.26636064093089085,-0.9638734403244469,,,,,,,,,,,,
2022-11-16 10:04:46.978260-07:00,17.664501,2.56,1.68,-1.92,0.23,12.82,975.73,30.44,25.0,0.0,-0.000353037,0.000471415,0.00114093,32.8213827,-111.786992,325.42379200000005,2.95380897,-0.411260093,0.202603657,2.00584,-7.03243,3675.47,28.6202,11698.0,-0.316198,-1.0,19.0,-1266.0,89.0,,0.0,,2022-11-16 17:04:46.978260+00:00,1.188622733704228,0.01474797826562629,2.550646217315767,-2.003549520693014,1.5784756710313987,0.23114093000000002,321.7675598739043,0.22033511584304746,0.2380278163684603,2.5373700532440417,316.9409784766989,-1.847504995738292,1.7306118256461644,0.2332552342,0.23488588607868702,0.21658080733667825,0.8004270628730017,0.5994301602526351,0.2777783249122945,0.16941843917151778,,,,,,,,,,
2022-11-16 10:04:47.177526-07:00,17.863767,2.5,1.82,-1.71,0.19,12.65,975.74,30.85,28.0,0.0,-0.000754585,0.000423843,0.00126217,32.8213827,-111.786992,325.428156,2.96136927,-0.409207301,0.215452862,2.00584,-7.03243,3675.47,28.6202,11698.0,-0.316198,-1.0,19.0,-1266.0,89.0,,0.0,,2022-11-16 17:04:47.177526+00:00,1.189341941252905,0.014759588160197939,2.496470256281557,-1.801318609122163,1.7284718710261668,0.19126217,316.18228497044606,0.2154926526016962,0.23397260782455886,2.551726000069036,315.75886540780186,-1.8220686422021621,1.7777721442518548,0.2445727922,0.23442200958715514,0.21594680945706995,0.48972480360093307,0.8718770651519786,-0.7180007460777224,0.17351691117861295,,,,,,,,,,
2022-11-16 10:04:47.377475-07:00,18.063716,2.68,2.12,-1.61,0.34,12.74,975.73,30.67,26.0,0.0,-0.000328236,-0.000168396,0.000558221,32.8213827,-111.786992,325.425592,2.97071984,-0.410096373,0.212197107,,,,,,,,,,,,,,2022-11-16 17:04:47.377475+00:00,1.1889553435146316,0.014753416843629604,2.661906003434532,-1.717875100220188,2.033383562234209,0.34055822100000005,310.19231854080556,0.21333203166490236,0.23241507761495908,,,,,,,,0.4564665479885369,-0.8897405748685562,,,,,,,,,,,,
2022-11-16 10:04:47.578155-07:00,18.264396,2.56,1.94,-1.64,0.26,12.77,975.73,30.57,24.0,0.0,-0.000496189,0.000800325,-0.00139391,32.8213827,-111.786992,325.41814600000004,2.98031056,-0.409934086,0.212895379,,,,,,,,,,,,,,2022-11-16 17:04:47.578155+00:00,1.188830593023916,0.014751376904881288,2.5394054282312135,-1.7378475011270496,1.8516117281321756,0.25860609,313.18467673431564,0.21393563679101346,0.23283263766322415,,,,,,,,0.8499086365776923,0.5269300802484597,,,,,,,,,,,,
2022-11-16 10:04:47.778011-07:00,18.464252,2.55,2.08,-1.43,0.41,12.73,975.73,30.66,24.0,0.0,-0.00044853,-0.000424895,-0.00187613,32.8213827,-111.786992,325.415674,2.99259288,-0.410224213,0.220434094,,,,,,,,,,,,,,2022-11-16 17:04:47.778011+00:00,1.188996932829852,0.014754096949129252,2.524046321604895,-1.537065050071552,2.002059156332734,0.40812387,307.5149660629932,0.2097008781419001,0.22929023130541512,,,,,,,,0.6877206289590776,-0.7259754379482344,,,,,,,,,,,,
2022-11-16 10:04:47.978239-07:00,18.66448,2.6,2.08,-1.51,0.41,12.83,975.72,30.51,27.0,0.0,-0.000547731,-0.000363495,-0.00124884,32.8213827,-111.786992,325.41546,2.99815611,-0.407585662,0.207525813,2.00395,-7.93177,3709.64,28.6216,11643.0,-0.154695,-1.0,14.0,-1253.0,89.0,,0.0,,2022-11-16 17:04:47.978239+00:00,1.1885689891066364,0.014747250708648246,2.5701141708558546,-1.6170885771576673,1.997626437765647,0.40875116,308.990342769869,0.21122770988064293,0.23067960041539398,2.610463116908462,310.4162844557907,-1.6922457327950493,1.9856742456229164,0.321111099,0.23208381479435242,0.21281247029994782,0.5529518064461172,-0.8332132378616988,2.5079837074105287,0.16390149447526278,,,,,,,,,,
2022-11-16 10:04:48.177670-07:00,18.863911,2.69,2.11,-1.64,0.31,12.9,975.73,30.31,27.0,0.0,-0.000401224,-8.02326e-05,0.000234287,32.8213827,-111.786992,325.42165500000004,3.00993676,-0.40889072,0.218753174,2.00395,-7.93177,3709.64,28.6216,11643.0,-0.154695,-1.0,14.0,-1253.0,89.0,,0.0,,2022-11-16 17:04:48.177670+00:00,1.1882903099367177,0.014742543712976196,2.6721450221264846,-1.7486120594490548,2.0205729100491983,0.310234287,310.8730462863744,0.21385563409847144,0.2331058675407703,2.607402247858972,311.288168188309,-1.7171311038499877,1.9561169509396952,0.30542455,0.23258632992894057,0.21335779342666736,0.19608746520191458,-0.98058640924229,2.0673654378707718,0.2053489515019149,,,,,,,,,,
2022-11-16 10:04:48.377918-07:00,19.064159,2.76,2.15,-1.71,0.22,12.79,975.71,30.49,23.0,0.0,-0.000474184,0.000223097,-0.000159912,32.8213827,-111.786992,325.421808,3.01837468,-0.409060942,0.209757953,,,,,,,,,,,,,,2022-11-16 17:04:48.377918+00:00,1.1887230742534578,0.0147499211890211,2.746604641723863,-1.8206154761699234,2.0565009958348264,0.219840088,311.5183904254011,0.2153424925877112,0.23451073704695843,,,,,,,,0.42572140280397563,0.904854290587504,,,,,,,,,,,,
2022-11-16 10:04:48.577952-07:00,19.264193,2.53,1.8,-1.77,0.18,12.83,975.73,30.46,23.0,0.0,-0.000279488,0.000231221,0.000173345,32.8213827,-111.786992,325.420862,3.02442353,-0.410872811,0.212074776,,,,,,,,,,,,,,2022-11-16 17:04:48.577952+00:00,1.1885811705622702,0.014747298726497668,2.524101082983763,-1.8622743564017412,1.7038252547160713,0.18017334499999998,317.54409539690727,0.21666225242461104,0.23534521333616493,,,,,,,,0.6374377680355184,0.7705018441781283,,,,,,,,,,,,
2022-11-16 10:04:48.777457-07:00,19.463698,2.67,1.81,-1.95,0.26,13.12,975.71,29.92,25.0,0.0,-0.000210315,3.71407e-05,0.000197934,32.8213827,-111.786992,325.42251000000005,3.03621795,-0.411548727,0.207643968,,,,,,,,,,,,,,2022-11-16 17:04:48.777457+00:00,1.1873527643554467,0.014727523638860962,2.660400618787698,-2.0430961871613342,1.7039628582961501,0.260197934,320.1715523523898,0.22086296056778976,0.23909707743066538,,,,,,,,0.17390470512410272,0.9847624858491,,,,,,,,,,,,
2022-11-16 10:04:48.977946-07:00,19.664187,2.72,1.78,-2.03,0.35,12.81,975.73,30.48,28.0,0.0,-0.000347247,2.69085e-06,0.0007044,32.8213827,-111.786992,325.42363900000004,3.04343952,-0.409396137,0.209871478,2.00774,-7.09485,3725.04,28.6221,11679.0,-0.150187,-1.0,17.0,-1273.0,89.0,,0.0,,2022-11-16 17:04:48.977946+00:00,1.1886642997531056,0.014748657867651048,2.699653514548303,-2.1216397886088396,1.6693632636442086,0.35070439999999997,321.803379383338,0.22282999944626591,0.2408212438218231,2.576345639793258,318.7192015392343,-1.936828112848114,1.6952975366437766,0.264581948,0.2369882075839786,0.21841256746429014,0.007748862374392319,0.9999699771152646,-1.9236333363858307,0.21839945337406494,,,,,,,,,,
2022-11-16 10:04:49.177616-07:00,19.863857,2.57,1.76,-1.85,0.32,12.66,975.73,30.8,25.0,0.0,-9.85822e-05,-0.000246868,0.00138115,32.8213827,-111.786992,325.423853,3.05586757,-0.410112841,0.210818653,2.00774,-7.09485,3725.04,28.6221,11679.0,-0.150187,-1.0,17.0,-1273.0,89.0,,0.0,,2022-11-16 17:04:49.177616+00:00,1.1892881395241526,0.014758859451336185,2.55357228940566,-1.9414412365897813,1.6587758625230844,0.32138115,319.48927847805203,0.21842276766088192,0.23702172472522923,2.572393446651707,318.5028688426338,-1.9274639266772389,1.69954542938044,0.2905858482,0.2368325687100672,0.21816303538902101,0.9286905753342194,-0.3708555180732741,2.2931624557133983,0.20645209802400188,,,,,,,,,,
2022-11-16 10:04:49.377893-07:00,20.064134,2.46,1.83,-1.62,0.21,12.83,975.72,30.5,23.0,0.0,-0.000207521,-0.000163743,0.000452911,32.8213827,-111.786992,325.42046500000004,3.06482457,-0.402988579,0.208323803,,,,,,,,,,,,,,2022-11-16 17:04:49.377893+00:00,1.1885689891066364,0.014747250708648246,2.4440006932408638,-1.7156889954788723,1.7405604440393678,0.210452911,314.58770208548424,0.21328485722190205,0.23265577860601042,,,,,,,,0.6194359964521232,-0.785047161831291,,,,,,,,,,,,
2022-11-16 10:04:49.577507-07:00,20.263748,2.52,1.82,-1.72,0.31,12.68,975.74,30.8,25.0,0.0,-5.9002e-05,-0.000309313,0.000192846,32.8213827,-111.786992,325.421381,3.07467285,-0.400988788,0.214898706,,,,,,,,,,,,,,2022-11-16 17:04:49.577507+00:00,1.189217110905364,0.014757546507190964,2.504340117276013,-1.8154534255473662,1.7250647183993904,0.310192846,316.46243191390477,0.2154145920482655,0.23456701896660803,,,,,,,,0.982288776566544,-0.18737331568663196,,,,,,,,,,,,
2022-11-16 10:04:49.778209-07:00,20.46445,2.65,1.89,-1.84,0.31,12.63,975.72,30.89,28.0,0.0,2.55457e-05,3.21795e-05,0.000238399,32.8213827,-111.786992,325.422144,3.08235435,-0.400962693,0.204472085,,,,,,,,,,,,,,2022-11-16 17:04:49.778209+00:00,1.1894007960834065,0.0147608533609875,2.637738914278017,-1.9389335830938628,1.7883520739069714,0.310238399,317.3134786182222,0.21812254337406287,0.2370536861445001,,,,,,,,0.7832128781803255,-0.6217536388735417,,,,,,,,,,,,
2022-11-16 10:04:49.977543-07:00,20.663784,2.79,1.98,-1.92,0.38,12.45,975.72,31.27,26.0,0.0,-0.000100477,-0.000181018,0.000596436,32.8213827,-111.786992,325.425043,3.09239312,-0.402120261,0.209473937,,,,,,,,,,,,,,2022-11-16 17:04:49.977543+00:00,1.1901504184338794,0.014773117311715421,2.758107379125386,-2.024198751843439,1.8734395447468728,0.380596436,317.21507532295664,0.21999880504753602,0.2388535837265979,,,,,,,,0.8743388002155564,-0.4853160438699933,,,,,,,,,,,,
2022-11-16 10:04:50.178171-07:00,20.864412,2.78,2.03,-1.86,0.37,12.47,975.72,31.23,23.0,0.0,0.000640212,0.00042497,0.000657851,32.8213827,-111.786992,325.424005,3.09800389,-0.406623931,0.209060495,,,,,,,,,,,,,,2022-11-16 17:04:50.178171+00:00,1.1900670804030384,0.014771753640062472,2.753415246103453,-1.966566111223576,1.9271515891755688,0.370657851,315.5799620851312,0.21855270276564198,0.23767591002933341,,,,,,,,0.5530431545641157,-0.8331526085836686,,,,,,,,,,,,
2022-11-16 10:04:50.377824-07:00,21.064065,2.69,1.96,-1.82,0.28,12.46,975.71,31.19,23.0,0.0,0.000166006,-1.83017e-05,0.000898453,32.8213827,-111.786991,325.424554,3.10689213,-0.406282624,0.211354146,,,,,,,,,,,,,,2022-11-16 17:04:50.377824+00:00,1.190096550723132,0.01477238725975612,2.674824755610099,-1.9235730859367437,1.8586430685541586,0.28089845300000005,315.9835108327659,0.21759545535127103,0.23681152540637956,,,,,,,,0.10958326921899629,0.9939776190172881,,,,,,,,,,,,
2022-11-16 10:04:50.578293-07:00,21.264534,2.79,2.01,-1.9,0.4,12.5,975.73,31.16,27.0,0.0,-3.48028e-05,0.000192615,0.00107029,32.8213827,-111.786991,325.424799,3.11762399,-0.409743272,0.215373794,,,,,,,,,,,,,,2022-11-16 17:04:50.578293+00:00,1.1899542907663156,0.014769756773289606,2.7657177305823137,-2.006311136877184,1.9036570561159287,0.40107029,316.50392393155926,0.2194556366000984,0.23855728971398218,,,,,,,,0.984065438101401,0.17780667460558852,,,,,,,,,,,,
2022-11-16 10:04:50.778141-07:00,21.464382,2.81,1.98,-1.96,0.38,12.5,975.72,31.16,27.0,0.0,-0.000333449,5.5277e-05,1.35302e-05,32.8213827,-111.786991,325.417657,3.12357354,-0.407705134,0.214889074,,,,,,,,,,,,,,2022-11-16 17:04:50.778141+00:00,1.1899420952379343,0.014769708606514035,2.785771805251461,-2.0649223128525787,1.8699252372267567,0.3800135302,317.83705449577593,0.22089904251430212,0.23981873619328908,,,,,,,,0.1635415759169488,0.986536442786885,,,,,,,,,,,,
2022-11-16 10:04:50.977793-07:00,21.664034,2.67,2.01,-1.73,0.3,12.44,975.74,31.25,23.0,0.0,5.47927e-06,-0.000622904,-0.000326446,32.8213827,-111.786991,325.416315,3.13471956,-0.406266104,0.215881766,,,,,,,,,,,,,,2022-11-16 17:04:50.977793+00:00,1.190216488007564,0.014773895630526755,2.6524159365599718,-1.8379489468164103,1.912394825712975,0.299673554,313.86280437078176,0.21547894895919179,0.23517564205567684,,,,,,,,0.9999613145221189,0.008795991086626246,,,,,,,,,,,,
2022-11-16 10:04:51.177698-07:00,21.863939,2.61,1.98,-1.69,0.24,12.49,975.73,31.1,23.0,0.0,-0.000127248,0.00061511,0.000311412,32.8213827,-111.786991,325.420404,3.14038326,-0.406325038,0.210048558,2.00703,-7.36677,3728.68,28.6238,11694.0,-0.0872565,-1.0,16.0,-1267.0,89.0,,0.0,,2022-11-16 17:04:51.177698+00:00,1.1899959499978927,0.014770438392482047,2.602654687049797,-1.7953165540074263,1.8843168233949341,0.240311412,313.6144419224179,0.21458185423936002,0.23439166396913874,2.6434646741339884,314.63683391599113,-1.857648708148694,1.8789471005292444,0.30029169804,0.23564224504401712,0.21601254816369303,0.9792655165557425,0.2025809667387708,1.4636638318228938,0.22614553229932513,,,,,,,,,,
2022-11-16 10:04:51.377767-07:00,22.064008,2.64,2.02,-1.68,0.29,12.52,975.72,31.13,24.0,0.0,-0.000156171,-1.15122e-05,0.000596532,32.8213827,-111.786991,325.417688,3.14802654,-0.405861333,0.219654793,,,,,,,,,,,,,,2022-11-16 17:04:51.377767+00:00,1.1898587863783943,0.014768345566669436,2.6272114567905454,-1.7884062674693466,1.9245371030894312,0.29059653199999996,312.90025608133163,0.21434357598030174,0.23427019252425182,,,,,,,,0.07351588017712267,-0.9972940465889601,,,,,,,,,,,,
2022-11-16 10:04:51.577684-07:00,22.263925,2.57,1.9,-1.7,0.29,12.54,975.72,31.08,28.0,0.0,3.81666e-05,0.000378159,0.000863462,32.8213826,-111.786991,325.419122,3.15606152,-0.402409238,0.210758622,,,,,,,,,,,,,,2022-11-16 17:04:51.577684+00:00,1.189775489183086,0.014766982779428646,2.5492694850181685,-1.801649459597709,1.8035615132221248,0.29086346199999996,314.96961270964835,0.21475931912530938,0.23455499047772901,,,,,,,,0.9949454143804745,-0.10041724156371748,,,,,,,,,,,,
2022-11-16 10:04:51.777812-07:00,22.464053,2.54,1.84,-1.73,0.28,12.52,975.73,31.13,25.0,0.0,0.00020452,-0.000386237,0.00143145,32.8213826,-111.786991,325.420648,3.16100409,-0.399216433,0.216471715,,,,,,,,,,,,,,2022-11-16 17:04:51.777812+00:00,1.1898709810529564,0.014768393724401937,2.5259899805359662,-1.829215267230956,1.7420094396693933,0.28143145,316.39882911584243,0.21541012566259213,0.23508760706292686,,,,,,,,0.8837485640997733,0.46796204488354487,,,,,,,,,,,,
2022-11-16 10:04:51.977885-07:00,22.664126,2.6,1.91,-1.74,0.32,12.54,975.74,31.09,23.0,0.0,5.32638e-05,-0.000323661,0.0013769,32.8213825,-111.786991,325.423914,3.17135873,-0.399942429,0.213170229,,,,,,,,,,,,,,2022-11-16 17:04:51.977885+00:00,1.189799876824811,0.014767079077148432,2.5840058096635987,-1.8433246977578048,1.8108672184926558,0.3213769,315.5089025739099,0.21560652657351434,0.23539465921895053,,,,,,,,0.9867278900756069,0.16238248349788548,,,,,,,,,,,,
