Timestamp,Seconds,S,Um,Vm,Wm,T,P,H,MD,Sts,Vx,Vy,Vz,Lat,Lon,Alt,Yaw,Roll,Pitch,CH4,C2H6,H20,T_a,Batt,R,C2C1,Power,Current,SOC,Lat_a,Lon_a,TS,Timestamp_UTC
2022-11-16 10:04:29.313759-07:00,0.0,2.5,1.84,-1.69,0.17,12.77,975.73,30.42,25.0,0.0,-6.36207e-05,-0.000229428,-0.000468245,32.821382,-111.786993,324.576385,2.04120727,-0.407659995,0.197331706,,,,,,,,,,,,,,2022-11-16 17:04:29.313759+00:00
2022-11-16 10:04:29.523852-07:00,0.210093,2.53,1.95,-1.59,0.19,12.57,975.73,30.82,27.0,0.0,-0.000396764,-0.000114834,0.000625977,32.821382,-111.786993,324.578369,2.05825501,-0.407472114,0.19662399,,,,,,,,,,,,,,2022-11-16 17:04:29.523852+00:00
2022-11-16 10:04:29.733295-07:00,0.419536,2.5,1.87,-1.65,0.18,12.37,975.74,31.21,25.0,0.0,-0.000253238,0.000120521,0.000648715,32.821382,-111.786993,324.576447,2.06982076,-0.407213774,0.194968366,,,,,,,,,,,,,,2022-11-16 17:04:29.733295+00:00
2022-11-16 10:04:29.944326-07:00,0.630567,2.49,1.85,-1.65,0.16,12.83,975.73,30.25,22.0,0.0,-5.06869e-05,-0.000513239,0.000270448,32.821382,-111.786993,324.573975,2.08188798,-0.406041272,0.206782932,2.0068,-7.29733,3796.96,28.6075,11699.0,0.0392333,-1.0,20.0,-1294.0,89.0,,0.0,,2022-11-16 17:04:29.944326+00:00
2022-11-16 10:04:30.153538-07:00,0.839779,2.29,1.87,-1.3,0.21,13.34,975.73,29.25,24.0,0.0,-9.61477e-05,0.000360965,7.40452e-05,32.821382,-111.786993,324.573578,2.09273606,-0.403579994,0.1980883,,,,,,,,,,,,,,2022-11-16 17:04:30.153538+00:00
2022-11-16 10:04:30.363787-07:00,1.050028,1.96,1.73,-0.79,0.47,13.79,975.74,28.45,28.0,0.0,-0.000336507,0.000982066,0.000249807,32.8213821,-111.786993,324.57486,2.10185944,-0.403203589,0.203407756,,,,,,,,,,,,,,2022-11-16 17:04:30.363787+00:00
2022-11-16 10:04:30.573749-07:00,1.25999,1.85,1.5,-1.03,0.31,13.48,975.75,29.08,26.0,0.0,0.000285059,-0.000273088,0.000800584,32.8213821,-111.786993,324.579346,2.11624676,-0.403364375,0.208274017,,,,,,,,,,,,,,2022-11-16 17:04:30.573749+00:00
2022-11-16 10:04:30.777724-07:00,1.463965,1.81,1.6,-0.64,0.56,13.87,975.75,28.35,23.0,0.0,-8.75784e-05,0.000623435,-2.20497e-05,32.8213821,-111.786993,324.576965,2.13053847,-0.401743976,0.200519916,,,,,,,,,,,,,,2022-11-16 17:04:30.777724+00:00
2022-11-16 10:04:30.977905-07:00,1.664146,1.78,1.7,-0.41,0.32,13.83,975.75,28.37,23.0,0.0,-2.58446e-05,-1.45941e-05,-0.00067839,32.8213821,-111.786993,324.576782,2.13957591,-0.405026032,0.218418893,,,,,,,,,,,,,,2022-11-16 17:04:30.977905+00:00
2022-11-16 10:04:31.177907-07:00,1.864148,1.89,1.74,-0.65,0.36,13.86,975.74,28.36,25.0,0.0,-0.000312951,0.000133828,0.000885702,32.8213821,-111.786993,324.580444,2.14910212,-0.40668792,0.202799465,2.00761,-6.97701,3786.81,28.6085,11702.0,0.029367,-1.0,18.0,-1265.0,89.0,,0.0,,2022-11-16 17:04:31.177907+00:00
2022-11-16 10:04:31.377477-07:00,2.063718,2.46,2.26,-0.79,0.55,13.01,975.74,29.91,27.0,0.0,-0.000538566,0.000317651,0.000515068,32.8213821,-111.786993,324.578979,2.16181179,-0.407866754,0.212017973,,,,,,,,,,,,,,2022-11-16 17:04:31.377477+00:00
2022-11-16 10:04:31.577878-07:00,2.264119,2.39,2.09,-1.12,0.34,13.48,975.74,29.04,23.0,0.0,-0.000434196,-0.000664892,0.000336163,32.8213821,-111.786993,324.57901,2.17609738,-0.406539355,0.211764361,,,,,,,,,,,,,,2022-11-16 17:04:31.577878+00:00
2022-11-16 10:04:31.778239-07:00,2.46448,2.29,1.9,-1.24,0.26,13.59,975.73,28.82,22.0,0.0,-0.000185473,7.3533e-05,-0.000235083,32.8213821,-111.786993,324.5755,2.18312205,-0.405437669,0.198539642,,,,,,,,,,,,,,2022-11-16 17:04:31.778239+00:00
2022-11-16 10:04:31.977976-07:00,2.664217,2.39,1.96,-1.34,0.29,13.61,975.73,28.75,24.0,0.0,-0.000123353,9.60433e-05,-0.000334768,32.8213822,-111.786993,324.58017,2.19514456,-0.405597581,0.210534238,2.00642,-7.1524,3773.87,28.609,11619.0,-0.0213116,-1.0,17.0,-1276.0,89.0,,0.0,,2022-11-16 17:04:31.977976+00:00
2022-11-16 10:04:32.177861-07:00,2.864102,2.68,2.09,-1.66,0.19,12.79,975.73,30.42,27.0,0.0,-0.000513626,5.49557e-05,9.20683e-05,32.8213822,-111.786993,324.582733,2.20197714,-0.402532782,0.201158609,,,,,,,,,,,,,,2022-11-16 17:04:32.177861+00:00
2022-11-16 10:04:32.377540-07:00,3.063781,2.82,2.31,-1.61,0.22,12.24,975.72,31.57,24.0,0.0,-0.000115859,-0.000256399,0.000382611,32.8213822,-111.786993,324.581116,2.21345494,-0.405067335,0.203473791,,,,,,,,,,,,,,2022-11-16 17:04:32.377540+00:00
2022-11-16 10:04:32.577641-07:00,3.263882,2.8,2.27,-1.63,0.16,12.19,975.72,31.56,22.0,0.0,8.12754e-05,-0.000118349,-2.42376e-05,32.8213822,-111.786993,324.578064,2.22173013,-0.405744706,0.203028158,,,,,,,,,,,,,,2022-11-16 17:04:32.577641+00:00
2022-11-16 10:04:32.777408-07:00,3.463649,2.72,2.23,-1.55,0.15,12.31,975.72,31.38,23.0,0.0,7.17545e-05,-0.000700686,-0.00138677,32.8213822,-111.786993,324.575104,2.23430688,-0.408039277,0.203651697,,,,,,,,,,,,,,2022-11-16 17:04:32.777408+00:00
2022-11-16 10:04:32.977679-07:00,3.66392,2.73,2.26,-1.53,0.16,12.24,975.73,31.54,26.0,0.0,-0.000145458,-4.79067e-06,-0.000460886,32.8213822,-111.786992,324.577118,2.24744512,-0.410297124,0.20271234,,,,,,,,,,,,,,2022-11-16 17:04:32.977679+00:00
2022-11-16 10:04:33.178034-07:00,3.864275,2.72,2.21,-1.57,0.14,12.19,975.72,31.64,26.0,0.0,-8.70688e-05,-0.000224537,-0.00119786,32.8213822,-111.786992,324.574249,2.25595289,-0.412675315,0.205562775,2.00398,-7.10318,3790.59,28.6096,11673.0,-0.0548173,-1.0,19.0,-1286.0,89.0,,0.0,,2022-11-16 17:04:33.178034+00:00
2022-11-16 10:04:33.377757-07:00,4.063998,2.75,2.17,-1.67,0.18,12.19,975.73,31.63,23.0,0.0,-0.000293261,2.55605e-05,-0.00225676,32.8213822,-111.786992,324.57135,2.27000002,-0.411158526,0.202803067,,,,,,,,,,,,,,2022-11-16 17:04:33.377757+00:00
2022-11-16 10:04:33.578133-07:00,4.264374,2.7,2.13,-1.64,0.19,12.22,975.73,31.58,23.0,0.0,-7.85899e-05,0.0001979,-0.00149586,32.8213822,-111.786992,324.574463,2.28079691,-0.407630054,0.204592028,,,,,,,,,,,,,,2022-11-16 17:04:33.578133+00:00
2022-11-16 10:04:33.777884-07:00,4.464125,2.72,2.2,-1.6,0.16,12.34,975.73,31.33,23.0,0.0,0.000156714,-0.000213303,-0.000942747,32.8213822,-111.786992,324.575684,2.29563431,-0.408513103,0.210581449,,,,,,,,,,,,,,2022-11-16 17:04:33.777884+00:00
2022-11-16 10:04:33.977361-07:00,4.663602,2.53,2.03,-1.49,0.23,12.44,975.73,31.12,27.0,0.0,-0.000124963,0.000838496,-0.0017881,32.8213823,-111.786992,324.571014,2.30857891,-0.406964433,0.204568082,,,,,,,,,,,,,,2022-11-16 17:04:33.977361+00:00
2022-11-16 10:04:34.177559-07:00,4.8638,2.71,2.16,-1.61,0.22,12.36,975.73,31.23,24.0,0.0,-0.000313668,0.000181464,-0.00171535,32.8213823,-111.786992,324.569855,2.32265155,-0.409052564,0.219098075,2.00619,-7.91168,3786.98,28.6102,11685.0,-0.183241,-1.0,18.0,-1275.0,89.0,,0.0,,2022-11-16 17:04:34.177559+00:00
2022-11-16 10:04:34.377591-07:00,5.063832,2.79,2.25,-1.64,0.2,12.56,975.73,30.79,22.0,0.0,6.85849e-05,0.000104323,-0.00223474,32.8213823,-111.786992,324.568146,2.33033026,-0.409620636,0.206164462,,,,,,,,,,,,,,2022-11-16 17:04:34.377591+00:00
2022-11-16 10:04:34.577265-07:00,5.263506,2.73,2.34,-1.38,0.18,12.61,975.73,30.74,23.0,0.0,0.000166839,0.000952346,-0.00224751,32.8213823,-111.786992,324.567078,2.34135705,-0.410618257,0.214339934,,,,,,,,,,,,,,2022-11-16 17:04:34.577265+00:00
2022-11-16 10:04:34.777811-07:00,5.464052,2.38,1.9,-1.39,0.33,12.86,975.73,30.31,26.0,0.0,0.000182994,0.000613304,-0.00141031,32.8213823,-111.786992,324.570312,2.35735614,-0.412970907,0.219906284,,,,,,,,,,,,,,2022-11-16 17:04:34.777811+00:00
2022-11-16 10:04:34.977848-07:00,5.664089,2.11,1.73,-1.14,0.38,13.32,975.74,29.41,26.0,0.0,-4.91642e-05,0.000950265,-0.00070726,32.8213824,-111.786992,324.571289,2.36524482,-0.413212433,0.211759398,2.00686,-6.9807,3738.23,28.6117,11648.0,-0.214906,-1.0,16.0,-1283.0,89.0,,0.0,,2022-11-16 17:04:34.977848+00:00
2022-11-16 10:04:35.177750-07:00,5.863991,2.34,1.87,-1.38,0.23,12.82,975.74,30.37,24.0,0.0,-0.000258872,0.000258438,-0.000221614,32.8213824,-111.786992,324.577209,2.375333,-0.416910943,0.222639261,,,,,,,,,,,,,,2022-11-16 17:04:35.177750+00:00
2022-11-16 10:04:35.378064-07:00,6.064305,2.23,1.77,-1.34,0.21,12.86,975.73,30.31,22.0,0.0,-9.60696e-05,-6.375e-05,-0.00056128,32.8213824,-111.786992,324.581085,2.38484737,-0.416011091,0.212215503,,,,,,,,,,,,,,2022-11-16 17:04:35.378064+00:00
2022-11-16 10:04:35.578260-07:00,6.264501,2.35,1.73,-1.59,0.2,12.7,975.72,30.63,24.0,0.0,4.79745e-05,0.000309711,-4.70026e-05,32.8213824,-111.786992,324.581329,2.39508659,-0.418596472,0.216285964,,,,,,,,,,,,,,2022-11-16 17:04:35.578260+00:00
2022-11-16 10:04:35.778092-07:00,6.464333,2.53,2.15,-1.27,0.38,12.66,975.73,30.72,27.0,0.0,-0.000320607,-0.000454996,-0.000683155,32.8213824,-111.786992,324.576538,2.40264663,-0.414507532,0.214875213,,,,,,,,,,,,,,2022-11-16 17:04:35.778092+00:00
2022-11-16 10:04:35.977906-07:00,6.664147,2.84,2.46,-1.32,0.52,12.57,975.72,30.9,24.0,0.0,-0.000122332,-0.000200973,-0.0017072,32.8213824,-111.786992,324.574249,2.41334157,-0.415733983,0.209290295,2.00383,-7.14131,3698.23,28.6122,11634.0,-0.202323,-1.0,16.0,-1294.0,89.0,,0.0,,2022-11-16 17:04:35.977906+00:00
2022-11-16 10:04:36.177649-07:00,6.86389,2.9,2.35,-1.69,0.19,12.42,975.72,31.24,23.0,0.0,-0.000234954,0.000373057,-0.000901193,32.8213824,-111.786992,324.577118,2.42559442,-0.412311286,0.209394202,2.00383,-7.14131,3698.23,28.6122,11634.0,-0.202323,-1.0,16.0,-1294.0,89.0,,0.0,,2022-11-16 17:04:36.177649+00:00
2022-11-16 10:04:36.377803-07:00,7.064044,2.87,2.2,-1.82,0.22,12.61,975.74,30.81,23.0,0.0,-0.000522678,0.000539487,-0.0011836,32.8213824,-111.786992,324.573669,2.43528461,-0.4093571,0.20665844,,,,,,,,,,,,,,2022-11-16 17:04:36.377803+00:00
2022-11-16 10:04:36.577364-07:00,7.263605,2.9,2.3,-1.76,0.2,12.26,975.72,31.54,26.0,0.0,-0.000317551,0.000442936,-0.00126332,32.8213824,-111.786992,324.575195,2.45122946,-0.408207739,0.215045649,,,,,,,,,,,,,,2022-11-16 17:04:36.577364+00:00
2022-11-16 10:04:36.778028-07:00,7.464269,2.96,2.47,-1.62,0.18,12.39,975.73,31.23,26.0,0.0,-0.00022724,0.000452017,-0.000939655,32.8213824,-111.786992,324.573364,2.46114033,-0.405319131,0.211090409,,,,,,,,,,,,,,2022-11-16 17:04:36.778028+00:00
2022-11-16 10:04:36.977580-07:00,7.663821,3.13,2.64,-1.68,0.18,12.57,975.72,30.8,23.0,0.0,-0.000798966,0.000224017,-0.000987804,32.8213824,-111.786992,324.574585,2.47169874,-0.408617641,0.218344641,,,,,,,,,,,,,,2022-11-16 17:04:36.977580+00:00
2022-11-16 10:04:37.177592-07:00,7.863833,3.08,2.56,-1.7,0.19,12.47,975.72,31.02,22.0,0.0,-0.000300207,0.000597133,-0.000460034,32.8213825,-111.786992,324.577057,2.4807334,-0.405071539,0.211635333,2.00588,-7.19903,3694.23,28.6126,11680.0,-0.22462,-1.0,17.0,-1294.0,89.0,,0.0,,2022-11-16 17:04:37.177592+00:00
2022-11-16 10:04:37.378120-07:00,8.064361,3.14,2.68,-1.62,0.17,12.45,975.74,31.18,24.0,0.0,-0.000353931,0.000815908,-0.000103744,32.8213825,-111.786992,324.579895,2.48987917,-0.406828689,0.216259564,,,,,,,,,,,,,,2022-11-16 17:04:37.378120+00:00
2022-11-16 10:04:37.578298-07:00,8.264539,2.87,2.43,-1.53,0.17,12.49,975.73,31.03,27.0,0.0,-0.000714725,0.000398379,-0.000800486,32.8213825,-111.786992,324.576263,2.50289149,-0.405251358,0.215648965,,,,,,,,,,,,,,2022-11-16 17:04:37.578298+00:00
2022-11-16 10:04:37.777544-07:00,8.463785,2.8,2.49,-1.25,0.33,12.67,975.72,30.7,24.0,0.0,-0.000307893,0.000564144,-0.00108488,32.8213825,-111.786992,324.570587,2.51211058,-0.405823141,0.213701226,,,,,,,,,,,,,,2022-11-16 17:04:37.777544+00:00
2022-11-16 10:04:37.977965-07:00,8.664206,3.01,2.74,-1.19,0.36,12.74,975.73,30.63,22.0,0.0,8.85059e-05,0.000160977,-0.000508132,32.8213825,-111.786992,324.569946,2.52572082,-0.406535656,0.2168001,2.00644,-7.85113,3682.0,28.6131,11680.0,-0.298406,-1.0,17.0,-1294.0,89.0,,0.0,,2022-11-16 17:04:37.977965+00:00
2022-11-16 10:04:38.177918-07:00,8.864159,2.84,2.44,-1.37,0.46,12.81,975.72,30.42,23.0,0.0,-0.000342744,1.04654e-05,0.000137184,32.8213825,-111.786992,324.57135,2.53581556,-0.409703688,0.211796071,,,,,,,,,,,,,,2022-11-16 17:04:38.177918+00:00
2022-11-16 10:04:38.377542-07:00,9.063783,2.71,2.18,-1.55,0.39,12.91,975.74,30.17,27.0,0.0,-0.000553786,-0.000171893,0.000737931,32.8213825,-111.786992,324.571716,2.54844987,-0.407052307,0.213486648,,,,,,,,,,,,,,2022-11-16 17:04:38.377542+00:00
2022-11-16 10:04:38.577428-07:00,9.263669,2.92,2.42,-1.57,0.46,12.66,975.73,30.8,26.0,0.0,-0.000221566,-0.00010787,0.0012448,32.8213825,-111.786992,324.5755,2.56124567,-0.406342228,0.204082388,,,,,,,,,,,,,,2022-11-16 17:04:38.577428+00:00
2022-11-16 10:04:38.777802-07:00,9.464043,3.02,2.39,-1.82,0.2,12.42,975.73,31.16,22.0,0.0,-0.000234054,-0.000329815,0.000485056,32.8213825,-111.786992,324.57193,2.57164017,-0.406900481,0.20993227,,,,,,,,,,,,,,2022-11-16 17:04:38.777802+00:00
2022-11-16 10:04:38.977945-07:00,9.664186,3.05,2.43,-1.83,0.2,12.39,975.71,31.3,22.0,0.0,-0.000460224,-6.98602e-05,0.000382385,32.8213825,-111.786992,324.575439,2.579644,-0.40740999,0.207911361,,,,,,,,,,,,,,2022-11-16 17:04:38.977945+00:00
2022-11-16 10:04:39.178215-07:00,9.864456,2.96,2.42,-1.69,0.22,12.45,975.72,31.15,25.0,0.0,-0.000274194,-0.000285778,9.1364e-05,32.8213826,-111.786992,324.575592,2.58386468,-0.404406385,0.209309465,,,,,,,,,,,,,,2022-11-16 17:04:39.178215+00:00
2022-11-16 10:04:39.378051-07:00,10.064292,2.87,2.34,-1.64,0.21,12.51,975.73,31.07,27.0,0.0,0.000122652,-0.000252735,-0.000937854,32.8213826,-111.786992,324.572235,2.59447433,-0.405990319,0.215123223,,,,,,,,,,,,,,2022-11-16 17:04:39.378051+00:00
2022-11-16 10:04:39.578077-07:00,10.264318,2.87,2.33,-1.66,0.21,12.49,975.71,31.1,24.0,0.0,0.00022038,0.000277657,-0.000177041,32.8213826,-111.786992,324.573303,2.6035304,-0.407257777,0.215976803,,,,,,,,,,,,,,2022-11-16 17:04:39.578077+00:00
2022-11-16 10:04:39.777480-07:00,10.463721,2.88,2.29,-1.73,0.22,12.61,975.73,30.82,23.0,0.0,-0.000212275,-0.000444377,-0.000437398,32.8213826,-111.786992,324.570496,2.61331195,-0.410195606,0.219704165,,,,,,,,,,,,,,2022-11-16 17:04:39.777480+00:00
2022-11-16 10:04:39.978149-07:00,10.66439,2.83,2.26,-1.68,0.24,12.71,975.72,30.58,24.0,0.0,0.000176688,0.000599382,-0.000891281,32.8213826,-111.786992,324.567169,2.62214153,-0.413535087,0.204579088,,,,,,,,,,,,,,2022-11-16 17:04:39.978149+00:00
2022-11-16 10:04:40.177665-07:00,10.863906,2.87,2.17,-1.87,0.19,12.75,975.71,30.54,27.0,0.0,-0.00037156,-7.18113e-05,-0.00110246,32.8213826,-111.786992,324.568298,2.63157948,-0.413985684,0.216932236,2.00538,-7.09891,3669.81,28.6147,11631.0,-0.274412,-1.0,15.0,-1272.0,89.0,,0.0,,2022-11-16 17:04:40.177665+00:00
2022-11-16 10:04:40.378175-07:00,11.064416,2.88,2.2,-1.84,0.2,12.57,975.73,30.93,26.0,0.0,-2.27244e-05,2.40523e-06,-0.000847356,32.8213826,-111.786992,324.56601,2.64131565,-0.41643217,0.210588947,,,,,,,,,,,,,,2022-11-16 17:04:40.378175+00:00
2022-11-16 10:04:40.578086-07:00,11.264327,2.75,2.16,-1.66,0.33,12.85,975.72,30.29,22.0,0.0,-0.000436702,8.74181e-05,-0.000953989,32.8213826,-111.786992,324.566345,2.65022418,-0.416867986,0.214085841,,,,,,,,,,,,,,2022-11-16 17:04:40.578086+00:00
2022-11-16 10:04:40.777690-07:00,11.463931,2.81,2.27,-1.61,0.39,12.78,975.73,30.52,22.0,0.0,-0.000754854,-2.35553e-05,-0.000504082,32.8213826,-111.786992,324.570709,2.66120534,-0.418826048,0.214360704,,,,,,,,,,,,,,2022-11-16 17:04:40.777690+00:00
2022-11-16 10:04:40.977373-07:00,11.663614,2.66,2.0,-1.73,0.23,12.7,975.72,30.64,26.0,0.0,-0.00092028,0.000513139,-0.000126304,32.8213826,-111.786992,324.572937,2.66848666,-0.416330811,0.210904778,,,,,,,,,,,,,,2022-11-16 17:04:40.977373+00:00
2022-11-16 10:04:41.177520-07:00,11.863761,2.61,2.03,-1.63,0.16,12.72,975.74,30.59,27.0,0.0,-0.00057354,-0.000560521,0.00162505,32.8213826,-111.786992,324.581177,2.67981509,-0.414235341,0.212979129,2.00674,-7.46893,3666.12,28.6148,11659.0,-0.329746,-1.0,14.0,-1276.0,89.0,,0.0,,2022-11-16 17:04:41.177520+00:00
2022-11-16 10:04:41.377889-07:00,12.06413,2.63,2.13,-1.51,0.27,12.84,975.73,30.36,24.0,0.0,-0.000481129,0.000423319,0.00124706,32.8213826,-111.786992,324.578827,2.69168728,-0.413794161,0.207285088,,,,,,,,,,,,,,2022-11-16 17:04:41.377889+00:00
2022-11-16 10:04:41.577648-07:00,12.263889,2.88,2.27,-1.77,0.24,12.63,975.72,30.82,22.0,0.0,0.000376175,-0.000235874,0.00190767,32.8213826,-111.786992,324.582092,2.70418887,-0.414629062,0.207055434,,,,,,,,,,,,,,2022-11-16 17:04:41.577648+00:00
2022-11-16 10:04:41.777820-07:00,12.464061,2.99,2.16,-2.03,0.34,12.66,975.71,30.76,24.0,0.0,-0.000339241,-0.000558262,0.000606397,32.8213826,-111.786992,324.578033,2.71636047,-0.411144056,0.19975445,,,,,,,,,,,,,,2022-11-16 17:04:41.777820+00:00
2022-11-16 10:04:41.977690-07:00,12.663931,2.92,2.14,-1.97,0.23,12.57,975.72,30.89,27.0,0.0,-0.000460307,-0.000539941,0.000364217,32.8213826,-111.786992,324.576111,2.72536136,-0.40955171,0.202834604,2.00577,-7.55165,3666.85,28.6162,11702.0,-0.282555,-1.0,17.0,-1267.0,89.0,,0.0,,2022-11-16 17:04:41.977690+00:00
2022-11-16 10:04:42.178016-07:00,12.864257,3.18,2.22,-2.27,0.22,12.71,975.71,30.65,24.0,0.0,-0.000168253,-0.000560489,0.000632174,32.8213826,-111.786992,324.577332,2.73624383,-0.410087825,0.204479409,,,,,,,,,,,,,,2022-11-16 17:04:42.178016+00:00
2022-11-16 10:04:42.377767-07:00,13.064008,2.98,2.02,-2.2,0.06,12.41,975.71,31.36,22.0,0.0,-0.000464552,0.000254524,-0.00017104,32.8213826,-111.786992,324.573944,2.74497492,-0.409966181,0.197291498,,,,,,,,,,,,,,2022-11-16 17:04:42.377767+00:00
2022-11-16 10:04:42.578073-07:00,13.264314,3.14,2.32,-2.12,0.1,12.51,975.71,31.07,24.0,0.0,-0.000165025,-0.000440197,0.000337654,32.8213826,-111.786992,324.576172,2.75707541,-0.409740836,0.204636811,,,,,,,,,,,,,,2022-11-16 17:04:42.578073+00:00
2022-11-16 10:04:42.777530-07:00,13.463771,3.24,2.58,-1.95,0.17,12.54,975.71,31.03,27.0,0.0,0.000238524,-0.000130387,-4.4043e-05,32.8213826,-111.786992,324.576538,2.76674198,-0.41040384,0.198981073,,,,,,,,,,,,,,2022-11-16 17:04:42.777530+00:00
2022-11-16 10:04:42.977535-07:00,13.663776,3.0,2.21,-2.03,0.05,12.48,975.7,31.15,25.0,0.0,-0.000249696,-0.000616771,-0.000327737,32.8213826,-111.786992,324.574402,2.77507254,-0.410649871,0.210676793,,,,,,,,,,,,,,2022-11-16 17:04:42.977535+00:00
2022-11-16 10:04:43.178273-07:00,13.864514,3.05,2.21,-2.09,0.11,12.51,975.71,31.06,23.0,0.0,-0.000203546,-0.000495321,-0.00109254,32.8213826,-111.786992,324.572754,2.78610389,-0.415807771,0.20921703,,,,,,,,,,,,,,2022-11-16 17:04:43.178273+00:00
2022-11-16 10:04:43.377840-07:00,14.064081,2.96,2.15,-2.04,0.11,12.35,975.72,31.38,23.0,0.0,-0.000624333,0.000512823,-0.00137037,32.8213826,-111.786992,324.567963,2.79251809,-0.411715714,0.213322215,,,,,,,,,,,,,,2022-11-16 17:04:43.377840+00:00
2022-11-16 10:04:43.577839-07:00,14.26408,2.94,2.15,-2.0,0.18,12.29,975.73,31.55,26.0,0.0,-0.000637379,-9.95157e-05,-0.00145194,32.8213826,-111.786992,324.571106,2.80010762,-0.412134363,0.218555178,,,,,,,,,,,,,,2022-11-16 17:04:43.577839+00:00
2022-11-16 10:04:43.778128-07:00,14.464369,2.95,2.18,-1.97,0.22,12.26,975.72,31.56,26.0,0.0,-0.000581584,0.000789189,-0.000500867,32.8213827,-111.786992,324.572449,2.80752583,-0.412599059,0.207130874,,,,,,,,,,,,,,2022-11-16 17:04:43.778128+00:00
2022-11-16 10:04:43.977755-07:00,14.663996,2.88,2.13,-1.92,0.23,12.29,975.72,31.52,23.0,0.0,-0.000455038,0.000265541,-0.000161088,32.8213827,-111.786992,324.571259,2.81714401,-0.413922016,0.21691472,2.00789,-7.32336,3682.12,28.6185,11636.0,-0.273707,-1.0,17.0,-1246.0,89.0,,0.0,,2022-11-16 17:04:43.977755+00:00
2022-11-16 10:04:44.177484-07:00,14.863725,2.89,2.09,-1.98,0.28,12.28,975.71,31.54,22.0,0.0,-0.000534243,-0.000129603,-0.00107629,32.8213827,-111.786992,324.570038,2.82737315,-0.409740523,0.207708535,2.00789,-7.32336,3682.12,28.6185,11636.0,-0.273707,-1.0,17.0,-1246.0,89.0,,0.0,,2022-11-16 17:04:44.177484+00:00
2022-11-16 10:04:44.377378-07:00,15.063619,2.79,2.03,-1.89,0.28,12.36,975.73,31.36,25.0,0.0,-0.000154281,-0.000270902,-0.00115232,32.8213827,-111.786992,324.57312,2.83545538,-0.406621028,0.210881086,,,,,,,,,,,,,,2022-11-16 17:04:44.377378+00:00
2022-11-16 10:04:44.577879-07:00,15.26412,2.81,2.1,-1.86,0.19,12.46,975.71,31.24,27.0,0.0,1.0057e-05,7.62748e-05,-0.000878255,32.8213827,-111.786992,324.571777,2.84907162,-0.405296899,0.210101078,,,,,,,,,,,,,,2022-11-16 17:04:44.577879+00:00
2022-11-16 10:04:44.777684-07:00,15.463925,2.89,2.24,-1.83,0.13,12.47,975.7,31.14,25.0,0.0,-0.000177843,0.000307216,-0.000863045,32.8213826,-111.786992,324.57312,2.85419444,-0.405077418,0.210100598,,,,,,,,,,,,,,2022-11-16 17:04:44.777684+00:00
2022-11-16 10:04:44.977949-07:00,15.66419,2.72,2.12,-1.69,0.2,12.74,975.72,30.63,22.0,0.0,-0.000287681,-0.000296669,-0.000864629,32.8213826,-111.786992,324.573334,2.86353819,-0.403920495,0.215802818,2.00716,-7.09177,3670.5,28.6184,11648.0,-0.259174,-1.0,17.0,-1269.0,89.0,,0.0,,2022-11-16 17:04:44.977949+00:00
2022-11-16 10:04:45.177987-07:00,15.864228,2.84,2.16,-1.83,0.24,12.68,975.72,30.79,24.0,0.0,-0.000326816,-0.000107947,-0.000723341,32.8213825,-111.786992,324.574738,2.86896841,-0.402145291,0.206910132,,,,,,,,,,,,,,2022-11-16 17:04:45.177987+00:00
2022-11-16 10:04:45.377838-07:00,16.064079,2.7,2.21,-1.51,0.41,12.99,975.73,30.19,27.0,0.0,-0.000213521,-0.000108298,-0.00108105,32.8213825,-111.786992,324.573456,2.87725125,-0.402495479,0.218118509,,,,,,,,,,,,,,2022-11-16 17:04:45.377838+00:00
2022-11-16 10:04:45.578100-07:00,16.264341,2.62,1.8,-1.9,0.19,12.99,975.73,30.06,26.0,0.0,8.9486e-05,0.000246649,-0.00106191,32.8213825,-111.786992,324.570404,2.88978661,-0.399919109,0.21121462,,,,,,,,,,,,,,2022-11-16 17:04:45.578100+00:00
2022-11-16 10:04:45.777575-07:00,16.463816,2.46,1.54,-1.91,0.2,13.03,975.73,30.11,23.0,0.0,1.29381e-05,7.40732e-05,-0.000546269,32.8213825,-111.786992,324.571655,2.89676998,-0.399279107,0.214687102,,,,,,,,,,,,,,2022-11-16 17:04:45.777575+00:00
2022-11-16 10:04:45.977971-07:00,16.664212,2.61,1.59,-2.05,0.27,12.72,975.74,30.63,23.0,0.0,5.0305e-05,4.54576e-05,-2.58883e-05,32.8213826,-111.786992,324.573364,2.90845158,-0.399549605,0.206908091,,,,,,,,,,,,,,2022-11-16 17:04:45.977971+00:00
2022-11-16 10:04:46.177864-07:00,16.864105,2.26,1.41,-1.75,0.15,12.92,975.74,30.24,26.0,0.0,0.0003564,0.000381946,0.000131399,32.8213827,-111.786992,324.571899,2.92053309,-0.399451991,0.208686393,2.00571,-7.15988,3663.28,28.6196,11702.0,-0.243229,-1.0,20.0,-1266.0,89.0,,0.0,,2022-11-16 17:04:46.177864+00:00
2022-11-16 10:04:46.377490-07:00,17.063731,2.34,1.8,-1.46,0.31,13.25,975.73,29.63,27.0,0.0,7.64208e-05,-0.000263464,0.000532298,32.8213827,-111.786992,324.57196,2.93287951,-0.405284435,0.209396137,,,,,,,,,,,,,,2022-11-16 17:04:46.377490+00:00
2022-11-16 10:04:46.577903-07:00,17.264144,2.48,1.71,-1.78,0.2,13.21,975.73,29.71,24.0,0.0,-0.00064839,0.000329098,0.0020183,32.8213827,-111.786992,324.572784,2.93982391,-0.407100378,0.203354235,,,,,,,,,,,,,,2022-11-16 17:04:46.577903+00:00
2022-11-16 10:04:46.778157-07:00,17.464398,2.52,1.79,-1.76,0.2,13.2,975.73,29.76,23.0,0.0,-0.000246838,-6.82122e-05,0.00129655,32.8213827,-111.786992,324.571442,2.94646106,-0.408477883,0.212879197,,,,,,,,,,,,,,2022-11-16 17:04:46.778157+00:00
2022-11-16 10:04:46.978260-07:00,17.664501,2.56,1.68,-1.92,0.23,12.82,975.73,30.44,25.0,0.0,-0.000353037,0.000471415,0.00114093,32.8213827,-111.786992,324.573792,2.95380897,-0.411260093,0.202603657,2.00584,-7.03243,3675.47,28.6202,11698.0,-0.316198,-1.0,19.0,-1266.0,89.0,,0.0,,2022-11-16 17:04:46.978260+00:00
2022-11-16 10:04:47.177526-07:00,17.863767,2.5,1.82,-1.71,0.19,12.65,975.74,30.85,28.0,0.0,-0.000754585,0.000423843,0.00126217,32.8213827,-111.786992,324.578156,2.96136927,-0.409207301,0.215452862,2.00584,-7.03243,3675.47,28.6202,11698.0,-0.316198,-1.0,19.0,-1266.0,89.0,,0.0,,2022-11-16 17:04:47.177526+00:00
2022-11-16 10:04:47.377475-07:00,18.063716,2.68,2.12,-1.61,0.34,12.74,975.73,30.67,26.0,0.0,-0.000328236,-0.000168396,0.000558221,32.8213827,-111.786992,324.575592,2.97071984,-0.410096373,0.212197107,,,,,,,,,,,,,,2022-11-16 17:04:47.377475+00:00
2022-11-16 10:04:47.578155-07:00,18.264396,2.56,1.94,-1.64,0.26,12.77,975.73,30.57,24.0,0.0,-0.000496189,0.000800325,-0.00139391,32.8213827,-111.786992,324.568146,2.98031056,-0.409934086,0.212895379,,,,,,,,,,,,,,2022-11-16 17:04:47.578155+00:00
2022-11-16 10:04:47.778011-07:00,18.464252,2.55,2.08,-1.43,0.41,12.73,975.73,30.66,24.0,0.0,-0.00044853,-0.000424895,-0.00187613,32.8213827,-111.786992,324.565674,2.99259288,-0.410224213,0.220434094,,,,,,,,,,,,,,2022-11-16 17:04:47.778011+00:00
2022-11-16 10:04:47.978239-07:00,18.66448,2.6,2.08,-1.51,0.41,12.83,975.72,30.51,27.0,0.0,-0.000547731,-0.000363495,-0.00124884,32.8213827,-111.786992,324.56546,2.99815611,-0.407585662,0.207525813,2.00395,-7.93177,3709.64,28.6216,11643.0,-0.154695,-1.0,14.0,-1253.0,89.0,,0.0,,2022-11-16 17:04:47.978239+00:00
2022-11-16 10:04:48.177670-07:00,18.863911,2.69,2.11,-1.64,0.31,12.9,975.73,30.31,27.0,0.0,-0.000401224,-8.02326e-05,0.000234287,32.8213827,-111.786992,324.571655,3.00993676,-0.40889072,0.218753174,2.00395,-7.93177,3709.64,28.6216,11643.0,-0.154695,-1.0,14.0,-1253.0,89.0,,0.0,,2022-11-16 17:04:48.177670+00:00
2022-11-16 10:04:48.377918-07:00,19.064159,2.76,2.15,-1.71,0.22,12.79,975.71,30.49,23.0,0.0,-0.000474184,0.000223097,-0.000159912,32.8213827,-111.786992,324.571808,3.01837468,-0.409060942,0.209757953,,,,,,,,,,,,,,2022-11-16 17:04:48.377918+00:00
2022-11-16 10:04:48.577952-07:00,19.264193,2.53,1.8,-1.77,0.18,12.83,975.73,30.46,23.0,0.0,-0.000279488,0.000231221,0.000173345,32.8213827,-111.786992,324.570862,3.02442353,-0.410872811,0.212074776,,,,,,,,,,,,,,2022-11-16 17:04:48.577952+00:00
2022-11-16 10:04:48.777457-07:00,19.463698,2.67,1.81,-1.95,0.26,13.12,975.71,29.92,25.0,0.0,-0.000210315,3.71407e-05,0.000197934,32.8213827,-111.786992,324.57251,3.03621795,-0.411548727,0.207643968,,,,,,,,,,,,,,2022-11-16 17:04:48.777457+00:00
2022-11-16 10:04:48.977946-07:00,19.664187,2.72,1.78,-2.03,0.35,12.81,975.73,30.48,28.0,0.0,-0.000347247,2.69085e-06,0.0007044,32.8213827,-111.786992,324.573639,3.04343952,-0.409396137,0.209871478,2.00774,-7.09485,3725.04,28.6221,11679.0,-0.150187,-1.0,17.0,-1273.0,89.0,,0.0,,2022-11-16 17:04:48.977946+00:00
2022-11-16 10:04:49.177616-07:00,19.863857,2.57,1.76,-1.85,0.32,12.66,975.73,30.8,25.0,0.0,-9.85822e-05,-0.000246868,0.00138115,32.8213827,-111.786992,324.573853,3.05586757,-0.410112841,0.210818653,2.00774,-7.09485,3725.04,28.6221,11679.0,-0.150187,-1.0,17.0,-1273.0,89.0,,0.0,,2022-11-16 17:04:49.177616+00:00
2022-11-16 10:04:49.377893-07:00,20.064134,2.46,1.83,-1.62,0.21,12.83,975.72,30.5,23.0,0.0,-0.000207521,-0.000163743,0.000452911,32.8213827,-111.786992,324.570465,3.06482457,-0.402988579,0.208323803,,,,,,,,,,,,,,2022-11-16 17:04:49.377893+00:00
2022-11-16 10:04:49.577507-07:00,20.263748,2.52,1.82,-1.72,0.31,12.68,975.74,30.8,25.0,0.0,-5.9002e-05,-0.000309313,0.000192846,32.8213827,-111.786992,324.571381,3.07467285,-0.400988788,0.214898706,,,,,,,,,,,,,,2022-11-16 17:04:49.577507+00:00
2022-11-16 10:04:49.778209-07:00,20.46445,2.65,1.89,-1.84,0.31,12.63,975.72,30.89,28.0,0.0,2.55457e-05,3.21795e-05,0.000238399,32.8213827,-111.786992,324.572144,3.08235435,-0.400962693,0.204472085,,,,,,,,,,,,,,2022-11-16 17:04:49.778209+00:00
2022-11-16 10:04:49.977543-07:00,20.663784,2.79,1.98,-1.92,0.38,12.45,975.72,31.27,26.0,0.0,-0.000100477,-0.000181018,0.000596436,32.8213827,-111.786992,324.575043,3.09239312,-0.402120261,0.209473937,,,,,,,,,,,,,,2022-11-16 17:04:49.977543+00:00
2022-11-16 10:04:50.178171-07:00,20.864412,2.78,2.03,-1.86,0.37,12.47,975.72,31.23,23.0,0.0,0.000640212,0.00042497,0.000657851,32.8213827,-111.786992,324.574005,3.09800389,-0.406623931,0.209060495,,,,,,,,,,,,,,2022-11-16 17:04:50.178171+00:00
2022-11-16 10:04:50.377824-07:00,21.064065,2.69,1.96,-1.82,0.28,12.46,975.71,31.19,23.0,0.0,0.000166006,-1.83017e-05,0.000898453,32.8213827,-111.786991,324.574554,3.10689213,-0.406282624,0.211354146,,,,,,,,,,,,,,2022-11-16 17:04:50.377824+00:00
2022-11-16 10:04:50.578293-07:00,21.264534,2.79,2.01,-1.9,0.4,12.5,975.73,31.16,27.0,0.0,-3.48028e-05,0.000192615,0.00107029,32.8213827,-111.786991,324.574799,3.11762399,-0.409743272,0.215373794,,,,,,,,,,,,,,2022-11-16 17:04:50.578293+00:00
2022-11-16 10:04:50.778141-07:00,21.464382,2.81,1.98,-1.96,0.38,12.5,975.72,31.16,27.0,0.0,-0.000333449,5.5277e-05,1.35302e-05,32.8213827,-111.786991,324.567657,3.12357354,-0.407705134,0.214889074,,,,,,,,,,,,,,2022-11-16 17:04:50.778141+00:00
2022-11-16 10:04:50.977793-07:00,21.664034,2.67,2.01,-1.73,0.3,12.44,975.74,31.25,23.0,0.0,5.47927e-06,-0.000622904,-0.000326446,32.8213827,-111.786991,324.566315,3.13471956,-0.406266104,0.215881766,,,,,,,,,,,,,,2022-11-16 17:04:50.977793+00:00
2022-11-16 10:04:51.177698-07:00,21.863939,2.61,1.98,-1.69,0.24,12.49,975.73,31.1,23.0,0.0,-0.000127248,0.00061511,0.000311412,32.8213827,-111.786991,324.570404,3.14038326,-0.406325038,0.210048558,2.00703,-7.36677,3728.68,28.6238,11694.0,-0.0872565,-1.0,16.0,-1267.0,89.0,,0.0,,2022-11-16 17:04:51.177698+00:00
2022-11-16 10:04:51.377767-07:00,22.064008,2.64,2.02,-1.68,0.29,12.52,975.72,31.13,24.0,0.0,-0.000156171,-1.15122e-05,0.000596532,32.8213827,-111.786991,324.567688,3.14802654,-0.405861333,0.219654793,,,,,,,,,,,,,,2022-11-16 17:04:51.377767+00:00
2022-11-16 10:04:51.577684-07:00,22.263925,2.57,1.9,-1.7,0.29,12.54,975.72,31.08,28.0,0.0,3.81666e-05,0.000378159,0.000863462,32.8213826,-111.786991,324.569122,3.15606152,-0.402409238,0.210758622,,,,,,,,,,,,,,2022-11-16 17:04:51.577684+00:00
2022-11-16 10:04:51.777812-07:00,22.464053,2.54,1.84,-1.73,0.28,12.52,975.73,31.13,25.0,0.0,0.00020452,-0.000386237,0.00143145,32.8213826,-111.786991,324.570648,3.16100409,-0.399216433,0.216471715,,,,,,,,,,,,,,2022-11-16 17:04:51.777812+00:00
2022-11-16 10:04:51.977885-07:00,22.664126,2.6,1.91,-1.74,0.32,12.54,975.74,31.09,23.0,0.0,5.32638e-05,-0.000323661,0.0013769,32.8213825,-111.786991,324.573914,3.17135873,-0.399942429,0.213170229,,,,,,,,,,,,,,2022-11-16 17:04:51.977885+00:00
2022-11-16 10:04:52.177545-07:00,22.863786,2.63,1.95,-1.73,0.33,12.56,975.73,31.04,23.0,0.0,-0.000138898,-2.1445e-05,0.00139103,32.8213825,-111.786992,324.574585,3.17827663,-0.400866641,0.218932148,2.00348,-7.04215,3713.61,28.6238,11645.0,-0.103941,-1.0,15.0,-1254.0,89.0,,0.0,,2022-11-16 17:04:52.177545+00:00
2022-11-16 10:04:52.378043-07:00,23.064284,2.63,1.94,-1.75,0.33,12.58,975.73,31.0,26.0,0.0,-4.21906e-05,-0.000751628,0.00119185,32.8213825,-111.786992,324.577789,3.18878587,-0.404220513,0.227245845,,,,,,,,,,,,,,2022-11-16 17:04:52.378043+00:00
2022-11-16 10:04:52.577742-07:00,23.263983,2.58,1.93,-1.69,0.3,12.57,975.73,30.97,27.0,0.0,9.85377e-05,9.49624e-05,0.000901296,32.8213825,-111.786992,324.577484,3.19646043,-0.404654319,0.218515784,,,,,,,,,,,,,,2022-11-16 17:04:52.577742+00:00
2022-11-16 10:04:52.777768-07:00,23.464009,2.56,1.95,-1.64,0.3,12.62,975.72,30.92,24.0,0.0,2.01692e-05,-0.000498845,0.00139089,32.8213825,-111.786992,324.575928,3.20520262,-0.40511734,0.225943617,,,,,,,,,,,,,,2022-11-16 17:04:52.777768+00:00
2022-11-16 10:04:52.978196-07:00,23.664437,2.54,1.95,-1.61,0.29,12.64,975.73,30.87,23.0,0.0,-0.00046434,-0.000218404,0.000806148,32.8213825,-111.786992,324.573608,3.21552945,-0.409368459,0.218454952,2.00528,-7.46233,3696.73,28.6251,11642.0,-0.0906844,-1.0,16.0,-1265.0,89.0,,0.0,,2022-11-16 17:04:52.978196+00:00
2022-11-16 10:04:53.177692-07:00,23.863933,2.44,1.88,-1.54,0.26,12.65,975.74,30.86,25.0,0.0,-0.000718736,-0.000450084,0.000939352,32.8213825,-111.786992,324.576141,3.22551677,-0.412380009,0.223340721,,,,,,,,,,,,,,2022-11-16 17:04:53.177692+00:00
2022-11-16 10:04:53.377361-07:00,24.063602,2.27,1.65,-1.53,0.26,12.69,975.74,30.81,27.0,0.0,-0.000570951,-0.000663329,0.00150804,32.8213824,-111.786992,324.576019,3.23359334,-0.412982791,0.216913359,,,,,,,,,,,,,,2022-11-16 17:04:53.377361+00:00
2022-11-16 10:04:53.577962-07:00,24.264203,2.16,1.27,-1.71,0.29,12.84,975.73,30.44,26.0,0.0,-0.000624062,-6.13575e-05,0.000384113,32.8213824,-111.786992,324.574677,3.24097048,-0.41112954,0.214782231,,,,,,,,,,,,,,2022-11-16 17:04:53.577962+00:00
2022-11-16 10:04:53.778142-07:00,24.464383,2.02,1.15,-1.64,0.24,12.91,975.75,30.34,23.0,0.0,-0.000282847,-1.48145e-05,0.000309841,32.8213824,-111.786992,324.572083,3.25019266,-0.408492903,0.220395473,,,,,,,,,,,,,,2022-11-16 17:04:53.778142+00:00
2022-11-16 10:04:53.978038-07:00,24.664279,2.09,1.29,-1.63,0.2,12.87,975.73,30.42,24.0,0.0,-0.000280386,0.000452029,-0.000157998,32.8213824,-111.786992,324.571747,3.25749435,-0.403769805,0.217631655,2.00545,-6.95173,3685.82,28.6253,11703.0,-0.0444241,-1.0,20.0,-1285.0,89.0,,0.0,,2022-11-16 17:04:53.978038+00:00
2022-11-16 10:04:54.177842-07:00,24.864083,1.9,1.12,-1.51,0.22,12.84,975.74,30.48,27.0,0.0,-0.000219225,-0.000371297,-0.000253542,32.8213824,-111.786992,324.568542,3.2665642,-0.40161817,0.226048445,,,,,,,,,,,,,,2022-11-16 17:04:54.177842+00:00
2022-11-16 10:04:54.378065-07:00,25.064306,2.02,1.2,-1.6,0.26,12.86,975.73,30.49,28.0,0.0,0.000305726,0.000204798,-0.00116072,32.8213824,-111.786991,324.566681,3.27441934,-0.400543984,0.216157924,,,,,,,,,,,,,,2022-11-16 17:04:54.378065+00:00
2022-11-16 10:04:54.578269-07:00,25.26451,1.98,1.21,-1.54,0.25,12.92,975.73,30.28,24.0,0.0,0.000424987,-7.13406e-05,-0.000969465,32.8213824,-111.786991,324.570587,3.2813682,-0.402176431,0.224398141,,,,,,,,,,,,,,2022-11-16 17:04:54.578269+00:00
2022-11-16 10:04:54.777594-07:00,25.463835,2.31,1.58,-1.66,0.3,12.95,975.73,30.3,23.0,0.0,0.000180029,0.000206604,-0.00149501,32.8213825,-111.786991,324.573242,3.29243499,-0.401583265,0.216070051,,,,,,,,,,,,,,2022-11-16 17:04:54.777594+00:00
2022-11-16 10:04:54.977878-07:00,25.664119,2.48,1.47,-1.97,0.29,12.81,975.72,30.48,24.0,0.0,0.000280442,2.53276e-05,-0.00143403,32.8213825,-111.786991,324.571625,3.29923127,-0.401888237,0.21860503,2.00651,-7.17884,3687.53,28.6266,11648.0,0.0270795,-1.0,14.0,-1260.0,89.0,,0.0,,2022-11-16 17:04:54.977878+00:00
2022-11-16 10:04:55.177527-07:00,25.863768,2.5,1.59,-1.9,0.33,12.74,975.74,30.69,28.0,0.0,-0.000158429,-0.000554874,-0.00140035,32.8213824,-111.786991,324.569733,3.30698404,-0.404789524,0.220820109,2.00651,-7.17884,3687.53,28.6266,11648.0,0.0270795,-1.0,14.0,-1260.0,89.0,,0.0,,2022-11-16 17:04:55.177527+00:00
2022-11-16 10:04:55.377849-07:00,26.06409,2.51,1.76,-1.77,0.34,12.76,975.73,30.67,26.0,0.0,0.000132657,7.06145e-05,-0.000464443,32.8213824,-111.786991,324.570374,3.31412418,-0.401856351,0.219744293,,,,,,,,,,,,,,2022-11-16 17:04:55.377849+00:00
2022-11-16 10:04:55.577537-07:00,26.263778,2.51,1.86,-1.67,0.29,12.77,975.71,30.62,23.0,0.0,9.73076e-05,-0.00012667,-0.000240501,32.8213823,-111.786991,324.574738,3.3212018,-0.400419331,0.227531808,,,,,,,,,,,,,,2022-11-16 17:04:55.577537+00:00
2022-11-16 10:04:55.777995-07:00,26.464236,2.28,1.47,-1.74,0.22,13.12,975.74,29.97,24.0,0.0,0.000423541,0.000531315,-0.000121797,32.8213823,-111.786991,324.573944,3.33165056,-0.397808407,0.219621042,,,,,,,,,,,,,,2022-11-16 17:04:55.777995+00:00
2022-11-16 10:04:55.978075-07:00,26.664316,2.25,1.54,-1.61,0.28,12.98,975.74,30.24,27.0,0.0,0.000557508,0.000179577,-6.7673e-05,32.8213823,-111.786991,324.574158,3.33884669,-0.399309753,0.230301766,,,,,,,,,,,,,,2022-11-16 17:04:55.978075+00:00
2022-11-16 10:04:56.177907-07:00,26.864148,2.13,1.43,-1.57,0.22,13.0,975.73,30.21,27.0,0.0,-0.000127465,0.000366867,-0.000600393,32.8213823,-111.786991,324.571899,3.34168513,-0.397155697,0.222650413,2.00759,-7.49492,3699.63,28.6267,11648.0,0.0117376,-1.0,14.0,-1260.0,89.0,,0.0,,2022-11-16 17:04:56.177907+00:00
2022-11-16 10:04:56.377573-07:00,27.063814,2.14,1.38,-1.62,0.24,13.1,975.73,30.0,24.0,0.0,0.000343307,0.000897606,-0.000767791,32.8213823,-111.786991,324.569489,3.34868151,-0.397501172,0.228430519,,,,,,,,,,,,,,2022-11-16 17:04:56.377573+00:00
2022-11-16 10:04:56.578131-07:00,27.264372,2.2,1.47,-1.61,0.26,13.04,975.74,30.16,23.0,0.0,0.00011824,-0.000111531,-0.000614575,32.8213823,-111.786991,324.569855,3.35673455,-0.398016503,0.22782767,,,,,,,,,,,,,,2022-11-16 17:04:56.578131+00:00
2022-11-16 10:04:56.778302-07:00,27.464543,2.2,1.45,-1.64,0.27,13.14,975.74,29.89,25.0,0.0,6.35508e-06,8.40819e-05,-0.000761064,32.8213824,-111.786991,324.567047,3.36243564,-0.39547302,0.220517711,,,,,,,,,,,,,,2022-11-16 17:04:56.778302+00:00
2022-11-16 10:04:56.977885-07:00,27.664126,2.18,1.54,-1.52,0.19,12.92,975.74,30.39,28.0,0.0,0.000366074,-0.000490092,-0.000975979,32.8213823,-111.786991,324.567871,3.3733908,-0.39559598,0.226645371,,,,,,,,,,,,,,2022-11-16 17:04:56.977885+00:00
2022-11-16 10:04:57.177569-07:00,27.86381,2.25,1.69,-1.48,0.17,13.12,975.73,30.04,25.0,0.0,0.000132493,-3.32177e-05,-0.00111663,32.8213823,-111.786991,324.566162,3.37955013,-0.393583608,0.217930451,2.0066,-7.01944,3713.21,28.6278,11647.0,0.0265409,-1.0,15.0,-1275.0,89.0,,0.0,,2022-11-16 17:04:57.177569+00:00
2022-11-16 10:04:57.377872-07:00,28.064113,2.21,1.66,-1.45,0.18,13.19,975.73,29.83,23.0,0.0,0.000711335,-8.11271e-06,-0.0010634,32.8213822,-111.786991,324.569702,3.38994992,-0.394433537,0.227956164,,,,,,,,,,,,,,2022-11-16 17:04:57.377872+00:00
2022-11-16 10:04:57.577921-07:00,28.264162,2.3,1.73,-1.5,0.2,13.14,975.73,29.88,23.0,0.0,0.000733176,9.77098e-05,-0.000202928,32.8213822,-111.786991,324.572327,3.39760833,-0.393082033,0.226060798,,,,,,,,,,,,,,2022-11-16 17:04:57.577921+00:00
2022-11-16 10:04:57.777554-07:00,28.463795,2.29,1.65,-1.57,0.28,13.11,975.74,29.99,28.0,0.0,0.000333326,0.000120503,-0.000326997,32.8213822,-111.786991,324.572937,3.40408952,-0.394569577,0.223370657,,,,,,,,,,,,,,2022-11-16 17:04:57.777554+00:00
2022-11-16 10:04:57.978222-07:00,28.664463,2.42,1.65,-1.75,0.25,13.11,975.74,30.06,28.0,0.0,0.000523771,0.000461881,-0.000203966,32.8213822,-111.786991,324.578278,3.41220681,-0.394875789,0.223117738,2.00928,-6.94874,3731.86,28.6292,11700.0,0.119517,-1.0,18.0,-1271.0,89.0,,0.0,,2022-11-16 17:04:57.978222+00:00
2022-11-16 10:04:58.178174-07:00,28.864415,2.88,1.87,-2.16,0.33,12.79,975.72,30.7,23.0,0.0,0.000641751,0.000272608,0.000532931,32.8213822,-111.786991,324.58313,3.41888958,-0.394010906,0.22262576,,,,,,,,,,,,,,2022-11-16 17:04:58.178174+00:00
2022-11-16 10:04:58.377357-07:00,29.063598,2.76,1.83,-2.03,0.34,13.13,975.72,29.94,23.0,0.0,5.19958e-05,0.000226865,6.05097e-05,32.8213822,-111.786991,324.584869,3.43199906,-0.396762592,0.222794022,,,,,,,,,,,,,,2022-11-16 17:04:58.377357+00:00
2022-11-16 10:04:58.578179-07:00,29.26442,2.56,1.76,-1.84,0.21,13.22,975.72,29.81,24.0,0.0,-0.000134457,0.00100686,2.55925e-05,32.8213823,-111.786991,324.584381,3.43977472,-0.395300035,0.220574434,,,,,,,,,,,,,,2022-11-16 17:04:58.578179+00:00
2022-11-16 10:04:58.777457-07:00,29.463698,2.57,1.71,-1.9,0.21,13.31,975.73,29.63,27.0,0.0,0.000160889,-0.000160924,-0.000904347,32.8213823,-111.786991,324.580933,3.45223647,-0.398690205,0.226358261,,,,,,,,,,,,,,2022-11-16 17:04:58.777457+00:00
2022-11-16 10:04:58.977514-07:00,29.663755,2.61,1.84,-1.83,0.29,12.76,975.73,30.75,24.0,0.0,0.000134475,0.000676341,-0.000703145,32.8213823,-111.786991,324.580841,3.46209517,-0.402243106,0.218986163,,,,,,,,,,,,,,2022-11-16 17:04:58.977514+00:00
2022-11-16 10:04:59.178264-07:00,29.864505,2.62,1.76,-1.92,0.31,12.54,975.73,31.16,22.0,0.0,-0.000296966,-0.000197871,-0.00121307,32.8213822,-111.786991,324.580597,3.46518924,-0.404627453,0.222646318,,,,,,,,,,,,,,2022-11-16 17:04:59.178264+00:00
2022-11-16 10:04:59.377587-07:00,30.063828,2.76,1.9,-1.97,0.37,12.32,975.72,31.58,23.0,0.0,-0.000169423,0.000240101,-0.000957337,32.8213822,-111.786991,324.580444,3.47513423,-0.408348599,0.219274167,,,,,,,,,,,,,,2022-11-16 17:04:59.377587+00:00
2022-11-16 10:04:59.577883-07:00,30.264124,2.64,1.85,-1.84,0.35,12.2,975.73,31.87,26.0,0.0,-0.000131372,0.000131392,2.80779e-05,32.8213821,-111.786991,324.582642,3.47908795,-0.407615208,0.225646581,,,,,,,,,,,,,,2022-11-16 17:04:59.577883+00:00
2022-11-16 10:04:59.777946-07:00,30.464187,2.52,1.77,-1.76,0.35,12.18,975.73,31.95,27.0,0.0,0.000370913,-9.47312e-05,0.000359508,32.8213821,-111.786991,324.581207,3.48769794,-0.406858868,0.225385752,,,,,,,,,,,,,,2022-11-16 17:04:59.777946+00:00
2022-11-16 10:04:59.977452-07:00,30.663693,2.35,1.65,-1.64,0.29,12.57,975.73,31.14,23.0,0.0,0.000206311,0.000404773,-0.000600785,32.8213821,-111.786991,324.579651,3.49561718,-0.405874494,0.225569368,2.00566,-7.65991,3754.91,28.6296,11629.0,0.109944,-1.0,15.0,-1268.0,89.0,,0.0,,2022-11-16 17:04:59.977452+00:00
2022-11-16 10:05:00.177486-07:00,30.863727,2.34,1.66,-1.63,0.24,12.79,975.72,30.65,22.0,0.0,7.70766e-05,-0.00121052,-0.000900445,32.8213821,-111.786991,324.576477,3.50603933,-0.409446871,0.231957433,,,,,,,,,,,,,,2022-11-16 17:05:00.177486+00:00
2022-11-16 10:05:00.377566-07:00,31.063807,2.4,1.64,-1.74,0.22,12.64,975.72,30.95,25.0,0.0,-4.56131e-05,0.000170259,-0.000824953,32.8213821,-111.786991,324.578339,3.51290727,-0.410306437,0.220508079,,,,,,,,,,,,,,2022-11-16 17:05:00.377566+00:00
2022-11-16 10:05:00.577876-07:00,31.264117,2.54,1.71,-1.85,0.31,12.6,975.73,31.05,27.0,0.0,-0.000337675,-0.00069895,-0.000212985,32.8213821,-111.786991,324.576324,3.52060104,-0.40988872,0.230276392,,,,,,,,,,,,,,2022-11-16 17:05:00.577876+00:00
2022-11-16 10:05:00.777600-07:00,31.463841,2.62,1.89,-1.81,0.25,12.68,975.73,30.91,25.0,0.0,-0.000296684,-0.000292206,-8.06219e-05,32.8213822,-111.786991,324.576904,3.53294063,-0.408396013,0.216435082,,,,,,,,,,,,,,2022-11-16 17:05:00.777600+00:00
2022-11-16 10:05:00.978279-07:00,31.66452,2.63,1.92,-1.79,0.2,12.71,975.73,30.81,22.0,0.0,-0.000146458,-7.48911e-05,0.000594087,32.8213821,-111.786991,324.577576,3.53870442,-0.405018605,0.226597879,2.0042,-7.79882,3714.3,28.6303,11661.0,0.150082,-1.0,19.0,-1274.0,89.0,,0.0,,2022-11-16 17:05:00.978279+00:00
2022-11-16 10:05:01.177859-07:00,31.8641,2.16,1.43,-1.61,0.2,12.83,975.72,30.57,23.0,0.0,-0.000241401,-0.00106641,0.00125617,32.8213821,-111.786991,324.580933,3.54804314,-0.403578908,0.225357337,2.0042,-7.79882,3714.3,28.6303,11661.0,0.150082,-1.0,19.0,-1274.0,89.0,,0.0,,2022-11-16 17:05:01.177859+00:00
2022-11-16 10:05:01.377425-07:00,32.063666,2.56,1.6,-1.96,0.33,13.02,975.73,30.24,27.0,0.0,-5.37524e-05,0.000391457,0.0014796,32.821382,-111.786991,324.580505,3.55350438,-0.396607172,0.209799374,,,,,,,,,,,,,,2022-11-16 17:05:01.377425+00:00
2022-11-16 10:05:01.577398-07:00,32.263639,2.84,1.84,-2.13,0.39,12.29,975.73,31.68,27.0,0.0,0.000341122,-0.000271217,0.00099796,32.821382,-111.786991,324.578674,3.56054279,-0.399658619,0.228973417,,,,,,,,,,,,,,2022-11-16 17:05:01.577398+00:00
2022-11-16 10:05:01.778021-07:00,32.464262,2.88,1.9,-2.14,0.3,12.23,975.73,31.9,23.0,0.0,3.13494e-05,8.63762e-05,0.000278272,32.821382,-111.786991,324.576599,3.56690742,-0.398403964,0.218067256,,,,,,,,,,,,,,2022-11-16 17:05:01.778021+00:00
2022-11-16 10:05:01.978078-07:00,32.664319,2.87,1.85,-2.18,0.22,12.43,975.73,31.47,22.0,0.0,-0.000228123,0.000454533,0.00114127,32.8213819,-111.786991,324.576416,3.57384535,-0.395810342,0.220465737,2.00706,-7.45079,3693.7,28.6318,11686.0,0.13625,-1.0,16.0,-1266.0,89.0,,0.0,,2022-11-16 17:05:01.978078+00:00
2022-11-16 10:05:02.177780-07:00,32.864021,2.92,2.01,-2.09,0.31,12.35,975.71,31.6,25.0,0.0,1.85088e-06,0.000271054,0.000100131,32.8213819,-111.786991,324.575317,3.58073638,-0.400091394,0.221724902,,,,,,,,,,,,,,2022-11-16 17:05:02.177780+00:00
2022-11-16 10:05:02.377839-07:00,33.06408,2.94,2.12,-2.0,0.39,12.33,975.72,31.69,27.0,0.0,-0.000136626,0.000495859,0.00030717,32.8213819,-111.786991,324.573547,3.58809103,-0.40010395,0.221323506,,,,,,,,,,,,,,2022-11-16 17:05:02.377839+00:00
2022-11-16 10:05:02.577902-07:00,33.264143,2.8,2.02,-1.9,0.39,12.33,975.72,31.64,24.0,0.0,-0.000352577,0.000148533,-0.000152062,32.8213819,-111.786991,324.571381,3.59641026,-0.403709575,0.224996828,,,,,,,,,,,,,,2022-11-16 17:05:02.577902+00:00
2022-11-16 10:05:02.777524-07:00,33.463765,2.8,2.01,-1.92,0.35,12.27,975.72,31.82,22.0,0.0,-0.000378101,0.000413906,-0.000316522,32.8213819,-111.786991,324.569916,3.60410185,-0.405390611,0.225548583,,,,,,,,,,,,,,2022-11-16 17:05:02.777524+00:00
2022-11-16 10:05:02.978141-07:00,33.664382,2.8,2.06,-1.88,0.27,12.43,975.72,31.38,24.0,0.0,-0.000318405,0.000251686,0.000434361,32.8213819,-111.786991,324.570465,3.61154133,-0.4093085,0.234644041,,,,,,,,,,,,,,2022-11-16 17:05:02.978141+00:00
2022-11-16 10:05:03.177722-07:00,33.863963,2.79,2.05,-1.87,0.22,12.59,975.71,31.1,27.0,0.0,-0.00031891,0.000832413,0.000794925,32.821382,-111.786991,324.574951,3.6175234,-0.409464751,0.227663931,2.00657,-7.55799,3665.98,28.632,11628.0,0.167395,-1.0,15.0,-1275.0,89.0,,0.0,,2022-11-16 17:05:03.177722+00:00
2022-11-16 10:05:03.378239-07:00,34.06448,2.94,2.24,-1.88,0.31,12.47,975.72,31.4,25.0,0.0,-0.000660623,-0.000165917,0.00102439,32.821382,-111.786991,324.577576,3.62604076,-0.410614511,0.230276019,,,,,,,,,,,,,,2022-11-16 17:05:03.378239+00:00
2022-11-16 10:05:03.577867-07:00,34.264108,3.17,2.56,-1.86,0.19,12.71,975.71,30.86,23.0,0.0,-0.000210308,0.000864438,0.00135974,32.821382,-111.786992,324.576752,3.6329761,-0.408264278,0.227577539,,,,,,,,,,,,,,2022-11-16 17:05:03.577867+00:00
2022-11-16 10:05:03.777704-07:00,34.463945,3.08,2.52,-1.75,0.23,12.66,975.71,30.93,22.0,0.0,-0.000222596,0.000405855,0.00123221,32.8213819,-111.786992,324.57724,3.63780043,-0.407833495,0.230210491,,,,,,,,,,,,,,2022-11-16 17:05:03.777704+00:00
2022-11-16 10:05:03.977690-07:00,34.663931,2.84,2.3,-1.66,0.23,12.66,975.71,30.92,25.0,0.0,-0.000412439,0.000715164,0.00131788,32.8213819,-111.786992,324.580048,3.64583445,-0.405872049,0.228052641,,,,,,,,,,,,,,2022-11-16 17:05:03.977690+00:00
2022-11-16 10:05:04.178251-07:00,34.864492,2.85,2.3,-1.67,0.16,12.6,975.73,31.12,26.0,0.0,-0.000359547,0.000854203,0.000505488,32.8213818,-111.786992,324.576721,3.65267629,-0.402779784,0.227343683,,,,,,,,,,,,,,2022-11-16 17:05:04.178251+00:00
2022-11-16 10:05:04.377610-07:00,35.063851,2.85,2.36,-1.59,0.19,12.59,975.71,31.15,23.0,0.0,-0.00026113,-0.000213549,0.000873219,32.8213818,-111.786992,324.581207,3.66204318,-0.407874262,0.232364553,,,,,,,,,,,,,,2022-11-16 17:05:04.377610+00:00
2022-11-16 10:05:04.577477-07:00,35.263718,2.73,2.19,-1.62,0.21,12.47,975.73,31.4,22.0,0.0,-0.000528075,0.0013143,0.000915463,32.8213819,-111.786992,324.577301,3.67044927,-0.410094315,0.223509956,,,,,,,,,,,,,,2022-11-16 17:05:04.577477+00:00
2022-11-16 10:05:04.777722-07:00,35.463963,2.83,2.27,-1.68,0.22,12.65,975.73,30.97,25.0,0.0,-0.00023725,0.000220335,-0.000105929,32.8213819,-111.786992,324.573792,3.67576228,-0.409800119,0.231638919,,,,,,,,,,,,,,2022-11-16 17:05:04.777722+00:00
2022-11-16 10:05:04.977907-07:00,35.664148,2.9,2.33,-1.7,0.27,12.77,975.72,30.82,27.0,0.0,-0.000282231,0.000558484,-0.000287251,32.8213819,-111.786992,324.57196,3.68311962,-0.410404127,0.218827733,2.00455,-7.83779,3630.94,28.6335,11705.0,0.142551,-1.0,18.0,-1275.0,89.0,,0.0,,2022-11-16 17:05:04.977907+00:00
2022-11-16 10:05:05.177811-07:00,35.864052,2.9,2.43,-1.57,0.19,12.93,975.71,30.42,24.0,0.0,-0.000647456,0.000770309,-0.000261041,32.8213819,-111.786992,324.570557,3.6883874,-0.409010987,0.227228129,,,,,,,,,,,,,,2022-11-16 17:05:05.177811+00:00
2022-11-16 10:05:05.377706-07:00,36.063947,2.67,2.23,-1.45,0.18,12.59,975.72,31.06,23.0,0.0,-5.0448e-05,-6.28019e-05,-0.000266089,32.821382,-111.786992,324.570007,3.70142523,-0.411888739,0.221763389,,,,,,,,,,,,,,2022-11-16 17:05:05.377706+00:00
2022-11-16 10:05:05.578164-07:00,36.264405,2.6,2.15,-1.41,0.34,12.75,975.73,30.83,23.0,0.0,-4.22667e-05,0.000625447,0.000878023,32.821382,-111.786992,324.56778,3.7050123,-0.410268859,0.22027976,,,,,,,,,,,,,,2022-11-16 17:05:05.578164+00:00
2022-11-16 10:05:05.777842-07:00,36.464083,2.54,2.01,-1.54,0.21,12.85,975.73,30.62,26.0,0.0,0.000140523,3.54039e-06,0.000885557,32.821382,-111.786992,324.573486,3.71091622,-0.411811292,0.226439983,,,,,,,,,,,,,,2022-11-16 17:05:05.777842+00:00
2022-11-16 10:05:05.977713-07:00,36.663954,2.62,2.19,-1.42,0.27,12.84,975.72,30.6,26.0,0.0,-4.8952e-05,0.000644671,0.00184673,32.821382,-111.786992,324.573975,3.71742845,-0.41471217,0.215122196,2.01021,-7.96221,3631.16,28.6345,11705.0,0.0127649,-1.0,18.0,-1275.0,89.0,,0.0,,2022-11-16 17:05:05.977713+00:00
2022-11-16 10:05:06.178102-07:00,36.864343,2.42,2.09,-1.19,0.29,13.02,975.73,30.29,23.0,0.0,-0.000559106,-0.000118084,0.00180819,32.821382,-111.786992,324.574127,3.72436845,-0.41363326,0.230178554,,,,,,,,,,,,,,2022-11-16 17:05:06.178102+00:00
2022-11-16 10:05:06.377861-07:00,37.064102,2.22,1.87,-1.12,0.44,13.24,975.73,29.79,23.0,0.0,-4.17371e-05,-0.000645748,0.00118288,32.8213819,-111.786992,324.575562,3.73058482,-0.415820615,0.217426601,,,,,,,,,,,,,,2022-11-16 17:05:06.377861+00:00
2022-11-16 10:05:06.578252-07:00,37.264493,2.33,1.89,-1.28,0.47,13.15,975.73,30.06,25.0,0.0,-0.000306264,0.000854701,0.000836033,32.8213819,-111.786992,324.575134,3.73727237,-0.416685535,0.220508066,,,,,,,,,,,,,,2022-11-16 17:05:06.578252+00:00
2022-11-16 10:05:06.777539-07:00,37.46378,2.48,2.18,-1.06,0.51,13.05,975.73,30.25,27.0,0.0,-0.000616565,-2.91808e-05,0.000316093,32.8213819,-111.786992,324.575714,3.7454307,-0.41327007,0.22489264,,,,,,,,,,,,,,2022-11-16 17:05:06.777539+00:00
2022-11-16 10:05:06.977778-07:00,37.664019,2.39,1.91,-1.37,0.44,13.0,975.73,30.32,25.0,0.0,-0.000215944,0.000402452,0.000785878,32.821382,-111.786992,324.571503,3.75338116,-0.416282147,0.221924353,2.00629,-7.35928,3636.78,28.635,11667.0,0.0188661,-1.0,16.0,-1269.0,89.0,,0.0,,2022-11-16 17:05:06.977778+00:00
2022-11-16 10:05:07.177502-07:00,37.863743,2.4,1.95,-1.33,0.38,12.94,975.72,30.47,23.0,0.0,-0.000618537,-0.000233575,-0.000699397,32.821382,-111.786992,324.571228,3.76387532,-0.418089872,0.22589159,2.00629,-7.35928,3636.78,28.635,11667.0,0.0188661,-1.0,16.0,-1269.0,89.0,,0.0,,2022-11-16 17:05:07.177502+00:00
2022-11-16 10:05:07.377987-07:00,38.064228,2.38,1.75,-1.6,0.15,12.84,975.74,30.71,24.0,0.0,-0.000410964,0.000462193,-0.000376043,32.821382,-111.786992,324.571014,3.76745882,-0.414524231,0.216736813,,,,,,,,,,,,,,2022-11-16 17:05:07.377987+00:00
2022-11-16 10:05:07.577546-07:00,38.263787,2.48,1.84,-1.66,0.15,12.7,975.74,30.93,27.0,0.0,-0.000247557,-0.000126339,-0.000177808,32.821382,-111.786992,324.573395,3.77512233,-0.41795055,0.230434582,,,,,,,,,,,,,,2022-11-16 17:05:07.577546+00:00
2022-11-16 10:05:07.778103-07:00,38.464344,2.44,1.7,-1.73,0.19,12.73,975.73,30.81,27.0,0.0,-0.000521925,-0.000107515,-1.87476e-05,32.821382,-111.786992,324.570312,3.77971502,-0.415600686,0.221230937,,,,,,,,,,,,,,2022-11-16 17:05:07.778103+00:00
2022-11-16 10:05:07.977918-07:00,38.664159,2.31,1.61,-1.65,0.2,12.79,975.73,30.75,23.0,0.0,-0.000979016,-0.000476825,-0.00129644,32.8213819,-111.786992,324.565613,3.78502879,-0.41237301,0.225826409,,,,,,,,,,,,,,2022-11-16 17:05:07.977918+00:00
2022-11-16 10:05:08.178211-07:00,38.864452,2.33,1.64,-1.64,0.19,12.93,975.74,30.51,23.0,0.0,-0.000666406,-0.000523495,-0.00124368,32.8213819,-111.786992,324.56723,3.79606104,-0.413018322,0.223746987,,,,,,,,,,,,,,2022-11-16 17:05:08.178211+00:00
2022-11-16 10:05:08.377888-07:00,39.064129,2.33,1.52,-1.76,0.19,12.88,975.74,30.59,26.0,0.0,-0.000804778,0.000339049,6.87378e-05,32.8213819,-111.786992,324.571594,3.79955888,-0.408266523,0.226740541,,,,,,,,,,,,,,2022-11-16 17:05:08.377888+00:00
2022-11-16 10:05:08.577389-07:00,39.26363,2.4,1.89,-1.47,0.15,12.96,975.72,30.4,27.0,0.0,-0.000242831,-0.000339184,0.000457988,32.8213819,-111.786992,324.570343,3.80609027,-0.404530057,0.228892868,,,,,,,,,,,,,,2022-11-16 17:05:08.577389+00:00
2022-11-16 10:05:08.777552-07:00,39.463793,2.4,1.96,-1.37,0.08,13.04,975.73,30.29,24.0,0.0,0.000226766,0.000122103,0.000379672,32.8213819,-111.786992,324.571075,3.81266906,-0.403288821,0.221327601,,,,,,,,,,,,,,2022-11-16 17:05:08.777552+00:00
2022-11-16 10:05:08.977966-07:00,39.664207,2.19,1.81,-1.24,0.1,13.16,975.72,30.07,22.0,0.0,0.000236707,-6.84137e-05,-7.56555e-05,32.8213819,-111.786992,324.572144,3.81975872,-0.403129951,0.228580704,2.00525,-7.18766,3648.42,28.6361,11686.0,0.0252136,-1.0,17.0,-1303.0,89.0,,0.0,,2022-11-16 17:05:08.977966+00:00
2022-11-16 10:05:09.178154-07:00,39.864395,2.33,2.01,-1.17,0.18,13.33,975.73,29.66,25.0,0.0,5.55063e-05,8.00142e-05,-0.00057677,32.821382,-111.786992,324.568695,3.8282055,-0.404501379,0.217108901,,,,,,,,,,,,,,2022-11-16 17:05:09.178154+00:00
2022-11-16 10:05:09.378025-07:00,40.064266,2.61,2.14,-1.49,0.07,13.11,975.73,30.14,28.0,0.0,-0.000574362,0.000167044,-0.000429464,32.821382,-111.786992,324.57019,3.83169079,-0.406226107,0.219450259,,,,,,,,,,,,,,2022-11-16 17:05:09.378025+00:00
2022-11-16 10:05:09.577426-07:00,40.263667,2.38,2.07,-1.12,0.32,13.19,975.74,30.01,24.0,0.0,-0.000277015,-0.000210179,0.00104842,32.821382,-111.786992,324.573425,3.83916575,-0.405341966,0.221494875,,,,,,,,,,,,,,2022-11-16 17:05:09.577426+00:00
2022-11-16 10:05:09.777481-07:00,40.463722,2.62,2.17,-1.39,0.48,13.16,975.72,30.04,22.0,0.0,-0.000537725,-0.000360332,0.00187728,32.821382,-111.786992,324.575378,3.84574927,-0.405837445,0.21855299,,,,,,,,,,,,,,2022-11-16 17:05:09.777481+00:00
2022-11-16 10:05:09.977730-07:00,40.663971,2.88,2.24,-1.79,0.24,12.65,975.72,31.06,24.0,0.0,-0.000322529,-0.000520033,0.000678423,32.821382,-111.786992,324.573181,3.85366747,-0.406128892,0.225587404,,,,,,,,,,,,,,2022-11-16 17:05:09.977730+00:00
2022-11-16 10:05:10.178220-07:00,40.864461,2.96,2.32,-1.82,0.25,12.43,975.72,31.56,28.0,0.0,-0.000159325,-6.43831e-05,0.000401016,32.821382,-111.786992,324.569977,3.8590948,-0.405315848,0.227196353,2.00619,-7.18575,3670.17,28.6375,11678.0,0.0414168,-1.0,16.0,-1266.0,89.0,,0.0,,2022-11-16 17:05:10.178220+00:00
2022-11-16 10:05:10.377751-07:00,41.063992,2.88,2.33,-1.69,0.18,12.41,975.71,31.59,26.0,0.0,4.66138e-05,-0.00081728,0.000714949,32.821382,-111.786992,324.572388,3.86591832,-0.405046927,0.232513831,,,,,,,,,,,,,,2022-11-16 17:05:10.377751+00:00
2022-11-16 10:05:10.577763-07:00,41.264004,2.74,2.23,-1.58,0.19,12.76,975.71,30.83,23.0,0.0,-0.000417665,0.000151469,0.00136415,32.821382,-111.786992,324.574371,3.87177612,-0.406672178,0.22145304,,,,,,,,,,,,,,2022-11-16 17:05:10.577763+00:00
2022-11-16 10:05:10.778206-07:00,41.464447,2.67,2.22,-1.48,0.14,13.12,975.73,30.11,23.0,0.0,-0.000377835,1.2824e-05,0.00174381,32.821382,-111.786992,324.57486,3.87919748,-0.409096003,0.228926672,,,,,,,,,,,,,,2022-11-16 17:05:10.778206+00:00
2022-11-16 10:05:10.977738-07:00,41.663979,2.41,2.1,-1.14,0.27,13.4,975.72,29.58,27.0,0.0,-0.00015124,-0.000377611,0.000966671,32.821382,-111.786992,324.574188,3.89003661,-0.408604231,0.226450469,2.00598,-6.84743,3670.88,28.6382,11623.0,0.0263609,-1.0,20.0,-1261.0,89.0,,0.0,,2022-11-16 17:05:10.977738+00:00
2022-11-16 10:05:11.177623-07:00,41.863864,2.23,2.02,-0.79,0.52,13.58,975.73,29.26,27.0,0.0,-0.000355606,6.10294e-05,0.00122402,32.821382,-111.786992,324.572876,3.8963283,-0.408723535,0.229114611,,,,,,,,,,,,,,2022-11-16 17:05:11.177623+00:00
2022-11-16 10:05:11.378223-07:00,42.064464,2.28,2.09,-0.68,0.61,13.61,975.74,29.18,24.0,0.0,-0.000480205,-0.000379658,0.000791848,32.821382,-111.786992,324.572998,3.90057856,-0.410059339,0.236750478,,,,,,,,,,,,,,2022-11-16 17:05:11.378223+00:00
2022-11-16 10:05:11.577576-07:00,42.263817,2.26,2.01,-0.93,0.46,13.87,975.73,28.73,23.0,0.0,-0.000375797,0.000334833,0.000405095,32.821382,-111.786992,324.572937,3.90281263,-0.408692235,0.230122498,,,,,,,,,,,,,,2022-11-16 17:05:11.577576+00:00
2022-11-16 10:05:11.777901-07:00,42.464142,2.29,1.91,-1.25,0.18,13.81,975.72,28.83,26.0,0.0,-0.00017054,-0.000564844,-0.000573508,32.821382,-111.786992,324.568329,3.90842536,-0.409675933,0.237926028,,,,,,,,,,,,,,2022-11-16 17:05:11.777901+00:00
2022-11-16 10:05:11.978117-07:00,42.664358,2.14,1.99,-0.65,0.45,13.95,975.73,28.57,28.0,0.0,-0.000244443,-0.000232859,-0.000611092,32.821382,-111.786992,324.570923,3.91820882,-0.41072551,0.235609427,2.00747,-7.37656,3682.98,28.6385,11641.0,0.0147526,-1.0,17.0,-1253.0,89.0,,0.0,,2022-11-16 17:05:11.978117+00:00
2022-11-16 10:05:12.177957-07:00,42.864198,2.32,2.02,-1.07,0.41,13.53,975.73,29.32,25.0,0.0,-0.000349518,-7.43879e-05,0.000179815,32.821382,-111.786992,324.57312,3.92245395,-0.410067196,0.23225116,2.00747,-7.37656,3682.98,28.6385,11641.0,0.0147526,-1.0,17.0,-1253.0,89.0,,0.0,,2022-11-16 17:05:12.177957+00:00
2022-11-16 10:05:12.377369-07:00,43.06361,2.61,2.06,-1.59,0.22,12.99,975.72,30.45,23.0,0.0,-0.000264762,-0.000485573,-0.000367548,32.821382,-111.786992,324.569275,3.93195177,-0.412943521,0.233626334,,,,,,,,,,,,,,2022-11-16 17:05:12.377369+00:00
2022-11-16 10:05:12.577680-07:00,43.263921,2.61,2.03,-1.62,0.18,12.95,975.72,30.49,24.0,0.0,-0.000356079,-0.000429581,-9.42365e-05,32.821382,-111.786992,324.572449,3.93763216,-0.413300226,0.228611707,,,,,,,,,,,,,,2022-11-16 17:05:12.577680+00:00
2022-11-16 10:05:12.777983-07:00,43.464224,2.6,2.2,-1.35,0.33,13.27,975.72,29.83,28.0,0.0,-0.000665915,-0.000196501,0.000787992,32.821382,-111.786992,324.574402,3.94578412,-0.419143327,0.234327742,,,,,,,,,,,,,,2022-11-16 17:05:12.777983+00:00
2022-11-16 10:05:12.978147-07:00,43.664388,2.5,2.12,-1.18,0.58,13.52,975.72,29.35,26.0,0.0,-0.000845712,-0.000597383,0.000424555,32.821382,-111.786992,324.574585,3.94993812,-0.420733013,0.228847004,,,,,,,,,,,,,,2022-11-16 17:05:12.978147+00:00
2022-11-16 10:05:13.177433-07:00,43.863674,2.67,2.17,-1.51,0.4,13.31,975.73,29.75,22.0,0.0,-0.000770952,-0.000985784,-0.000223086,32.821382,-111.786992,324.570404,3.95851399,-0.420371002,0.233024712,2.01049,-7.39493,3720.59,28.64,11688.0,-0.0739568,-1.0,21.0,-1264.0,89.0,,0.0,,2022-11-16 17:05:13.177433+00:00
2022-11-16 10:05:13.377567-07:00,44.063808,2.82,2.26,-1.67,0.18,12.92,975.72,30.59,23.0,0.0,-0.00050788,-9.45109e-05,-7.24814e-05,32.821382,-111.786992,324.570251,3.96566083,-0.417934357,0.223453514,,,,,,,,,,,,,,2022-11-16 17:05:13.377567+00:00
2022-11-16 10:05:13.577799-07:00,44.26404,2.82,2.18,-1.78,0.2,13.15,975.72,30.09,26.0,0.0,-0.000593407,-0.000350699,0.000154104,32.821382,-111.786992,324.571747,3.96942334,-0.417614266,0.229971886,,,,,,,,,,,,,,2022-11-16 17:05:13.577799+00:00
2022-11-16 10:05:13.778073-07:00,44.464314,2.72,2.14,-1.65,0.32,13.35,975.71,29.75,27.0,0.0,-0.000830386,-0.00025933,0.000324648,32.8213819,-111.786992,324.56778,3.97908586,-0.415556519,0.223303248,,,,,,,,,,,,,,2022-11-16 17:05:13.778073+00:00
2022-11-16 10:05:13.978224-07:00,44.664465,2.78,2.2,-1.68,0.24,13.31,975.71,29.74,24.0,0.0,-0.00044979,-1.90427e-05,-0.000112793,32.8213818,-111.786992,324.56546,3.98249737,-0.412309375,0.221791044,2.00636,-7.43727,3738.57,28.6406,11673.0,-0.0769002,-1.0,20.0,-1268.0,89.0,,0.0,,2022-11-16 17:05:13.978224+00:00
2022-11-16 10:05:14.181913-07:00,44.868154,2.9,2.2,-1.88,0.24,13.19,975.73,29.98,22.0,0.0,0.000119317,-0.000523704,8.04134e-05,32.8213818,-111.786992,324.565765,3.99162453,-0.413023804,0.228805329,,,,,,,,,,,,,,2022-11-16 17:05:14.181913+00:00
2022-11-16 10:05:14.378265-07:00,45.064506,2.81,2.21,-1.72,0.17,13.06,975.72,30.28,25.0,0.0,-0.000114646,-2.29875e-05,0.000370948,32.8213818,-111.786992,324.564026,3.99680176,-0.409639255,0.227440427,,,,,,,,,,,,,,2022-11-16 17:05:14.378265+00:00
2022-11-16 10:05:14.577711-07:00,45.263952,2.68,2.18,-1.56,0.19,13.16,975.73,30.12,28.0,0.0,1.74481e-05,-0.000504474,0.001308,32.8213818,-111.786992,324.57196,4.00412763,-0.411342638,0.239919046,,,,,,,,,,,,,,2022-11-16 17:05:14.577711+00:00
2022-11-16 10:05:14.777901-07:00,45.464142,2.67,2.11,-1.63,0.19,13.27,975.72,29.9,25.0,0.0,-4.09152e-05,-0.000176416,0.0024097,32.8213818,-111.786992,324.574219,4.0129543,-0.413316849,0.230207476,,,,,,,,,,,,,,2022-11-16 17:05:14.777901+00:00
2022-11-16 10:05:14.977954-07:00,45.664195,2.65,2.11,-1.57,0.33,13.55,975.71,29.33,22.0,0.0,-0.000240209,0.000485526,0.00284971,32.8213818,-111.786992,324.56839,4.0131901,-0.41267971,0.228428545,2.00608,-7.87407,3750.51,28.6413,11673.0,-0.0751827,-1.0,20.0,-1268.0,89.0,,0.0,,2022-11-16 17:05:14.977954+00:00
2022-11-16 10:05:15.177447-07:00,45.863688,2.53,2.14,-1.29,0.38,13.39,975.71,29.68,23.0,0.0,-0.00063564,-0.000225957,0.00175041,32.8213818,-111.786992,324.565979,4.01724658,-0.414066624,0.230455766,2.00608,-7.87407,3750.51,28.6413,11673.0,-0.0751827,-1.0,20.0,-1268.0,89.0,,0.0,,2022-11-16 17:05:15.177447+00:00
2022-11-16 10:05:15.377410-07:00,46.063651,2.43,1.89,-1.51,0.27,13.45,975.72,29.55,26.0,0.0,-0.000278066,-0.000657859,0.00134251,32.8213817,-111.786992,324.565704,4.02547818,-0.41147166,0.227323219,,,,,,,,,,,,,,2022-11-16 17:05:15.377410+00:00
