Timestamp,Seconds,S,Um,Vm,Wm,T,P,H,MD,Sts,Vx,Vy,Vz,Lat,Lon,Alt,Yaw,Roll,Pitch,CH4,C2H6,H2O,T_a,Batt,R,C2C1,Power,Current,SOC,Lat_a,Lon_a,TS,Timestamp_UTC,Rho,Rho_err,Sc,V,U,W,WD,V_err,U_err,Sc_avg,WD_avg,V_avg,U_avg,W_avg,U_err_avg,V_err_avg,Nx,Ny,cross_wind,cross_wind_err,CH4_sub,CH4_res,CH4_adj,CH4_adj_err,BG_Samples_CH4,C2H6_sub,C2H6_res,C2H6_adj,C2H6_adj_err,BG_Samples_C2H6,x_dist,y_dist,s_dist,z_dist,velocity_s,velocity_z,x_src_dist,y_src_dist,s_src_dist,collecting,group,transect_num
2022-11-16 10:04:29.944326-07:00,0.630567,2.49,1.85,-1.65,0.16,12.83,975.73,30.25,22.0,0.0,-5.06869e-05,-0.000513239,0.000270448,32.821382,-111.786993,325.42397500000004,2.08188798,-0.406041272,0.206782932,2.0068,-7.29733,3796.96,28.6075,11699.0,0.0392333,-1.0,20.0,-1294.0,89.0,,0.0,,2022-11-16 17:04:29.944326+00:00,1.1885811705622702,0.014747298726497668,2.479229816163192,-1.7166305581785206,1.7887873009612616,0.160270448,313.82077024182274,0.2165551425472911,0.2297105846455411,2.3333929356317005,308.4185601640367,-1.4622184565165497,1.8019339298612014,0.24237379843999998,0.22583355270391853,0.21233414366658243,0.9951587286880429,-0.09828074438056668,1.936918197173972,0.22366160652079217,,,,,,,,,,,0.08905962000353575,-0.09355316634941442,0.12916582694031495,0.004059000000040669,0.12916582694031495,0.004059000000040669,-21.485630386629417,-98.32415087236714,100.64427931026616,False,,
2022-11-16 10:04:31.177907-07:00,1.864148,1.89,1.74,-0.65,0.36,13.86,975.74,28.36,25.0,0.0,-0.000312951,0.000133828,0.000885702,32.8213821,-111.786993,325.430444,2.14910212,-0.40668792,0.202799465,2.00761,-6.97701,3786.81,28.6085,11702.0,0.029367,-1.0,18.0,-1265.0,89.0,,0.0,,2022-11-16 17:04:31.177907+00:00,1.1843278171843497,0.014677689040753351,1.8571041301353515,-0.7146591742491267,1.7140881000775126,0.360885702,292.63284564014026,0.20158748558608233,0.21627579964871554,2.01867354149345,292.81102083646226,-0.7919719474773999,1.8492335125824209,0.42620729865999996,0.2172737282450022,0.20258567938936972,0.39318978493160184,0.9194573361638052,-0.0010846900434384743,0.17452919842679,,,,,,,,,,,0.10019207234003723,-0.09355316633898231,0.13707897830025048,0.010528000000022075,0.007913151359935533,0.006468999999981406,-21.474497934292916,-98.32415087235671,100.64190333206102,False,,
2022-11-16 10:04:31.977976-07:00,2.664217,2.39,1.96,-1.34,0.29,13.61,975.73,28.75,24.0,0.0,-0.000123353,9.60433e-05,-0.000334768,32.8213822,-111.786993,325.43017000000003,2.19514456,-0.405597581,0.210534238,2.00642,-7.1524,3773.87,28.609,11619.0,-0.0213116,-1.0,17.0,-1276.0,89.0,,0.0,,2022-11-16 17:04:31.977976+00:00,1.185348176724083,0.014694487762287208,2.374122547407358,-1.4139947499313266,1.9071121407181715,0.289665232,306.5544359702112,0.21040587334872654,0.22485802969295848,2.4996544976069117,306.0022468294945,-1.472382022970951,2.014796678118418,0.26004819826,0.22600838835994042,0.21159934154719023,0.6143473683698272,0.7890356842228796,0.07602308006996772,0.1569421297505746,,,,,,,,,,,0.1113245252895797,-0.09355316622964978,0.14541439008070264,0.010254000000031738,0.008335411780452162,-0.00027399999999033753,-21.463365481343374,-98.32415087224739,100.63952852897408,False,,
2022-11-16 10:04:33.178034-07:00,3.864275,2.72,2.21,-1.57,0.14,12.19,975.72,31.64,26.0,0.0,-8.70688e-05,-0.000224537,-0.00119786,32.8213822,-111.786992,325.42424900000003,2.25595289,-0.412675315,0.205562775,2.00398,-7.10318,3790.59,28.6096,11673.0,-0.0548173,-1.0,19.0,-1286.0,89.0,,0.0,,2022-11-16 17:04:33.178034+00:00,1.1912348759540055,0.0147908680768214,2.710972120909354,-1.6560013402814684,2.146399171014968,0.13880214000000002,307.65109622133394,0.21447694782605795,0.22913018569568483,2.716459473397002,308.1546530528366,-1.6775603985557912,2.1354576845230926,0.16264037280000002,0.22954159011335365,0.2149251839615804,0.9323565043477934,-0.36154024506320614,2.597513459526774,0.20150582850132812,,,,,,,,,,,0.11132452518623875,0.0,0.11132452518623875,0.0043330000000310065,-0.03408986489446389,-0.005921000000000731,-21.463365481446715,-98.23059770601773,100.54812968659166,False,,
2022-11-16 10:04:34.177559-07:00,4.8638,2.71,2.16,-1.61,0.22,12.36,975.73,31.23,24.0,0.0,-0.000313668,0.000181464,-0.00171535,32.8213823,-111.786992,325.41985500000004,2.32265155,-0.409052564,0.219098075,2.00619,-7.91168,3786.98,28.6102,11685.0,-0.183241,-1.0,18.0,-1275.0,89.0,,0.0,,2022-11-16 17:04:34.177559+00:00,1.1905377855675738,0.014779305194211771,2.693653936072817,-1.696033762818669,2.09266361432021,0.21828465,309.02360840894085,0.21509436219524775,0.2300703085155615,2.6864408135840705,307.4379551211034,-1.6312653097963672,2.1317068508531447,0.1962143106,0.22893436041589948,0.2138411154589142,0.5007608158770762,0.8655857007149118,-0.34452466438804263,0.17019248094655154,,,,,,,,,,,0.12245697804539238,0.0,0.12245697804539238,-6.099999995967664e-05,0.011132452859153624,-0.004393999999990683,-21.45223302858756,-98.23059770601773,100.5457539013673,False,,
2022-11-16 10:04:34.977848-07:00,5.664089,2.11,1.73,-1.14,0.38,13.32,975.74,29.41,26.0,0.0,-4.91642e-05,0.000950265,-0.00070726,32.8213824,-111.786992,325.421289,2.36524482,-0.413212433,0.211759398,2.00686,-6.9807,3738.23,28.6117,11648.0,-0.214906,-1.0,16.0,-1283.0,89.0,,0.0,,2022-11-16 17:04:34.977848+00:00,1.1865602918633025,0.014714125978699873,2.071239995504105,-1.209474892888914,1.6814296305368226,0.37929274,305.727971079368,0.20668378555738443,0.2223995880068896,2.337020290852623,307.0855509653459,-1.403588401876665,1.8656436977089499,0.26497040520000004,0.2252766566886904,0.2097181578381023,0.9986643038211878,0.05166825208328993,1.7906308051815492,0.22467595382166208,,,,,,,,,,,0.13358942959497444,0.0,0.13358942959497444,0.0013730000000009568,0.011132451549582062,0.0014339999999606334,-21.44110057703798,-98.23059770601773,100.54337929290101,False,,
2022-11-16 10:04:35.977906-07:00,6.664147,2.84,2.46,-1.32,0.52,12.57,975.72,30.9,24.0,0.0,-0.000122332,-0.000200973,-0.0017072,32.8213824,-111.786992,325.42424900000003,2.41334157,-0.415733983,0.209290295,2.00383,-7.14131,3698.23,28.6122,11634.0,-0.202323,-1.0,16.0,-1294.0,89.0,,0.0,,2022-11-16 17:04:35.977906+00:00,1.1896505652552005,0.014764939072050294,2.7917707730358248,-1.4226166263031095,2.4021128166143666,0.5182928,300.635525678679,0.20942026113729345,0.22566311641523756,2.6773961874450425,307.7548310999427,-1.6283102393207933,2.1110088662294455,0.30109556987999997,0.22933227665255104,0.2136582945863444,0.8541974065632237,-0.5199488346180446,2.6498563100966397,0.1770219562169182,,,,,,,,,,,0.13358942965696852,0.0,0.13358942965696852,0.0043330000000310065,6.19940765389515e-11,0.0029600000000300497,-21.441100576975984,-98.23059770601773,100.54337929288778,False,,
2022-11-16 10:04:36.177649-07:00,6.86389,2.9,2.35,-1.69,0.19,12.42,975.72,31.24,23.0,0.0,-0.000234954,0.000373057,-0.000901193,32.8213824,-111.786992,325.427118,2.42559442,-0.412311286,0.209394202,2.00383,-7.14131,3698.23,28.6122,11634.0,-0.202323,-1.0,16.0,-1294.0,89.0,,0.0,,2022-11-16 17:04:36.177649+00:00,1.1902754473674262,0.014775163293296697,2.894165942179806,-1.78756936082066,2.276135382864723,0.189098807,308.14441943181936,0.21647485695833082,0.23210895897220646,2.7866185533402734,306.7344543164319,-1.667453707381594,2.2230516478028237,0.30085230639999994,0.23010971233050065,0.21434267017332273,0.8461650704395901,0.5329208886579354,0.9924477426201551,0.1756437007056349,,,,,,,,,,,0.13358942971705673,0.0,0.13358942971705673,0.007202000000006592,6.008821218372873e-11,0.0028689999999755855,-21.441100576915897,-98.23059770601773,100.54337929287497,False,,
2022-11-16 10:04:37.177592-07:00,7.863833,3.08,2.56,-1.7,0.19,12.47,975.72,31.02,22.0,0.0,-0.000300207,0.000597133,-0.000460034,32.8213825,-111.786992,325.42705700000005,2.4807334,-0.405071539,0.211635333,2.00588,-7.19903,3694.23,28.6126,11680.0,-0.22462,-1.0,17.0,-1294.0,89.0,,0.0,,2022-11-16 17:04:37.177592+00:00,1.1900670804030384,0.014771753640062472,3.0724498899127033,-1.8086152874928845,2.4837187980670463,0.189539966,306.06167390621096,0.21654198093898014,0.2326855259757297,3.031173492042655,305.01182606840047,-1.73862837482493,2.4825663075155227,0.1773416554,0.23136498385262136,0.21509196120774657,0.8934432149628807,0.44917615880274825,1.437081608155869,0.18971509511760448,,,,,,,,,,,0.1447218819560449,0.0,0.1447218819560449,0.007141000000046915,0.011132452238988177,-6.099999995967664e-05,-21.429968124676908,-98.23059770601773,100.5410058608236,False,,
2022-11-16 10:04:37.977965-07:00,8.664206,3.01,2.74,-1.19,0.36,12.74,975.73,30.63,22.0,0.0,8.85059e-05,0.000160977,-0.000508132,32.8213825,-111.786992,325.41994600000004,2.52572082,-0.406535656,0.2168001,2.00644,-7.85113,3682.0,28.6131,11680.0,-0.298406,-1.0,17.0,-1294.0,89.0,,0.0,,2022-11-16 17:04:37.977965+00:00,1.1889553435146316,0.014753416843629604,2.9872652484439315,-1.3094289453286705,2.6849859406887457,0.359491868,295.9978244915729,0.2069540160205214,0.22429794714022394,2.823228300836856,301.9368840733057,-1.4846470261703886,2.3925347355619215,0.3416963234,0.22710195458501797,0.21022470303641877,0.8762881905679156,-0.4817873048049402,2.811834023621744,0.18108584497266636,,,,,,,,,,,0.14472188179470144,0.0,0.14472188179470144,3.000000003794412e-05,-1.6134346636498265e-10,-0.007111000000008971,-21.42996812483825,-98.23059770601773,100.54100586085798,False,,
2022-11-16 10:04:40.177665-07:00,10.863906,2.87,2.17,-1.87,0.19,12.75,975.71,30.54,27.0,0.0,-0.00037156,-7.18113e-05,-0.00110246,32.8213826,-111.786992,325.41829800000005,2.63157948,-0.413985684,0.216932236,2.00538,-7.09891,3669.81,28.6147,11631.0,-0.274412,-1.0,15.0,-1272.0,89.0,,0.0,,2022-11-16 17:04:40.177665+00:00,1.1888893873803208,0.014752640693635691,2.8643560667272276,-1.9677322063363212,2.08148159759914,0.18889754,313.3908860366806,0.21994309853095997,0.23632272716292196,2.8284174863084375,311.01331847378384,-1.8558526390331505,2.132860755966836,0.2351535032,0.23408322140773152,0.21739968461084946,0.18975818236205788,-0.981830857238989,2.2268611677747896,0.20974095595919517,,,,,,,,,,,0.15585433469043541,0.0,0.15585433469043541,-0.0016179999999508254,0.011132452895733974,-0.0016479999999887696,-21.418835671942517,-98.23059770601773,100.538633605312,False,,
2022-11-16 10:04:41.177520-07:00,11.863761,2.61,2.03,-1.63,0.16,12.72,975.74,30.59,27.0,0.0,-0.00057354,-0.000560521,0.00162505,32.8213826,-111.786992,325.43117700000005,2.67981509,-0.414235341,0.212979129,2.00674,-7.46893,3666.12,28.6148,11659.0,-0.329746,-1.0,14.0,-1276.0,89.0,,0.0,,2022-11-16 17:04:41.177520+00:00,1.189050711197678,0.01475482518536178,2.6033620063827567,-1.7236896943163047,1.9509965591935359,0.16162505,311.460337007783,0.2145376617114265,0.2316445738595371,2.7036797474738803,310.3367668297225,-1.7482798522622083,2.06000121473988,0.2588298788,0.23215897916911743,0.21499730033116723,0.6989431526454729,-0.7151772293424946,2.6901536843399874,0.15797314332754414,,,,,,,,,,,0.15585433500512874,0.0,0.15585433500512874,0.011261000000047261,3.1469332695266417e-10,0.012878999999998086,-21.418835671627825,-98.23059770601773,100.53863360524497,False,,
2022-11-16 10:04:41.977690-07:00,12.663931,2.92,2.14,-1.97,0.23,12.57,975.72,30.89,27.0,0.0,-0.000460307,-0.000539941,0.000364217,32.8213826,-111.786992,325.42611100000005,2.72536136,-0.40955171,0.202834604,2.00577,-7.55165,3666.85,28.6162,11702.0,-0.282555,-1.0,17.0,-1267.0,89.0,,0.0,,2022-11-16 17:04:41.977690+00:00,1.1896505652552005,0.014764939072050294,2.908754664116959,-2.07006571611931,2.04344846447607,0.230364217,315.37073772701393,0.222090697828457,0.2387612350668583,2.9827386325103515,316.10885006495045,-2.1487965652108527,2.061922205399275,0.21866788359999995,0.24062567680723718,0.22416399797054493,0.7609946154298027,-0.6487581947743293,2.963161076327464,0.16828475084021594,,,,,,,,,,,0.155854334881343,0.0,0.155854334881343,0.006195000000047912,-1.2378573166493823e-10,-0.005065999999999349,-21.41883567175161,-98.23059770601773,100.53863360527134,False,,
2022-11-16 10:04:43.977755-07:00,14.663996,2.88,2.13,-1.92,0.23,12.29,975.72,31.52,23.0,0.0,-0.000455038,0.000265541,-0.000161088,32.8213827,-111.786992,325.421259,2.81714401,-0.413922016,0.21691472,2.00789,-7.32336,3682.12,28.6185,11636.0,-0.273707,-1.0,17.0,-1246.0,89.0,,0.0,,2022-11-16 17:04:43.977755+00:00,1.1908175431078891,0.014784035793030644,2.867119808402356,-2.0221006740636267,2.0326054363020356,0.229838912,314.8515608337414,0.2206664318240115,0.23801691403958217,2.8785693361421316,315.5169230923789,-2.053531482237644,2.0170254979440436,0.23713149900000002,0.23869422857793862,0.2214426831482635,0.5040157045817836,0.8636944885403219,-0.757011295747001,0.17596643348026078,,,,,,,,,,,0.16698678699293265,0.0,0.16698678699293265,0.001343000000019856,0.011132452111589641,-0.004852000000028056,-21.40770321964002,-98.23059770601773,100.53626252662112,False,,
2022-11-16 10:04:44.177484-07:00,14.863725,2.89,2.09,-1.98,0.28,12.28,975.71,31.54,22.0,0.0,-0.000534243,-0.000129603,-0.00107629,32.8213827,-111.786992,325.42003800000003,2.82737315,-0.409740523,0.207708535,2.00789,-7.32336,3682.12,28.6185,11636.0,-0.273707,-1.0,17.0,-1246.0,89.0,,0.0,,2022-11-16 17:04:44.177484+00:00,1.1908470583051318,0.01478467047014437,2.8786999785712135,-2.080812635836032,1.9892542173314622,0.27892371000000005,316.2886830902686,0.22209317376615895,0.23929993027312074,2.852409098564742,315.2447723270618,-2.025384061342412,2.0081995648789253,0.23924623600000006,0.23812331918931218,0.2207473039081386,0.23575386855689115,-0.9718127975389397,2.4417349669984207,0.20889786738390054,,,,,,,,,,,0.16698678696096694,0.0,0.16698678696096694,0.00012200000003304012,-3.19657078584612e-11,-0.001220999999986816,-21.407703219671987,-98.23059770601773,100.53626252662792,False,,
2022-11-16 10:04:44.977949-07:00,15.66419,2.72,2.12,-1.69,0.2,12.74,975.72,30.63,22.0,0.0,-0.000287681,-0.000296669,-0.000864629,32.8213826,-111.786992,325.423334,2.86353819,-0.403920495,0.215802818,2.00716,-7.09177,3670.5,28.6184,11648.0,-0.259174,-1.0,17.0,-1269.0,89.0,,0.0,,2022-11-16 17:04:44.977949+00:00,1.1889431582241976,0.014753368785223969,2.711161159425214,-1.7940960689312562,2.0326372346833765,0.199135371,311.4330567101081,0.21531645641075564,0.2335292051942896,2.783174097160526,311.6568780151182,-1.850025863730086,2.0760187909997914,0.23311793600000003,0.23469694965344715,0.21658933626634186,0.7178980113773955,-0.6961482925788017,2.7782621079031773,0.1601504888175038,,,,,,,,,,,0.1558543348134881,0.0,0.1558543348134881,0.0034180000000105792,-0.01113245214747885,0.003295999999977539,-21.418835671819465,-98.23059770601773,100.5386336052858,False,,
2022-11-16 10:04:46.177864-07:00,16.864105,2.26,1.41,-1.75,0.15,12.92,975.74,30.24,26.0,0.0,0.0003564,0.000381946,0.000131399,32.8213827,-111.786992,325.421899,2.92053309,-0.399451991,0.208686393,2.00571,-7.15988,3663.28,28.6196,11702.0,-0.243229,-1.0,20.0,-1266.0,89.0,,0.0,,2022-11-16 17:04:46.177864+00:00,1.1882194106689978,0.014741233680939592,2.247253992362636,-1.8191857831456058,1.3193610546740855,0.150131399,324.04857122793373,0.21648244234618985,0.23419615813033418,2.416114160339059,320.8505002512924,-1.8695935447689986,1.516738458220285,0.22642196794,0.23534575852429093,0.21758178344483775,0.7311344517257355,-0.6822334010437396,2.3844389036794005,0.1615026009504971,,,,,,,,,,,0.1669867870096878,0.0,0.1669867870096878,0.001982999999995627,0.01113245219619971,-0.001435000000014952,-21.407703219623265,-98.23059770601773,100.53626252661755,False,,
2022-11-16 10:04:46.978260-07:00,17.664501,2.56,1.68,-1.92,0.23,12.82,975.73,30.44,25.0,0.0,-0.000353037,0.000471415,0.00114093,32.8213827,-111.786992,325.42379200000005,2.95380897,-0.411260093,0.202603657,2.00584,-7.03243,3675.47,28.6202,11698.0,-0.316198,-1.0,19.0,-1266.0,89.0,,0.0,,2022-11-16 17:04:46.978260+00:00,1.188622733704228,0.01474797826562629,2.550646217315767,-2.003549520693014,1.5784756710313987,0.23114093000000002,321.7675598739043,0.22033511584304746,0.2380278163684603,2.5373700532440417,316.9409784766989,-1.847504995738292,1.7306118256461644,0.2332552342,0.23488588607868702,0.21658080733667825,0.8004270628730017,0.5994301602526351,0.2777783249122945,0.16941843917151778,,,,,,,,,,,0.16698678705924644,0.0,0.16698678705924644,0.003876000000047952,4.955863497357882e-11,0.001893000000052325,-21.407703219573705,-98.23059770601773,100.536262526607,False,,
2022-11-16 10:04:47.177526-07:00,17.863767,2.5,1.82,-1.71,0.19,12.65,975.74,30.85,28.0,0.0,-0.000754585,0.000423843,0.00126217,32.8213827,-111.786992,325.428156,2.96136927,-0.409207301,0.215452862,2.00584,-7.03243,3675.47,28.6202,11698.0,-0.316198,-1.0,19.0,-1266.0,89.0,,0.0,,2022-11-16 17:04:47.177526+00:00,1.189341941252905,0.014759588160197939,2.496470256281557,-1.801318609122163,1.7284718710261668,0.19126217,316.18228497044606,0.2154926526016962,0.23397260782455886,2.551726000069036,315.75886540780186,-1.8220686422021621,1.7777721442518548,0.2445727922,0.23442200958715514,0.21594680945706995,0.48972480360093307,0.8718770651519786,-0.7180007460777224,0.17351691117861295,,,,,,,,,,,0.16698678717349566,0.0,0.16698678717349566,0.008240000000000691,1.142492211947399e-10,0.004363999999952739,-21.407703219459457,-98.23059770601773,100.53626252658268,False,,
2022-11-16 10:04:47.978239-07:00,18.66448,2.6,2.08,-1.51,0.41,12.83,975.72,30.51,27.0,0.0,-0.000547731,-0.000363495,-0.00124884,32.8213827,-111.786992,325.41546,2.99815611,-0.407585662,0.207525813,2.00395,-7.93177,3709.64,28.6216,11643.0,-0.154695,-1.0,14.0,-1253.0,89.0,,0.0,,2022-11-16 17:04:47.978239+00:00,1.1885689891066364,0.014747250708648246,2.5701141708558546,-1.6170885771576673,1.997626437765647,0.40875116,308.990342769869,0.21122770988064293,0.23067960041539398,2.610463116908462,310.4162844557907,-1.6922457327950493,1.9856742456229164,0.321111099,0.23208381479435242,0.21281247029994782,0.5529518064461172,-0.8332132378616988,2.5079837074105287,0.16390149447526278,,,,,,,,,,,0.16698678684111518,0.0,0.16698678684111518,-0.0044560000000046784,-3.3238048424699684e-10,-0.01269600000000537,-21.407703219791838,-98.23059770601773,100.53626252665345,False,,
2022-11-16 10:04:48.177670-07:00,18.863911,2.69,2.11,-1.64,0.31,12.9,975.73,30.31,27.0,0.0,-0.000401224,-8.02326e-05,0.000234287,32.8213827,-111.786992,325.42165500000004,3.00993676,-0.40889072,0.218753174,2.00395,-7.93177,3709.64,28.6216,11643.0,-0.154695,-1.0,14.0,-1253.0,89.0,,0.0,,2022-11-16 17:04:48.177670+00:00,1.1882903099367177,0.014742543712976196,2.6721450221264846,-1.7486120594490548,2.0205729100491983,0.310234287,310.8730462863744,0.21385563409847144,0.2331058675407703,2.607402247858972,311.288168188309,-1.7171311038499877,1.9561169509396952,0.30542455,0.23258632992894057,0.21335779342666736,0.19608746520191458,-0.98058640924229,2.0673654378707718,0.2053489515019149,,,,,,,,,,,0.1669867870032999,0.0,0.1669867870032999,0.0017390000000432337,1.6218473786189236e-10,0.006195000000047912,-21.407703219629653,-98.23059770601773,100.53626252661891,False,,
2022-11-16 10:04:48.977946-07:00,19.664187,2.72,1.78,-2.03,0.35,12.81,975.73,30.48,28.0,0.0,-0.000347247,2.69085e-06,0.0007044,32.8213827,-111.786992,325.42363900000004,3.04343952,-0.409396137,0.209871478,2.00774,-7.09485,3725.04,28.6221,11679.0,-0.150187,-1.0,17.0,-1273.0,89.0,,0.0,,2022-11-16 17:04:48.977946+00:00,1.1886642997531056,0.014748657867651048,2.699653514548303,-2.1216397886088396,1.6693632636442086,0.35070439999999997,321.803379383338,0.22282999944626591,0.2408212438218231,2.576345639793258,318.7192015392343,-1.936828112848114,1.6952975366437766,0.264581948,0.2369882075839786,0.21841256746429014,0.007748862374392319,0.9999699771152646,-1.9236333363858307,0.21839945337406494,,,,,,,,,,,0.16698678705524092,0.0,0.16698678705524092,0.003723000000036336,5.194100705097071e-11,0.0019839999999931024,-21.407703219577712,-98.23059770601773,100.53626252660786,False,,
2022-11-16 10:04:49.177616-07:00,19.863857,2.57,1.76,-1.85,0.32,12.66,975.73,30.8,25.0,0.0,-9.85822e-05,-0.000246868,0.00138115,32.8213827,-111.786992,325.423853,3.05586757,-0.410112841,0.210818653,2.00774,-7.09485,3725.04,28.6221,11679.0,-0.150187,-1.0,17.0,-1273.0,89.0,,0.0,,2022-11-16 17:04:49.177616+00:00,1.1892881395241526,0.014758859451336185,2.55357228940566,-1.9414412365897813,1.6587758625230844,0.32138115,319.48927847805203,0.21842276766088192,0.23702172472522923,2.572393446651707,318.5028688426338,-1.9274639266772389,1.69954542938044,0.2905858482,0.2368325687100672,0.21816303538902101,0.9286905753342194,-0.3708555180732741,2.2931624557133983,0.20645209802400188,,,,,,,,,,,0.16698678706084338,0.0,0.16698678706084338,0.003937000000007629,5.602462938014696e-12,0.0002139999999712927,-21.40770321957211,-98.23059770601773,100.53626252660666,False,,
2022-11-16 10:04:51.177698-07:00,21.863939,2.61,1.98,-1.69,0.24,12.49,975.73,31.1,23.0,0.0,-0.000127248,0.00061511,0.000311412,32.8213827,-111.786991,325.420404,3.14038326,-0.406325038,0.210048558,2.00703,-7.36677,3728.68,28.6238,11694.0,-0.0872565,-1.0,16.0,-1267.0,89.0,,0.0,,2022-11-16 17:04:51.177698+00:00,1.1899959499978927,0.014770438392482047,2.602654687049797,-1.7953165540074263,1.8843168233949341,0.240311412,313.6144419224179,0.21458185423936002,0.23439166396913874,2.6434646741339884,314.63683391599113,-1.857648708148694,1.8789471005292444,0.30029169804,0.23564224504401712,0.21601254816369303,0.9792655165557425,0.2025809667387708,1.4636638318228938,0.22614553229932513,,,,,,,,,,,0.1669867869705488,0.09355316436963813,0.191407370773228,0.00048800000001847366,0.02442058371238462,-0.003448999999989155,-21.4077032196624,-98.1370445416481,100.44485685444808,False,,
2022-11-16 10:04:52.177545-07:00,22.863786,2.63,1.95,-1.73,0.33,12.56,975.73,31.04,23.0,0.0,-0.000138898,-2.1445e-05,0.00139103,32.8213825,-111.786992,325.42458500000004,3.17827663,-0.400866641,0.218932148,2.00348,-7.04215,3713.61,28.6238,11645.0,-0.103941,-1.0,15.0,-1254.0,89.0,,0.0,,2022-11-16 17:04:52.177545+00:00,1.1897043966168424,0.014765668384376453,2.606715273769153,-1.8354742055850954,1.8509454230563238,0.33139103000000003,314.75954168270414,0.2153648911521953,0.23526757231342627,2.579049136596378,315.2642149844081,-1.8317726085038388,1.8152584487311951,0.3132585052,0.23519497718349122,0.21532003577653258,0.15258595103749648,-0.9882902041131354,2.0873058619256093,0.21037813126445112,,,,,,,,,,,0.144721881899957,0.0,0.144721881899957,0.004669000000035339,-0.04668548887327101,0.004181000000016866,-21.429968124732994,-98.23059770601773,100.54100586083554,False,,
2022-11-16 10:04:52.978196-07:00,23.664437,2.54,1.95,-1.61,0.29,12.64,975.73,30.87,23.0,0.0,-0.00046434,-0.000218404,0.000806148,32.8213825,-111.786992,325.423608,3.21552945,-0.409368459,0.218454952,2.00528,-7.46233,3696.73,28.6251,11642.0,-0.0906844,-1.0,16.0,-1265.0,89.0,,0.0,,2022-11-16 17:04:52.978196+00:00,1.189371367638469,0.014760220733414315,2.5285620394854518,-1.7170632509066737,1.8561572616329232,0.290806148,312.7707846418437,0.21266354332733323,0.23312913862101828,2.4645023403745525,313.8221917538177,-1.7048014207750104,1.7788890816505223,0.28310914519999997,0.23292053138824578,0.2125156420430086,0.4256232164086181,-0.9049004794196888,2.2998121155409414,0.1790598588007418,,,,,,,,,,,0.1447218818777896,0.0,0.1447218818777896,0.0036920000000009168,-2.2167406799056266e-11,-0.0009770000000344226,-21.429968124755163,-98.23059770601773,100.54100586084027,False,,
2022-11-16 10:04:53.978038-07:00,24.664279,2.09,1.29,-1.63,0.2,12.87,975.73,30.42,24.0,0.0,-0.000280386,0.000452029,-0.000157998,32.8213824,-111.786992,325.42174700000004,3.25749435,-0.403769805,0.217631655,2.00545,-6.95173,3685.82,28.6253,11703.0,-0.0444241,-1.0,20.0,-1285.0,89.0,,0.0,,2022-11-16 17:04:53.978038+00:00,1.1884149470575416,0.014744581198774772,2.078170467703614,-1.7002164502066015,1.1950131862378433,0.19984200200000002,324.89817175396036,0.21297271013101363,0.23295752490107902,2.018200728767457,326.57575531668573,-1.6838764733987095,1.1118888792860564,0.2418243388,0.2326757704383125,0.21273929608259629,0.8497948895746039,0.5271135035766839,0.05728345990857997,0.17812081943137198,,,,,,,,,,,0.13358942960456677,0.0,0.13358942960456677,0.0018310000000383297,-0.01113245227322282,-0.001860999999962587,-21.441100577028386,-98.23059770601773,100.54337929289896,False,,
2022-11-16 10:04:54.977878-07:00,25.664119,2.48,1.47,-1.97,0.29,12.81,975.72,30.48,24.0,0.0,0.000280442,2.53276e-05,-0.00143403,32.8213825,-111.786991,325.421625,3.29923127,-0.401888237,0.21860503,2.00651,-7.17884,3687.53,28.6266,11648.0,0.0270795,-1.0,14.0,-1260.0,89.0,,0.0,,2022-11-16 17:04:54.977878+00:00,1.1886521174455025,0.014748609840793018,2.4581407021167396,-2.0513090019695412,1.35446930191928,0.28856597,326.5634123959905,0.2207277068332688,0.24003406239742378,2.336524307628843,322.6490558665368,-1.852747554245735,1.417890555539385,0.3008473404,0.23607590383629162,0.21603802982590192,0.0899470684449702,-0.9959465471992741,1.9727726283295175,0.21429869110612232,,,,,,,,,,,0.14472188183279674,0.09355316459817417,0.17232706603304965,0.0017090000000052896,0.03873763642848288,-0.00012200000003304012,-21.429968124800155,-98.13704454141956,100.44960450471926,False,,
2022-11-16 10:04:55.177527-07:00,25.863768,2.5,1.59,-1.9,0.33,12.74,975.74,30.69,28.0,0.0,-0.000158429,-0.000554874,-0.00140035,32.8213824,-111.786991,325.419733,3.30698404,-0.404789524,0.220820109,2.00651,-7.17884,3687.53,28.6266,11648.0,0.0270795,-1.0,14.0,-1260.0,89.0,,0.0,,2022-11-16 17:04:55.177527+00:00,1.1889675288050656,0.014753464902371229,2.4778698296590864,-1.9891112727257938,1.4775910250979203,0.32859965,323.3935654185261,0.21899159926847692,0.23873220183682317,2.4447368206328717,320.67417388879784,-1.886401935198835,1.5458769447356906,0.3089931332,0.23671013495912901,0.21656398952291428,0.9615726514943336,-0.27455060717135,2.0043857893115073,0.21947531258005193,,,,,,,,,,,0.13358942956238565,0.0935531646757377,0.16308994546460948,-0.00018299999999271677,-0.009237120568440171,-0.0018919999999980064,-21.441100577070568,-98.137044541342,100.45198009628977,False,,
2022-11-16 10:04:56.177907-07:00,26.864148,2.13,1.43,-1.57,0.22,13.0,975.73,30.21,27.0,0.0,-0.000127465,0.000366867,-0.000600393,32.8213823,-111.786991,325.421899,3.34168513,-0.397155697,0.222650413,2.00759,-7.49492,3699.63,28.6267,11648.0,0.0117376,-1.0,14.0,-1260.0,89.0,,0.0,,2022-11-16 17:04:56.177907+00:00,1.1878750416124342,0.014735756176199303,2.123263616868843,-1.6503188158875706,1.3359252197059566,0.219399607,321.0099949770584,0.21148080067423583,0.23230843050815547,2.1873937684523037,321.51808108861894,-1.7118843536123294,1.3607209287802573,0.2435655542,0.23344087793973367,0.21275679100750683,0.9446093203823391,0.32819694064207144,0.7235144641765475,0.2095530619733389,,,,,,,,,,,0.12245697808463436,0.09355316481282042,0.1541035565070299,0.001982999999995627,-0.008986388957579583,0.002165999999988344,-21.452233028548317,-98.13704454120492,100.45435686516328,False,,
2022-11-16 10:04:57.177569-07:00,27.86381,2.25,1.69,-1.48,0.17,13.12,975.73,30.04,25.0,0.0,0.000132493,-3.32177e-05,-0.00111663,32.8213823,-111.786991,325.41616200000004,3.37955013,-0.393583608,0.217930451,2.0066,-7.01944,3713.21,28.6278,11647.0,0.0265409,-1.0,15.0,-1275.0,89.0,,0.0,,2022-11-16 17:04:57.177569+00:00,1.1873771025863626,0.014727619413472842,2.2465593068657936,-1.5770850328133939,1.599947348677853,0.16888337,314.58769963872106,0.20955355764183523,0.23113964621093708,2.218960545752047,316.65836748603004,-1.6106239290354665,1.522077343960253,0.2011759998,0.2317366082408113,0.21033223391161598,0.24318636318087838,0.9699795836835217,-1.1921238743988347,0.19836725403688812,,,,,,,,,,,0.12245697797449187,0.0935531647286751,0.15410355636842327,-0.0037539999999580687,-1.3860662617659614e-10,-0.005736999999953696,-21.452233028658462,-98.13704454128906,100.454356865269,False,,
2022-11-16 10:04:57.978222-07:00,28.664463,2.42,1.65,-1.75,0.25,13.11,975.74,30.06,28.0,0.0,0.000523771,0.000461881,-0.000203966,32.8213822,-111.786991,325.42827800000003,3.41220681,-0.394875789,0.223117738,2.00928,-6.94874,3731.86,28.6292,11700.0,0.119517,-1.0,18.0,-1271.0,89.0,,0.0,,2022-11-16 17:04:57.978222+00:00,1.1874307511006785,0.01472834502459704,2.4051844670562907,-1.8446420929959204,1.5434402707317452,0.249796034,320.0802613025631,0.21520440826321727,0.23614424408750911,2.512647231288818,319.0556954923565,-1.9025205909913594,1.6360364044763223,0.27997190994000004,0.237584992724037,0.21674172986013374,0.661404316104936,-0.7500295531762478,2.509028207995301,0.16021298425770986,,,,,,,,,,,0.11132452525655807,0.09355316501169575,0.1454143892718448,0.008362000000033731,-0.008689167096578465,0.0121159999999918,-21.463365481376393,-98.13704454100603,100.45673481171156,False,,
2022-11-16 10:04:59.977452-07:00,30.663693,2.35,1.65,-1.64,0.29,12.57,975.73,31.14,23.0,0.0,0.000206311,0.000404773,-0.000600785,32.8213821,-111.786991,325.42965100000004,3.49561718,-0.405874494,0.225569368,2.00566,-7.65991,3754.91,28.6296,11629.0,0.109944,-1.0,15.0,-1268.0,89.0,,0.0,,2022-11-16 17:04:59.977452+00:00,1.1896627577957373,0.014764987207184867,2.3262269616645614,-1.7371480594370017,1.5471420415622466,0.289399215,318.311041736221,0.21254112237625142,0.23434253633548716,2.4300050413601495,318.6326974546579,-1.8234253271963303,1.6059026565357961,0.28961228058,0.23599835966962202,0.21438286739163184,0.890945209912799,-0.4541108156974886,2.2588084421233923,0.19247748294381758,,,,,,,,,,,0.1001920723275808,0.09355316513714744,0.13707897747092207,0.009735000000034688,-0.008335411800922732,0.0013730000000009568,-21.474497934305372,-98.13704454088058,100.45911393571647,False,,
2022-11-16 10:05:00.978279-07:00,31.66452,2.63,1.92,-1.79,0.2,12.71,975.73,30.81,22.0,0.0,-0.000146458,-7.48911e-05,0.000594087,32.8213821,-111.786991,325.42757600000004,3.53870442,-0.405018605,0.226597879,2.0042,-7.79882,3714.3,28.6303,11661.0,0.150082,-1.0,19.0,-1274.0,89.0,,0.0,,2022-11-16 17:05:00.978279+00:00,1.1890801201895966,0.014755457349054884,2.624929791900556,-1.9051697014217617,1.8057089525146657,0.200594087,316.5353013844052,0.21579802244189147,0.23770122761397727,2.4890546407819136,320.1820316030559,-1.906437687605966,1.5951770879436187,0.25860725002,0.23778270937879395,0.2161925486097891,0.45527873580597683,-0.8903489612072963,2.423645022752042,0.1783269195966465,,,,,,,,,,,0.10019207229498679,0.09355316510671316,0.13707897742632819,0.007660000000043965,-4.459388414090881e-11,-0.002074999999990723,-21.474497934337965,-98.13704454091102,100.45911393575318,False,,
2022-11-16 10:05:01.177859-07:00,31.8641,2.16,1.43,-1.61,0.2,12.83,975.72,30.57,23.0,0.0,-0.000241401,-0.00106641,0.00125617,32.8213821,-111.786991,325.43093300000004,3.54804314,-0.403578908,0.225357337,2.0042,-7.79882,3714.3,28.6303,11661.0,0.150082,-1.0,19.0,-1274.0,89.0,,0.0,,2022-11-16 17:05:01.177859+00:00,1.1885689891066364,0.014747250708648246,2.1540604033204853,-1.6964766697286926,1.3273820588735767,0.20125617,321.9591437932886,0.21175323255190565,0.23372502559515448,2.5481630553434726,320.57155709603074,-1.9640807589713098,1.6175127173575237,0.27484943902,0.2390566672464593,0.21759131334154652,0.9753232100794353,-0.22078187398503893,2.0112311264610936,0.2276511508941825,,,,,,,,,,,0.10019207234771842,0.09355316515595069,0.1370789774984736,0.011017000000038024,7.214540076461162e-11,0.003356999999994059,-21.474497934285235,-98.13704454086178,100.45911393569381,False,,
2022-11-16 10:05:01.978078-07:00,32.664319,2.87,1.85,-2.18,0.22,12.43,975.73,31.47,22.0,0.0,-0.000228123,0.000454533,0.00114127,32.8213819,-111.786991,325.426416,3.57384535,-0.395810342,0.220465737,2.00706,-7.45079,3693.7,28.6318,11686.0,0.13625,-1.0,16.0,-1266.0,89.0,,0.0,,2022-11-16 17:05:01.978078+00:00,1.1902459666552212,0.014774529434655174,2.8586775091389693,-2.2906256121184403,1.7102840133626942,0.22114127,323.25332845934355,0.22557088826057622,0.24617009773238668,2.86980730496901,320.9129576094323,-2.2248946301477863,1.8088189484588835,0.3225649606,0.24466510625981983,0.223655719974125,0.8937525186325485,0.4485604033326795,0.6186368582636012,0.20055092626917037,,,,,,,,,,,0.07792716709032406,0.09355316530032678,0.12175729180806197,0.006500000000016826,-0.015321685690411618,-0.0045170000000211985,-21.49676283954263,-98.13704454071741,100.46387571543463,False,,
2022-11-16 10:05:03.177722-07:00,33.863963,2.79,2.05,-1.87,0.22,12.59,975.71,31.1,27.0,0.0,-0.00031891,0.000832413,0.000794925,32.821382,-111.786991,325.424951,3.6175234,-0.409464751,0.227663931,2.00657,-7.55799,3665.98,28.632,11628.0,0.167395,-1.0,15.0,-1275.0,89.0,,0.0,,2022-11-16 17:05:03.177722+00:00,1.1895551055226212,0.014763528790257495,2.773959041542334,-1.9947878664692213,1.9276073593814786,0.220794925,315.9812328907696,0.21749861335958026,0.2397787594909394,2.8858456956957577,314.50759333624717,-2.0156775238685514,2.0604935987666884,0.26865937879999996,0.24021073330396278,0.21778944765116975,0.933814207316931,0.35775833493162923,1.2029927619156033,0.21131254217350182,,,,,,,,,,,0.08905962001716328,0.0935531651735257,0.12916582609802987,0.005035000000020773,0.007408534289967905,-0.0014649999999960528,-21.48563038661579,-98.1370445408442,100.46149423695582,False,,
2022-11-16 10:05:04.977907-07:00,35.664148,2.9,2.33,-1.7,0.27,12.77,975.72,30.82,27.0,0.0,-0.000282231,0.000558484,-0.000287251,32.8213819,-111.786992,325.42196,3.68311962,-0.410404127,0.218827733,2.00455,-7.83779,3630.94,28.6335,11705.0,0.142551,-1.0,18.0,-1275.0,89.0,,0.0,,2022-11-16 17:05:04.977907+00:00,1.188818409012017,0.014751328859999385,2.8836760302610385,-1.8456055566344396,2.2157002452547916,0.26971274900000003,309.7931873560804,0.21336090651561368,0.23695833807192385,2.796451926172733,308.68141287066027,-1.747264155162684,2.1818740698495196,0.2139990306,0.2351260672965238,0.21129647464476392,0.8925083499674349,0.45103086949609866,1.1592707547757348,0.19216370664389193,,,,,,,,,,,0.07792716703588373,0.0,0.07792716703588373,0.002044000000012147,-0.05123865906214614,-0.0029910000000086256,-21.496762839597068,-98.23059770601773,100.55526410021197,False,,
2022-11-16 10:05:05.977713-07:00,36.663954,2.62,2.19,-1.42,0.27,12.84,975.72,30.6,26.0,0.0,-4.8952e-05,0.000644671,0.00184673,32.821382,-111.786992,325.42397500000004,3.71742845,-0.41471217,0.215122196,2.01021,-7.96221,3631.16,28.6345,11705.0,0.0127649,-1.0,18.0,-1275.0,89.0,,0.0,,2022-11-16 17:05:05.977713+00:00,1.1885274292972339,0.014746571236910744,2.6096523495188,-1.5583580898254876,2.0932762477094253,0.27184673000000004,306.66616762945915,0.20740623130808203,0.2318451615970306,2.4594606555411023,306.56782864283724,-1.466777197738851,1.9709463726825684,0.311320276,0.23046266141007177,0.20597069314137317,0.9971294739129061,0.07571533698116396,1.8542311899004356,0.22914450459457197,,,,,,,,,,,0.08905962000353575,0.0,0.08905962000353575,0.004059000000040669,0.011132452967652015,0.0020150000000285218,-21.485630386629417,-98.23059770601773,100.55288478602864,False,,
2022-11-16 10:05:06.977778-07:00,37.664019,2.39,1.91,-1.37,0.44,13.0,975.73,30.32,25.0,0.0,-0.000215944,0.000402452,0.000785878,32.821382,-111.786992,325.42150300000003,3.75338116,-0.416282147,0.221924353,2.00629,-7.35928,3636.78,28.635,11667.0,0.0188661,-1.0,16.0,-1269.0,89.0,,0.0,,2022-11-16 17:05:06.977778+00:00,1.1878750416124342,0.014735756176199303,2.3501095320327208,-1.4916914317316028,1.8160042634998343,0.440785878,309.4001641374091,0.20634808535891552,0.23084971008935562,2.357224354342099,308.2387495892463,-1.4515836097309074,1.8444548699528276,0.39017251280000004,0.23033966196305475,0.2057529224187554,0.881165607739492,0.47280775346549847,0.9389502109458399,0.18466767294469397,,,,,,,,,,,0.08905961996902012,0.0,0.08905961996902012,0.001587000000029093,-3.451562646805684e-11,-0.002472000000011576,-21.48563038666393,-98.23059770601773,100.55288478603602,False,,
2022-11-16 10:05:07.177502-07:00,37.863743,2.4,1.95,-1.33,0.38,12.94,975.72,30.47,23.0,0.0,-0.000618537,-0.000233575,-0.000699397,32.821382,-111.786992,325.42122800000004,3.76387532,-0.418089872,0.22589159,2.00629,-7.35928,3636.78,28.635,11667.0,0.0188661,-1.0,16.0,-1269.0,89.0,,0.0,,2022-11-16 17:05:07.177502+00:00,1.1881119909983429,0.014739779976459168,2.360038372553873,-1.4553721572578346,1.8578678650015477,0.379300603,308.073590874969,0.20557562598994034,0.23029074160125046,2.3964597191531913,309.83963041906225,-1.527194596519574,1.829299309664559,0.3259697446,0.2316499684052536,0.2072460217967739,0.3532754435402062,-0.9355193536167333,2.0749666267724995,0.18367060817327066,,,,,,,,,,,0.08905961996518039,0.0,0.08905961996518039,0.0013120000000412801,-3.8397340862417195e-12,-0.00027499999998781277,-21.485630386667772,-98.23059770601773,100.55288478603683,False,,
2022-11-16 10:05:08.977966-07:00,39.664207,2.19,1.81,-1.24,0.1,13.16,975.72,30.07,22.0,0.0,0.000236707,-6.84137e-05,-7.56555e-05,32.8213819,-111.786992,325.422144,3.81975872,-0.403129951,0.228580704,2.00525,-7.18766,3648.42,28.6361,11686.0,0.0252136,-1.0,17.0,-1303.0,89.0,,0.0,,2022-11-16 17:05:08.977966+00:00,1.1871990482509023,0.014724861294971693,2.1942428573609036,-1.357892388102872,1.723609578591284,0.09992434450000001,308.23171181180436,0.20380731345545508,0.22896902681824852,2.382578395530447,308.2792469914048,-1.4757278526329791,1.8677876196246825,0.11595115409999998,0.2308651975959867,0.2058358878766536,0.2776583124439362,0.9606798954546647,-0.8990953207183213,0.1907991050613392,,,,,,,,,,,0.07792716703813173,0.0,0.07792716703813173,0.0022280000000023392,-0.011132452927048661,0.0009159999999610591,-21.49676283959482,-98.23059770601773,100.55526410021149,False,,
2022-11-16 10:05:10.178220-07:00,40.864461,2.96,2.32,-1.82,0.25,12.43,975.72,31.56,28.0,0.0,-0.000159325,-6.43831e-05,0.000401016,32.821382,-111.786992,325.419977,3.8590948,-0.405315848,0.227196353,2.00619,-7.18575,3670.17,28.6375,11678.0,0.0414168,-1.0,16.0,-1266.0,89.0,,0.0,,2022-11-16 17:05:10.178220+00:00,1.1902337681375303,0.014774481236211296,2.9486192359644012,-1.9720806349850297,2.192088813852288,0.250401016,311.97566804977157,0.21568753653321193,0.2399878155763389,2.800877710804653,309.9992347739537,-1.8025518332058041,2.141270640653653,0.2690071636,0.2367424768356146,0.21199959349861194,0.3746647316595342,-0.9271603630712916,2.4735132021208552,0.1852456986963799,,,,,,,,,,,0.08905961994771314,0.0,0.08905961994771314,6.100000001652006e-05,0.011132452909581411,-0.002166999999985819,-21.48563038668524,-98.23059770601773,100.55288478604056,False,,
2022-11-16 10:05:10.977738-07:00,41.663979,2.41,2.1,-1.14,0.27,13.4,975.72,29.58,27.0,0.0,-0.00015124,-0.000377611,0.000966671,32.821382,-111.786992,325.424188,3.89003661,-0.408604231,0.226450469,2.00598,-6.84743,3670.88,28.6382,11623.0,0.0263609,-1.0,20.0,-1261.0,89.0,,0.0,,2022-11-16 17:05:10.977738+00:00,1.1862047094912438,0.014708620926129477,2.389551501630392,-1.2802189315389467,2.017670901379444,0.270966671,302.3952635130086,0.2019256808723005,0.22805662515808173,2.431221844321798,301.27168908277076,-1.2760355759658717,2.04992010427856,0.34721809979999996,0.22865812337934152,0.20265711357315555,0.928310784952627,-0.37180517282662645,2.377399568947916,0.19903017766798345,,,,,,,,,,,0.0890596200065098,0.0,0.0890596200065098,0.004272000000014486,5.879666198360667e-11,0.004210999999997966,-21.485630386626443,-98.23059770601773,100.552884786028,False,,
2022-11-16 10:05:11.978117-07:00,42.664358,2.14,1.99,-0.65,0.45,13.95,975.73,28.57,28.0,0.0,-0.000244443,-0.000232859,-0.000611092,32.821382,-111.786992,325.420923,3.91820882,-0.41072551,0.235609427,2.00747,-7.37656,3682.98,28.6385,11641.0,0.0147526,-1.0,17.0,-1253.0,89.0,,0.0,,2022-11-16 17:05:11.978117+00:00,1.1839444206109302,0.01467158631921581,2.0933266723875628,-0.7846949441377491,1.9406881258908761,0.44938890800000003,292.01538000381066,0.19556700594735557,0.22246856583760005,2.295689126250834,302.2630045414526,-1.2321217834207092,1.918023508610058,0.34380655239999997,0.22797901235003565,0.20181586657322387,0.6897423703238751,-0.7240548753927443,2.2150658655289845,0.15151835328869073,,,,,,,,,,,0.0890596199609218,0.0,0.0890596199609218,0.0010070000000155233,-4.5588005592733793e-11,-0.003264999999998963,-21.48563038667203,-98.23059770601773,100.55288478603775,False,,
2022-11-16 10:05:12.177957-07:00,42.864198,2.32,2.02,-1.07,0.41,13.53,975.73,29.32,25.0,0.0,-0.000349518,-7.43879e-05,0.000179815,32.821382,-111.786992,325.42312000000004,3.92245395,-0.410067196,0.23225116,2.00747,-7.37656,3682.98,28.6385,11641.0,0.0147526,-1.0,17.0,-1253.0,89.0,,0.0,,2022-11-16 17:05:12.177957+00:00,1.1856789561790082,0.01469988677959071,2.2856338122133093,-1.205748635565083,1.9417240152415292,0.410179815,301.8389611547987,0.20073176540158316,0.22714270572430573,2.3722824447732753,305.0253227942277,-1.3704595864727351,1.9124119996224203,0.28770668609999994,0.23011196825179175,0.20423511017794388,0.20816752814023734,-0.9780931858611344,1.738539261774178,0.1956391317917813,,,,,,,,,,,0.0890596199915977,0.0,0.0890596199915977,0.0032040000000392865,3.0675906259602925e-11,0.0021970000000237633,-21.485630386641354,-98.23059770601773,100.55288478603119,False,,
2022-11-16 10:05:13.177433-07:00,43.863674,2.67,2.17,-1.51,0.4,13.31,975.73,29.75,22.0,0.0,-0.000770952,-0.000985784,-0.000223086,32.821382,-111.786992,325.420404,3.95851399,-0.420371002,0.233024712,2.01049,-7.39493,3720.59,28.64,11688.0,-0.0739568,-1.0,21.0,-1264.0,89.0,,0.0,,2022-11-16 17:05:13.177433+00:00,1.1865895523193397,0.014714754648124394,2.643688646875459,-1.6571874822017867,2.059810503529851,0.39977691400000004,308.8178584432282,0.20850860819942985,0.23423720181181673,2.65485548737542,308.2069325222451,-1.6457570801184942,2.0766823018503024,0.33821421672000007,0.23426440023350636,0.20853707583445638,0.7877109429789668,-0.6160450229578898,2.6496858324629406,0.1655069377358184,,,,,,,,,,,0.08905961995367519,0.0,0.08905961995367519,0.00048800000001847366,-3.7922512352572824e-11,-0.002716000000020813,-21.485630386679276,-98.23059770601773,100.55288478603929,False,,
2022-11-16 10:05:13.978224-07:00,44.664465,2.78,2.2,-1.68,0.24,13.31,975.71,29.74,24.0,0.0,-0.00044979,-1.90427e-05,-0.000112793,32.8213818,-111.786992,325.41546,3.98249737,-0.412309375,0.221791044,2.00636,-7.43727,3738.57,28.6406,11673.0,-0.0769002,-1.0,20.0,-1268.0,89.0,,0.0,,2022-11-16 17:05:13.978224+00:00,1.1865652302312146,0.014714659043845812,2.767778986069629,-1.828756187663006,2.077558981548512,0.239887207,311.35561405219966,0.2121108524028733,0.23749404500813284,2.795690726211329,312.52062975015315,-1.8899024512473592,2.059314117241054,0.23416346408000002,0.2387172677339248,0.2135619470482339,0.04229897672475088,-0.9991049977695232,1.9753178642522395,0.21318026914837004,,,,,,,,,,,0.06679471473644608,0.0,0.06679471473644608,-0.0044560000000046784,-0.02226490521722911,-0.004944000000023152,-21.507895291896507,-98.23059770601773,100.5576445903974,False,,
2022-11-16 10:05:14.977954-07:00,45.664195,2.65,2.11,-1.57,0.33,13.55,975.71,29.33,22.0,0.0,-0.000240209,0.000485526,0.00284971,32.8213818,-111.786992,325.41839000000004,4.0131901,-0.41267971,0.228428545,2.00608,-7.87407,3750.51,28.6413,11673.0,-0.0751827,-1.0,20.0,-1268.0,89.0,,0.0,,2022-11-16 17:05:14.977954+00:00,1.1855719422812478,0.014698441261961705,2.629520426841859,-1.7133354962395353,1.994707786244446,0.33284971,310.66062006283323,0.20961278086047175,0.23543176784518896,2.578921506140885,309.9477771370093,-1.654537705211481,1.9747954365653198,0.27393206600000003,0.23443389876759363,0.2084712231026095,0.8963051623656124,0.4434377700610912,1.0363348339285752,0.19274517639444397,,,,,,,,,,,0.06679471476712896,0.0,0.06679471476712896,-0.0015259999999557294,3.0682886786870256e-11,0.002930000000048949,-21.50789529186582,-98.23059770601773,100.55764459039084,False,,
2022-11-16 10:05:15.177447-07:00,45.863688,2.53,2.14,-1.29,0.38,13.39,975.71,29.68,23.0,0.0,-0.00063564,-0.000225957,0.00175041,32.8213818,-111.786992,325.41597900000005,4.01724658,-0.414066624,0.230455766,2.00608,-7.87407,3750.51,28.6413,11673.0,-0.0751827,-1.0,20.0,-1268.0,89.0,,0.0,,2022-11-16 17:05:15.177447+00:00,1.1862339493684433,0.014709249123521664,2.4983496108814123,-1.4369778753843632,2.0437331929210196,0.38175041,305.1115979736492,0.20408565731152162,0.23076266949332674,2.5128059297421244,309.96462839460327,-1.6129267572459844,1.9234111633198883,0.30011842800000005,0.23373695973825895,0.20769108776491785,0.33494606126053666,-0.9422373034676842,2.1639987517768757,0.1862457277526143,,,,,,,,,,,0.06679471474188102,0.0,0.06679471474188102,-0.003936999999950785,-2.5247942625483688e-11,-0.002410999999995056,-21.50789529189107,-98.23059770601773,100.55764459039624,False,,
2022-11-16 10:05:15.977938-07:00,46.664179,3.02,2.39,-1.83,0.21,12.39,975.7,31.64,22.0,0.0,-0.000428211,-0.000265163,0.000158555,32.8213817,-111.786992,325.418176,4.0436356,-0.408401134,0.219873454,2.00957,-7.06748,3765.84,28.6421,11620.0,-0.00366352,-1.0,13.0,-1270.0,89.0,,0.0,,2022-11-16 17:05:15.977938+00:00,1.1903761021200239,0.01477711341191121,3.010004397928204,-1.994243303672435,2.2545775926556137,0.210158555,311.4937492066862,0.2154595495165157,0.2409712088133242,2.859382608300682,311.61033811867253,-1.9033123233218272,2.132839697180288,0.27680555524,0.23942995058324748,0.21383390168702113,0.5264694407732956,-0.8501940531030863,2.7410597411196274,0.16820978196371494,,,,,,,,,,,0.05566226324826993,0.0,0.05566226324826993,-0.0017399999999838656,-0.011132451493611091,0.00219699999996692,-21.519027743384683,-98.23059770601773,100.5600262564706,False,,
2022-11-16 10:05:16.177409-07:00,46.86365,3.06,2.35,-1.94,0.23,12.61,975.7,31.22,25.0,0.0,4.2877e-05,5.59621e-05,0.000207249,32.8213817,-111.786992,325.422205,4.05156686,-0.411085586,0.228697592,2.00957,-7.06748,3765.84,28.6421,11620.0,-0.00366352,-1.0,13.0,-1270.0,89.0,,0.0,,2022-11-16 17:05:16.177409+00:00,1.189459659152266,0.014762118779231996,3.0473027573710336,-2.1011332367840883,2.2071006357577643,0.230207249,313.59100945739414,0.21816744481262904,0.2432605708214509,3.011855920147036,312.6250972655522,-2.0414883402650648,2.2131452178767645,0.26025903324,0.2421222220195757,0.21682267570558436,0.7937931430771298,-0.6081878377637384,2.998387878070209,0.17235919793469884,,,,,,,,,,,0.05566226328342959,0.0,0.05566226328342959,0.0022890000000188593,3.5159659905747986e-11,0.004029000000002725,-21.519027743349522,-98.23059770601773,100.56002625646308,False,,
2022-11-16 10:05:17.978005-07:00,48.664246,2.53,1.91,-1.64,0.23,13.19,975.73,30.11,26.0,0.0,-0.000678978,1.12868e-05,0.00125627,32.8213815,-111.786992,325.429071,4.10084711,-0.409067988,0.229389715,2.0045,-7.2962,3737.58,28.6436,11659.0,-0.0830249,-1.0,19.0,-1264.0,89.0,,0.0,,2022-11-16 17:05:17.978005+00:00,1.1870868308912415,0.014722877135185107,2.5169888076057507,-1.7723781488879515,1.7871509043606637,0.23125627,314.762212453347,0.21089548525745763,0.23676937897710382,2.5682329403899664,315.3270718924773,-1.8259197324933187,1.8056748225994035,0.23293360950000003,0.23779134162295296,0.21206671643356687,0.016620922731572476,0.9998618629228495,-1.79565552357359,0.2120081421046958,,,,,,,,,,,0.033397357439490065,0.0,0.033397357439490065,0.009155000000021118,-0.022264905843939524,0.006866000000002259,-21.541292649193462,-98.23059770601773,100.564793117073,False,,
2022-11-16 10:05:21.977654-07:00,52.663895,2.97,2.29,-1.87,0.33,12.49,975.72,31.56,22.0,0.0,-0.000249254,-5.86842e-05,0.00037854,32.8213815,-111.786992,325.420526,4.21629542,-0.418707392,0.213052834,2.00622,-7.44211,3743.16,28.6448,11696.0,-0.0974163,-1.0,17.0,-1288.0,89.0,,0.0,,2022-11-16 17:05:21.977654+00:00,1.1899837540425566,0.014770390221184104,2.956377640840011,-2.0333627414194337,2.1460672676004346,0.33037854,313.4553087207156,0.21600563589164282,0.24228421798358551,2.834120155975671,313.5758703473115,-1.952455095585061,2.0535818011063975,0.2667167826,0.2406189455037877,0.21420926933969522,0.22917328360952277,-0.9733856409869776,2.371117839234666,0.20335197257512708,,,,,,,,,,,0.03339735739474855,0.0,0.03339735739474855,0.0006099999999946704,-4.474151604760834e-11,-0.008545000000026448,-21.541292649238205,-98.23059770601773,100.56479311708257,False,,
2022-11-16 10:05:22.978315-07:00,53.664556,2.38,1.81,-1.53,0.18,12.9,975.71,30.72,22.0,0.0,-0.000492672,0.000567229,-0.000525875,32.8213815,-111.786992,325.41677200000004,4.24174651,-0.417357864,0.224667162,2.00472,-6.98937,3734.91,28.646,11673.0,-0.0786785,-1.0,20.0,-1277.0,89.0,,0.0,,2022-11-16 17:05:22.978315+00:00,1.188265952987358,0.0147424477406383,2.3692721754219224,-1.6591182229737995,1.6913832692281163,0.17947412499999998,314.4482635394737,0.20812165032618923,0.2351326609265058,2.470271216281739,315.4796065127276,-1.7609884007808556,1.7320087869583531,0.18666513540000002,0.23698669800167607,0.21026166369176424,0.7549814592954113,0.6557461369464339,0.15287318047076792,0.16254723818306846,,,,,,,,,,,0.03339735737509265,0.0,0.03339735737509265,-0.0031439999999633983,-1.965590190611266e-11,-0.0037539999999580687,-21.54129264925786,-98.23059770601773,100.5647931170868,False,,
2022-11-16 10:05:24.977634-07:00,55.663875,2.43,1.9,-1.5,0.18,13.05,975.72,30.42,25.0,0.0,-0.00055564,2.79958e-05,0.00026314,32.8213817,-111.786992,325.41738300000003,4.29970969,-0.410955988,0.230107531,2.00452,-7.37491,3688.66,28.6475,11648.0,0.0789158,-1.0,17.0,-1250.0,89.0,,0.0,,2022-11-16 17:05:24.977634+00:00,1.1876553441813973,0.014732316842322362,2.4203156959811443,-1.6382002553520127,1.781636324163069,0.18026314,312.5982865953885,0.20732840374559994,0.23492656821438243,2.5159701037882525,312.24366026622,-1.6905250380436196,1.860088243549706,0.25242789045999997,0.23592243525877826,0.20838383805191896,0.05032094895935686,0.9987330985282453,-1.5947819038213196,0.20785702743327777,,,,,,,,,,,0.0556622632413497,0.0,0.0556622632413497,-0.0025329999999712527,0.022264905866257054,0.0006109999999921456,-21.519027743391604,-98.23059770601773,100.56002625647209,False,,
2022-11-16 10:05:25.978122-07:00,56.664363,2.7,2.0,-1.81,0.19,12.64,975.73,31.29,27.0,0.0,-0.000360048,-0.000314558,0.00202567,32.8213816,-111.786992,325.42809400000004,4.32672547,-0.416037276,0.230602777,2.00418,-7.68332,3680.06,28.6485,11697.0,0.1218,-1.0,17.0,-1271.0,89.0,,0.0,,2022-11-16 17:05:25.978122+00:00,1.189371367638469,0.014760220733414315,2.697404836724884,-1.9560438572750973,1.8573866806896073,0.19202567,316.4819672651454,0.2142527215366192,0.24099896284170563,2.7634362275369537,314.9078114532409,-1.9473200893114921,1.9583662653119827,0.233879134,0.24084054734008245,0.2138691860575254,0.6579310578770716,-0.7530781653193495,2.754954228795693,0.15993832865772684,,,,,,,,,,,0.044529810384597655,0.0,0.044529810384597655,0.00817800000004354,-0.011132452856752045,0.010711000000014792,-21.530160196248353,-98.23059770601773,100.5624090988159,False,,
2022-11-16 10:05:26.177553-07:00,56.863794,2.9,2.26,-1.81,0.25,12.64,975.71,31.28,25.0,0.0,-0.000228058,0.000287291,0.00216656,32.8213815,-111.786992,325.4284,4.33507068,-0.413985273,0.227354142,2.00418,-7.68332,3680.06,28.6485,11697.0,0.1218,-1.0,17.0,-1271.0,89.0,,0.0,,2022-11-16 17:05:26.177553+00:00,1.1893469885301575,0.014760124526708862,2.895099219531049,-1.9753657339617579,2.1164899498979475,0.25216656,313.02470593855594,0.21423134248607875,0.2414287446880975,2.839536233756976,314.4158089973288,-1.9830539703317247,2.029763656020819,0.2497381402,0.24158433286358355,0.21458137779779904,0.7832234926158441,0.621740267808543,0.35681407326048986,0.16983206081798186,,,,,,,,,,,0.033397357435976716,0.0,0.033397357435976716,0.008484000000009928,-0.01113245294862094,0.0003059999999663887,-21.541292649196976,-98.23059770601773,100.56479311707375,False,,
2022-11-16 10:05:27.978289-07:00,58.66453,2.8,2.11,-1.82,0.26,12.8,975.72,31.0,26.0,0.0,-0.000447442,-0.000260071,0.00113973,32.8213814,-111.786992,325.42196,4.37662596,-0.417629733,0.23147993,2.00707,-7.47383,3680.78,28.6432,11627.0,0.0815461,-1.0,19.0,-1264.0,89.0,,0.0,,2022-11-16 17:05:27.978289+00:00,1.1886936859755757,0.014749289501217264,2.78635416059337,-1.975971781093497,1.9645113969071741,0.26113973,315.16663687279555,0.21436888535297408,0.24154869320126968,2.8144995367204153,313.47902293062884,-1.9355095794253916,2.0420657411887664,0.24102225400000005,0.24074265809712622,0.21326737152925093,0.5025198032779893,-0.8645656986680949,2.6995536663576045,0.17061068160843965,,,,,,,,,,,0.02226490517088713,0.0,0.02226490517088713,0.002044000000012147,-0.011132452265089587,-0.006439999999997781,-21.552425101462067,-98.23059770601773,100.56717831099583,False,,
2022-11-16 10:05:29.177574-07:00,59.863815,2.72,2.05,-1.78,0.23,12.84,975.72,30.92,22.0,0.0,0.000139347,0.000308603,0.00149472,32.8213813,-111.786992,325.42260100000004,4.39653081,-0.412046636,0.226449455,2.00749,-7.73792,3665.63,28.6442,11667.0,-0.0038188,-1.0,15.0,-1260.0,89.0,,0.0,,2022-11-16 17:05:29.177574+00:00,1.1885274292972339,0.014746571236910744,2.7148184727116065,-1.9316038094290404,1.9076545974508592,0.23149472000000001,315.3574052136201,0.21334761858027199,0.24071842564975313,2.72894202735636,314.6409734445614,-1.9123432590601819,1.9408400319362382,0.2073255916,0.2403571049170652,0.21285681576085674,0.9113950769403248,-0.4115325184343752,2.5558634877474278,0.20287891349463788,,,,,,,,,,,0.011132452232488583,0.0,0.011132452232488583,0.002685000000042237,-0.011132452938398546,0.0006410000000300897,-21.563557554400465,-98.23059770601773,100.56956468078917,False,,
2022-11-16 10:05:30.177661-07:00,60.863902,2.72,2.18,-1.59,0.3,13.17,975.71,30.27,24.0,0.0,-0.000180951,-0.000284915,0.00136465,32.8213813,-111.786992,325.423761,4.42272492,-0.420165041,0.24101933,2.00563,-7.61405,3660.06,28.6446,11694.0,0.068291,-1.0,16.0,-1291.0,89.0,,0.0,,2022-11-16 17:05:30.177661+00:00,1.187145417197659,0.014724136029048408,2.69828779340177,-1.7536598463989435,2.0507155237011854,0.30136465,310.5352531994393,0.2089050620739953,0.2373533170378226,2.9343481755653054,309.03191771773817,-1.8434947302497868,2.2802488145962685,0.22897712280000002,0.23907646244802003,0.2105303124820908,0.8441423054378882,-0.5361191734773223,2.9131873624166205,0.18078780597474586,,,,,,,,,,,0.011132452234513165,0.0,0.011132452234513165,0.003845000000012533,2.0245818910247237e-12,0.001159999999970296,-21.56355755439844,-98.23059770601773,100.56956468078874,False,,
2022-11-16 10:05:30.978307-07:00,61.664548,2.99,2.51,-1.62,0.2,13.11,975.72,30.34,23.0,0.0,-0.000198906,0.000511959,0.000597849,32.8213812,-111.786992,325.417322,4.45045137,-0.414755149,0.238193742,2.00672,-7.56222,3663.77,28.6456,11676.0,0.0569145,-1.0,19.0,-1292.0,89.0,,0.0,,2022-11-16 17:05:30.978307+00:00,1.1874064120195482,0.01472824924033901,2.986921766548775,-1.8093717688498834,2.376525918556728,0.20059784900000002,307.283889231324,0.2094925270240145,0.2384915844749891,3.004997974822913,309.0052270088296,-1.8905820785699057,2.3340067646681173,0.2103658882,0.24008135448672158,0.21144248541438732,0.9321209673719965,0.36214707258998174,1.4909078780900549,0.21042977179691946,,,,,,,,,,,0.0,0.0,0.0,-0.0025939999999877728,-0.011132452234513165,-0.006439000000000306,-21.574690006632952,-98.23059770601773,100.57195222607446,False,,
2022-11-16 10:05:31.977891-07:00,62.664132,2.96,2.59,-1.39,0.39,13.32,975.7,30.01,23.0,0.0,-0.000221836,0.00038131,0.000387743,32.8213811,-111.786992,325.42080100000004,4.48138577,-0.410687615,0.232944804,2.00896,-7.93641,3691.77,28.6468,11641.0,-0.0586759,-1.0,16.0,-1265.0,89.0,,0.0,,2022-11-16 17:05:31.977891+00:00,1.186511649385107,0.014713934788050493,2.939029032002575,-1.5877393444573185,2.473251993836503,0.390387743,302.69901214995383,0.2045753178104219,0.23459971213062128,2.8871924773367073,306.2147826079978,-1.6990886913945284,2.3301533251751714,0.29691104560000003,0.23655313601765232,0.2070954484245589,0.8643651774975512,0.5028646338028028,1.159691779914953,0.18433081489946418,,,,,,,,,,,-0.01113245222934699,0.0,0.01113245222934699,0.0008850000000393266,0.01113245222934699,0.0034790000000270993,-21.5858224588623,-98.23059770601773,100.57434094691857,False,,
2022-11-16 10:05:32.177618-07:00,62.863859,2.91,2.48,-1.47,0.43,13.38,975.72,29.9,26.0,0.0,-0.000470475,0.000332946,0.00119108,32.8213811,-111.786992,325.424646,4.48693491,-0.408135584,0.236178445,2.00896,-7.93641,3691.77,28.6468,11641.0,-0.0586759,-1.0,16.0,-1265.0,89.0,,0.0,,2022-11-16 17:05:32.177618+00:00,1.186287507432785,0.0147099729156717,2.8823561688096473,-1.6591765802811607,2.3569281192521636,0.43119108,305.143906824106,0.20616875213891597,0.23584802290269893,2.7901556236143485,308.60294661165995,-1.7196904465164262,2.1819989998175995,0.3033320764,0.23695985509885506,0.20780348489811593,0.5776624548658966,0.8162757427721995,-0.14328269781888547,0.15944831071174284,,,,,,,,,,,-0.011132452236057782,0.0,0.011132452236057782,0.004729999999995016,6.710791644604086e-12,0.0038449999999556894,-21.58582245886901,-98.23059770601773,100.57434094692,False,,
2022-11-16 10:05:33.178073-07:00,63.864314,2.68,2.12,-1.63,0.25,13.47,975.71,29.68,27.0,0.0,0.000113885,0.000762228,0.00147465,32.8213811,-111.786992,325.42782,4.50811396,-0.405831698,0.235704463,2.00536,-7.06777,3711.16,28.6474,11697.0,-0.0911792,-1.0,17.0,-1289.0,89.0,,0.0,,2022-11-16 17:05:33.178073+00:00,1.1859028534367235,0.01470384319766067,2.673765433099916,-1.790827478999935,1.9854366098414518,0.25147465,312.0498815303396,0.209558146623572,0.23831292933845077,2.5988152778163087,311.6312166833826,-1.7194115454632293,1.9409319368030729,0.20300207419999997,0.23703201657664213,0.20811546057663502,0.989021693012478,-0.14777039876352702,2.173701919870677,0.23190069553382928,,,,,,,,,,,-0.011132452241597455,0.0,0.011132452241597455,0.007903999999996358,5.53967288707824e-12,0.0031740000000013424,-21.58582245887455,-98.23059770601773,100.5743409469212,False,,
2022-11-16 10:05:33.978267-07:00,64.664508,2.37,1.8,-1.52,0.22,13.61,975.74,29.38,26.0,0.0,-0.000203113,-0.000319341,0.000873407,32.8213812,-111.786992,325.426752,4.52609296,-0.411931915,0.247281657,2.00714,-7.84114,3739.09,28.6482,11693.0,-0.0983264,-1.0,15.0,-1296.0,89.0,,0.0,,2022-11-16 17:05:33.978267+00:00,1.1853603250456137,0.01469453543085804,2.3560090051899705,-1.6576227853488774,1.6742356865233947,0.220873407,314.71432122853946,0.20710239278805237,0.23592370984391034,2.427724713870681,309.4523150452652,-1.5413156561906791,1.8620994076581927,0.26429887828,0.2342155765995908,0.20478626896000418,0.8437859316356945,-0.5366798874316823,2.3984063963502464,0.17687986470059502,,,,,,,,,,,0.0,0.0,0.0,0.0068360000000211585,-0.011132452241597455,-0.0010679999999752,-21.574690006632952,-98.23059770601773,100.57195222607446,False,,
2022-11-16 10:05:34.177516-07:00,64.863757,2.43,1.91,-1.48,0.21,13.44,975.72,29.78,26.0,0.0,-2.97347e-05,0.00100042,0.000900928,32.8213812,-111.786992,325.424707,4.52942869,-0.410850915,0.237889262,2.00714,-7.84114,3739.09,28.6482,11693.0,-0.0983264,-1.0,15.0,-1296.0,89.0,,0.0,,2022-11-16 17:05:34.177516+00:00,1.1860391482770365,0.014705917695845281,2.4156036366021416,-1.6252122545930507,1.7871278792201928,0.210900928,312.2833514566841,0.20625283286074322,0.23539196835205073,2.4311272819856833,308.83276061177065,-1.5211124020006832,1.8817031487647427,0.35455356567999996,0.2338823134470059,0.20434494173387838,0.9995585873579307,0.029709096906806835,1.8356816654490724,0.23367595140320144,,,,,,,,,,,0.0,0.0,0.0,0.004791000000011536,0.0,-0.0020450000000096225,-21.574690006632952,-98.23059770601773,100.57195222607446,False,,
