Timestamp,Seconds,S,Um,Vm,Wm,T,P,H,MD,Sts,Vx,Vy,Vz,Lat,Lon,Alt,Yaw,Roll,Pitch,CH4,C2H6,H2O,T_a,Batt,R,C2C1,Power,Current,SOC,Lat_a,Lon_a,TS,Timestamp_UTC,Rho,Rho_err,Sc,V,U,W,WD,V_err,U_err,Sc_avg,WD_avg,V_avg,U_avg,W_avg,U_err_avg,V_err_avg,Nx,Ny,cross_wind,cross_wind_err,CH4_sub,CH4_res,CH4_adj,CH4_adj_err,BG_Samples_CH4,C2H6_sub,C2H6_res,C2H6_adj,C2H6_adj_err,BG_Samples_C2H6
2022-08-31 08:30:10.959102-06:00,0.0,2.65,0.14,-2.63,0.36,19.22,866.47,82.25,22.0,0.0,0.00014329,-0.000384601,0.000353335,33.9943302,-106.894679,1363.00076,-13.1191037,2.37409735,0.0291317186,,,,,,,,,,,,,,2022-08-31 14:30:10.959102+00:00,1.0324180112597252,0.013850994516869322,2.634132888547622,-2.5299658561442917,0.7334363239384303,0.360353335,343.8331424747828,0.2642563889038215,0.20202175587026114,,,,,,,,0.9370763163189205,0.34912458720944084,,,,,,,,,,,,
2022-08-31 08:30:11.160016-06:00,0.200914,2.89,0.72,-2.77,0.36,19.19,866.48,82.38,20.0,0.0,0.000226642,-0.000138119,-9.63541e-05,33.9943302,-106.894679,1362.9949,-13.1047792,2.37515298,0.031918783,,,,,,,,,,,,,,2022-08-31 14:30:11.160016+00:00,1.0325358746825204,0.013852827069292332,2.862272310012424,-2.5347517353701297,1.3295248838220275,0.3599036459,332.3221459484803,0.2662264533379471,0.20222374778928576,,,,,,,,0.5203949856723687,0.8539256752710127,,,,,,,,,,,,
2022-08-31 08:30:11.359769-06:00,0.400667,3.23,0.31,-3.21,0.14,19.05,866.49,83.15,16.0,0.0,-8.57361e-05,-0.000221938,-0.000123106,33.9943303,-106.894679,1362.9957499999998,-13.0906858,2.36989965,0.0374770906,,,,,,,,,,,,,,2022-08-31 14:30:11.359769+00:00,1.0330425094365854,0.013861232899659638,3.2251170928455504,-3.056590203632376,1.028900670435743,0.139876894,341.3958845834697,0.27302569215129274,0.2195561503881211,,,,,,,,0.9328160395605215,-0.3603529330234785,,,,,,,,,,,,
2022-08-31 08:30:11.559824-06:00,0.600722,3.01,0.24,-3.0,0.22,19.08,866.5,83.07,16.0,0.0,-9.08134e-05,-0.000437714,4.21417e-05,33.9943304,-106.894679,1362.9927,-13.0797286,2.36794853,0.0320940467,1.80044,17.7815,22972.1,27.2318,11886.0,-0.0476175,-1.0,10.0,-1197.0,88.0,,0.0,2022-08-31 07:30:09.827,2022-08-31 14:30:11.559824+00:00,1.0329483793931233,0.013859481308080943,3.0099742574510717,-2.868292394960316,0.9126027435477864,0.2200421417,342.35052418071075,0.26965763415135163,0.21313526849890024,3.149550588838951,342.08925764277944,-2.98886573774785,0.9489327512206046,0.06202939812,0.21746652005276582,0.27175267624590577,0.9791484796032129,-0.2031458955793016,1.536321867664426,0.20879345857064743,,,,,,,,,,
2022-08-31 08:30:11.759839-06:00,0.800737,3.28,0.02,-3.28,-0.14,19.02,866.48,83.35,22.0,0.0,-0.00049283,0.000367107,-0.000155675,33.9943304,-106.894679,1362.99355,-13.0665695,2.37009562,0.0351992754,,,,,,,,,,,,,,2022-08-31 14:30:11.759839+00:00,1.033136658810583,0.01386298494060631,3.279589563963682,-3.190185625049465,0.7605415082605601,-0.140155675,346.59095725813916,0.27416740908643916,0.22434510642166142,,,,,,,,0.5973770310974807,0.8019605244132404,,,,,,,,,,,,
2022-08-31 08:30:11.959644-06:00,1.000542,3.38,-0.05,-3.37,-0.27,19.07,866.48,83.03,22.0,0.0,0.000232451,-0.00038844,0.000479984,33.9943305,-106.894679,1362.9933099999998,-13.0607819,2.37098047,0.035234627,,,,,,,,,,,,,,2022-08-31 14:30:11.959644+00:00,1.03295988503418,0.013859995757526103,3.3707997199220263,-3.294508729726964,0.7130939500369056,-0.26952001600000003,347.7867762430975,0.27568619250249804,0.22807232716586057,,,,,,,,0.8580897701445644,0.513499704355561,,,,,,,,,,,,
2022-08-31 08:30:12.159701-06:00,1.200599,3.12,0.06,-3.12,-0.08,19.04,866.49,83.11,16.0,0.0,-0.000410156,0.000523757,-0.00125677,33.9943306,-106.894679,1362.9902599999998,-13.0442706,2.37246593,0.0426194772,,,,,,,,,,,,,,2022-08-31 14:30:12.159701+00:00,1.0330778645996448,0.013861830740172165,3.1199687673614225,-3.0254254118712183,0.7622376181445162,-0.08125677,345.8589764051735,0.27152236328784163,0.21863334257748057,,,,,,,,0.787315845177553,0.6165498843827281,,,,,,,,,,,,
2022-08-31 08:30:12.360018-06:00,1.400916,2.93,0.05,-2.93,-0.11,19.05,866.48,83.14,15.0,0.0,-4.71676e-05,-4.86658e-07,-0.000794198,33.9943306,-106.894679,1362.9884299999999,-13.0353813,2.37082646,0.0351872692,,,,,,,,,,,,,,2022-08-31 14:30:12.360018+00:00,1.0330305872850378,0.013861191273275803,2.9304156413574973,-2.843219585324323,0.7095338052135761,-0.110794198,345.987866999827,0.2685316299725984,0.21243940958221444,,,,,,,,0.010317084160110589,-0.9999467774708978,,,,,,,,,,,,
2022-08-31 08:30:12.559061-06:00,1.599959,3.39,-0.33,-3.37,-0.09,19.11,866.48,82.91,18.0,0.0,-8.87555e-05,0.000502859,-0.00102516,33.9943307,-106.894679,1362.9864699999998,-13.0280427,2.37027507,0.0358824545,,,,,,,,,,,,,,2022-08-31 14:30:12.559061+00:00,1.0328185095623352,0.013857605355710923,3.385608605837403,-3.3571440446244605,0.4380975868032187,-0.09102516,352.5650808488773,0.27566458390307486,0.23046572864854126,,,,,,,,0.9847783043148822,0.1738151067965763,,,,,,,,,,,,
2022-08-31 08:30:12.759186-06:00,1.800084,3.24,-0.33,-3.22,-0.04,19.11,866.48,82.81,23.0,0.0,-0.000148866,-4.88492e-05,6.58808e-05,33.9943307,-106.894679,1362.9950199999998,-13.0172608,2.37146136,0.0534895404,1.80315,17.338,22942.9,27.235,11858.0,-0.0559439,-1.0,11.0,-1186.0,88.0,,0.0,2022-08-31 07:30:10.851,2022-08-31 14:30:12.759186+00:00,1.0328185095623352,0.013857605355710923,3.236895669706624,-3.211632813281733,0.403618940608037,-0.0399341192,352.8369600833648,0.27313083048282616,0.22523138038837878,3.0495866863639485,350.6536500798197,-3.006758116003234,0.4897129060701818,-0.012245884654000005,0.2182267189972662,0.27031467020519445,0.3117850754803419,-0.9501526544233393,3.009564380512181,0.24495770593346125,,,,,,,,,,
2022-08-31 08:30:12.960036-06:00,2.000934,2.86,-0.12,-2.86,0.06,19.2,866.48,82.34,21.0,0.0,5.12008e-05,0.00051211,4.92093e-06,33.9943308,-106.894679,1362.99966,-13.000952,2.37156851,0.0426841773,,,,,,,,,,,,,,2022-08-31 14:30:12.960036+00:00,1.0325005561986935,0.013852230019345926,2.862022422401488,-2.813171654409651,0.5265335593814985,0.06000492093,349.39876435281326,0.26743256763752293,0.21155613968376796,,,,,,,,0.9950391522727114,-0.09948409643960038,,,,,,,,,,,,
2022-08-31 08:30:13.159483-06:00,2.200381,2.83,-0.27,-2.82,0.12,19.24,866.48,82.25,17.0,0.0,0.000354062,-4.91521e-05,0.000519133,33.9943309,-106.894679,1363.01138,-12.9825476,2.36882491,0.046756999,,,,,,,,,,,,,,2022-08-31 14:30:13.159483+00:00,1.0323593064218615,0.013849842343389925,2.832991092516732,-2.8086224823760015,0.3707806383445788,0.120519133,352.4795781142162,0.2668137390299499,0.2114409366834286,,,,,,,,0.1375047574420068,0.9905011063501216,,,,,,,,,,,,
2022-08-31 08:30:13.359700-06:00,2.400598,2.6,-0.06,-2.6,0.12,19.24,866.48,82.17,17.0,0.0,8.47105e-05,0.000148942,0.000341163,33.9943309,-106.894679,1363.0248,-12.9665477,2.36733109,0.0402445985,,,,,,,,,,,,,,2022-08-31 14:30:13.359700+00:00,1.0323593064218615,0.013849842343389925,2.6005634394063515,-2.547017201847229,0.5250081674329504,0.120341163,348.352937687009,0.2636325520936473,0.20304503332146537,,,,,,,,0.8692450005915877,-0.4943815621021183,,,,,,,,,,,,
2022-08-31 08:30:13.559433-06:00,2.600331,2.75,-0.34,-2.72,0.19,19.22,866.48,82.23,22.0,0.0,-0.000311261,0.000630398,-0.000123951,33.9943309,-106.894679,1363.0310299999999,-12.9529467,2.36580389,0.0431644251,,,,,,,,,,,,,,2022-08-31 14:30:13.559433+00:00,1.032429926479078,0.013851036076615593,2.740508899914703,-2.726369040140997,0.27803037149267584,0.189876049,354.1772052571655,0.26531297617285565,0.2088433438819896,,,,,,,,0.8966564765317511,0.4427269622393303,,,,,,,,,,,,
2022-08-31 08:30:13.759302-06:00,2.8002,2.22,-0.04,-2.2,0.33,19.25,866.48,82.09,22.0,0.0,-0.000758794,-4.97174e-05,-0.000646582,33.994331,-106.894679,1363.0378699999999,-12.941127,2.36687009,0.0355846209,1.79995,17.7081,22898.8,27.2385,11896.0,0.00142513,-1.0,13.0,-1199.0,88.0,,0.0,2022-08-31 07:30:11.875,2022-08-31 14:30:13.759302+00:00,1.032324000016033,0.013849245555324354,2.200255924066207,-2.1531292335140835,0.4529466140457331,0.329353418,348.12010139772013,0.25841632283842525,0.1913856119772038,2.631898082753301,351.1867341125647,-2.599555030073167,0.3938978921023273,0.19180190139999997,0.20502202493571092,0.26403631751209816,0.06538141049112461,-0.9978603465225938,2.6197464828884933,0.2629090946279232,,,,,,,,,,
2022-08-31 08:30:13.959776-06:00,3.000674,2.69,-0.2,-2.67,0.23,19.22,866.48,82.24,17.0,0.0,-0.000410105,0.00043493,-0.000717129,33.994331,-106.894679,1363.0465299999998,-12.9296948,2.36445816,0.0472420226,,,,,,,,,,,,,,2022-08-31 14:30:13.959776+00:00,1.032429926479078,0.013851036076615593,2.6769885428079485,-2.6466192340027086,0.40208741404318854,0.229282871,351.3614021190258,0.2645664151900788,0.2063266244310605,,,,,,,,0.7275659072773499,0.6860377909180271,,,,,,,,,,,,
2022-08-31 08:30:14.159810-06:00,3.200708,2.94,-0.35,-2.92,0.09,19.19,866.47,82.21,15.0,0.0,-0.000349119,-0.000311124,0.000156006,33.994331,-106.894679,1363.0561799999998,-12.9204171,2.36314708,0.0350495448,,,,,,,,,,,,,,2022-08-31 14:30:14.159810+00:00,1.032523958240425,0.013852785497859288,2.9411736075712946,-2.924640440860819,0.3114168934970885,0.090156006,353.9220241019029,0.2682533212654836,0.21550951106683525,,,,,,,,0.6653141759938959,-0.7465634917550974,,,,,,,,,,,,
2022-08-31 08:30:14.359744-06:00,3.400642,2.31,-0.1,-2.3,0.23,19.24,866.48,81.94,18.0,0.0,-0.000759958,0.000299084,-0.0011418,33.9943311,-106.894679,1363.06155,-12.9079541,2.36452955,0.0381304944,,,,,,,,,,,,,,2022-08-31 14:30:14.359744+00:00,1.0323593064218615,0.013849842343389925,2.301741410915067,-2.263918901243029,0.4155535240084486,0.2288582,349.598857793036,0.2595862193729905,0.19467271367833308,,,,,,,,0.3662135128224023,0.930530850120659,,,,,,,,,,,,
2022-08-31 08:30:14.559245-06:00,3.600143,1.99,-0.02,-1.96,0.37,19.28,866.48,81.86,23.0,0.0,-0.000974407,0.000725501,-0.000733128,33.9943312,-106.894678,1363.0694799999999,-12.8986271,2.36938368,0.0401398244,,,,,,,,,,,,,,2022-08-31 14:30:14.559245+00:00,1.0322180952866944,0.013847455505235176,1.959185579748898,-1.9142814591418373,0.41705470993842525,0.36926687199999997,347.7093191147921,0.255601199154799,0.18509622102209686,,,,,,,,0.5972019487879576,0.8020909127797581,,,,,,,,,,,,
2022-08-31 08:30:14.760096-06:00,3.800994,1.71,0.18,-1.62,0.53,19.27,866.48,81.9,20.0,0.0,-0.00178393,0.00130536,-0.000800898,33.9943313,-106.894678,1363.08071,-12.8884993,2.36786591,0.0385213627,,,,,,,,,,,,,,2022-08-31 14:30:14.760096+00:00,1.0322533944486973,0.01384805213625377,1.6281497535263718,-1.537730536602783,0.5350293606030443,0.529199102,340.8154557558537,0.25219557013849186,0.1761442405525665,,,,,,,,0.5905233607378482,0.8070205452297217,,,,,,,,,,,,
2022-08-31 08:30:14.959151-06:00,4.000049,1.48,0.47,-1.27,0.59,19.29,866.47,81.79,16.0,0.0,-0.00204452,0.00226028,-0.000360622,33.9943313,-106.894678,1363.0912099999998,-12.8770606,2.36802398,0.0410244942,,,,,,,,,,,,,,2022-08-31 14:30:14.959151+00:00,1.0321708861715424,0.013846817394058079,1.3511680952101133,-1.131055730421005,0.7391672044913334,0.589639378,326.83459298896804,0.249320273080578,0.16831699635571434,,,,,,,,0.7416166143876753,0.6708239689099981,,,,,,,,,,,,
2022-08-31 08:30:15.159588-06:00,4.200486,1.54,0.42,-1.38,0.53,19.25,866.47,82.1,16.0,0.0,-0.00143996,0.000590954,-0.00149331,33.9943314,-106.894678,1363.09683,-12.8652009,2.36660824,0.0395831105,,,,,,,,,,,,,,2022-08-31 14:30:15.159588+00:00,1.0323120860191721,0.013849204007260538,1.441269840161201,-1.2512499852163463,0.7152847171961572,0.5285066900000001,330.24529115262135,0.25011908936575095,0.1704472895899468,,,,,,,,0.37966698398241744,0.9251232249131436,,,,,,,,,,,,
2022-08-31 08:30:15.359607-06:00,4.400505,1.64,0.25,-1.53,0.53,19.22,866.48,82.23,21.0,0.0,-0.00119129,0.000233315,-0.00151589,33.9943314,-106.894678,1363.10098,-12.8515123,2.36568748,0.0393676927,,,,,,,,,,,,,,2022-08-31 14:30:15.359607+00:00,1.032429926479078,0.013851036076615593,1.5496257034885124,-1.4358335594973994,0.5828565949985423,0.5284841100000001,337.9059934752134,0.2513212213415457,0.17409036195122213,,,,,,,,0.19219926028673506,0.9813559213380392,,,,,,,,,,,,
2022-08-31 08:30:15.559475-06:00,4.600373,2.39,-0.13,-2.38,0.09,19.15,866.48,82.61,22.0,0.0,-0.000969329,-0.000365885,-0.00128878,33.9943315,-106.894678,1363.1018299999998,-12.8476832,2.36579647,0.0368446576,,,,,,,,,,,,,,2022-08-31 14:30:15.559475+00:00,1.032677172783743,0.013855215793111523,2.383744949244105,-2.34968851831235,0.4015019924706424,0.08871122,350.303260579557,0.2605080308221559,0.19736981436497353,,,,,,,,0.3531421359314569,-0.9355696830433148,,,,,,,,,,,,
2022-08-31 08:30:15.759173-06:00,4.800071,2.28,-0.18,-2.26,0.16,19.17,866.47,82.51,16.0,0.0,-0.000235665,-0.00014093,-0.000815985,33.9943316,-106.894678,1363.0980499999998,-12.8237825,2.36619277,0.0353259274,1.80296,16.6536,22960.3,27.2456,11865.0,0.111353,-1.0,11.0,-1188.0,88.0,,0.0,2022-08-31 07:30:13.923,2022-08-31 14:30:15.759173+00:00,1.0325946016420562,0.01385397974715499,2.2672623907613287,-2.243722033371197,0.32586835612774295,0.159184015,351.7363912879795,0.2589507868634797,0.19434703394335617,1.9919682321070646,345.43342321182223,-1.926644793321011,0.4746557174557301,0.281081243,0.18618880255596423,0.25596382017307445,0.5132393170893531,-0.8582455379398454,1.8971462733423292,0.19481384001875302,,,,,,,,,,
2022-08-31 08:30:15.959323-06:00,5.000221,1.88,0.06,-1.83,0.42,19.27,866.47,82.07,15.0,0.0,-0.000940741,-2.61048e-05,-0.000425379,33.9943317,-106.894678,1363.09963,-12.8083935,2.36483212,0.0275574398,,,,,,,,,,,,,,2022-08-31 14:30:15.959323+00:00,1.0322414812666916,0.013848010595975863,1.8307703212875073,-1.7711885293950422,0.4632614409235785,0.419574621,345.34241570994305,0.25406004476169647,0.18179258116354316,,,,,,,,0.027738511688320398,-0.9996152134543156,,,,,,,,,,,,
2022-08-31 08:30:16.160033-06:00,5.200931,1.94,0.18,-1.92,0.21,19.25,866.48,82.11,17.0,0.0,-0.00100985,-0.000350523,-0.000547751,33.9943317,-106.894678,1363.09951,-12.7968749,2.3662952,0.0356536431,,,,,,,,,,,,,,2022-08-31 14:30:16.160033+00:00,1.032324000016033,0.013849245555324354,1.9284377957538688,-1.8327913260290667,0.5997902027581443,0.20945224899999998,341.8790550064184,0.25497901707649456,0.18334422135672623,,,,,,,,0.327912039438089,-0.9447082588776036,,,,,,,,,,,,
2022-08-31 08:30:16.359903-06:00,5.400801,1.78,0.13,-1.73,0.37,19.3,866.47,81.9,22.0,0.0,-0.000690493,-0.000272459,0.0001222,33.9943318,-106.894678,1363.09548,-12.7834331,2.3656369,0.0255075291,,,,,,,,,,,,,,2022-08-31 14:30:16.359903+00:00,1.0321355922448483,0.013846220871594803,1.7349353045012637,-1.6586269468541812,0.5088783371043311,0.3701222,342.9436206238848,0.2530133301120635,0.17920039878668156,,,,,,,,0.36704528418035115,-0.9302030742590379,,,,,,,,,,,,
2022-08-31 08:30:16.559760-06:00,5.600658,1.64,0.42,-1.51,0.46,19.2,866.47,82.35,19.0,0.0,-0.000824297,-0.000130536,-0.000417404,33.9943319,-106.894678,1363.08999,-12.7720737,2.36678702,0.0311849911,,,,,,,,,,,,,,2022-08-31 14:30:16.559760+00:00,1.032488640164207,0.013852188451808954,1.5670466836105965,-1.379918207321127,0.7426042349183154,0.459582596,331.71304345368895,0.2509791278847024,0.1732376344139306,,,,,,,,0.15641129854397254,-0.9876920095291792,,,,,,,,,,,,
2022-08-31 08:30:16.759548-06:00,5.800446,1.65,0.53,-1.5,0.43,19.19,866.47,82.3,16.0,0.0,-0.000471902,-0.000360576,-0.000371679,33.994332,-106.894678,1363.08413,-12.7620299,2.36626803,0.0246014617,1.80132,17.1994,22992.2,27.2487,11864.0,0.0999318,-1.0,12.0,-1194.0,88.0,,0.0,2022-08-31 07:30:14.947,2022-08-31 14:30:16.759548+00:00,1.032523958240425,0.013852785497859288,1.5909337934512218,-1.3462263440037594,0.8477882789089302,0.429628321,327.79925930167474,0.2508721712848605,0.17260586220385837,1.4949067220873427,334.37549501760816,-1.3439005176720547,0.6401122783684644,0.4595996058,0.17277136230449286,0.2505598942207892,0.6071416891675654,-0.7945935874865562,1.4564935835076063,0.17053662258445976,,,,,,,,,,
2022-08-31 08:30:16.959154-06:00,6.000052,1.31,0.28,-1.19,0.49,19.2,866.47,82.34,15.0,0.0,-0.0003949,-0.000314465,-0.000349956,33.9943321,-106.894678,1363.08071,-12.7533923,2.36696926,0.0247376119,,,,,,,,,,,,,,2022-08-31 14:30:16.959154+00:00,1.032488640164207,0.013852188451808954,1.222607121929786,-1.0991448240607267,0.5353959565909595,0.489650044,334.02918097641265,0.24847630392219097,0.16820776292482822,,,,,,,,0.6229359859216945,-0.7822728152273772,,,,,,,,,,,,
2022-08-31 08:30:17.159208-06:00,6.200106,1.47,0.28,-1.33,0.55,19.24,866.46,82.22,20.0,0.0,-0.000549888,-9.41942e-05,-0.000985132,33.9943321,-106.894678,1363.07974,-12.7417002,2.36888157,0.0261624002,,,,,,,,,,,,,,2022-08-31 14:30:17.159208+00:00,1.0323354776132005,0.013849759239829843,1.3590107069438457,-1.2355862661204793,0.5658945843197861,0.549014868,335.3923707323796,0.24945853790012887,0.1706051531931656,,,,,,,,0.16883789484694545,-0.9856438328644135,,,,,,,,,,,,
2022-08-31 08:30:17.360034-06:00,6.400932,1.6,0.51,-1.41,0.56,19.34,866.48,81.53,21.0,0.0,-2.64155e-05,8.37305e-05,-0.000105829,33.9943322,-106.894678,1363.07595,-12.7336006,2.36879948,0.0287831387,,,,,,,,,,,,,,2022-08-31 14:30:17.360034+00:00,1.0320063510023867,0.01384387681792976,1.4993151167575343,-1.2628246404540582,0.8082201103658193,0.559894171,327.38035972477235,0.25006568011670605,0.17113611577629478,,,,,,,,0.9536667167745473,0.3008650749363499,,,,,,,,,,,,
2022-08-31 08:30:17.559451-06:00,6.600349,1.71,0.41,-1.61,0.4,19.28,866.47,81.95,17.0,0.0,-0.00012901,-0.00019895,-0.000336336,33.9943323,-106.894678,1363.07461,-12.7235369,2.36948923,0.0367616281,,,,,,,,,,,,,,2022-08-31 14:30:17.559451+00:00,1.0322061825120743,0.013847413968849505,1.6615036351669055,-1.480362788799194,0.7544006516510404,0.39966366400000003,332.9963701766708,0.25175964939170864,0.17547115427109578,,,,,,,,0.8390356948144282,-0.5440763759135934,,,,,,,,,,,,
2022-08-31 08:30:17.759127-06:00,6.800025,2.18,0.43,-2.12,0.28,19.15,866.47,82.7,15.0,0.0,-9.04266e-05,9.27466e-05,-0.00036208,33.9943323,-106.894678,1363.0674099999999,-12.713647,2.3728404,0.0276567177,1.80141,16.6099,23088.1,27.2525,11912.0,0.123939,-1.0,14.0,-1186.0,88.0,,0.0,2022-08-31 07:30:15.971,2022-08-31 14:30:17.759127+00:00,1.0326652547109336,0.013855174206089402,2.1630473241243973,-1.9732956370051706,0.8859334373292806,0.27963792000000004,335.8217635608959,0.2570724928076948,0.18724592923027494,2.05008498546018,334.27467962352944,-1.8505807914539532,0.8663607767907469,0.329155557,0.18495667860725798,0.25610256097040546,0.7160052910605141,0.6980948525618481,-0.6715620246143639,0.15674182750744228,,,,,,,,,,
2022-08-31 08:30:17.959980-06:00,7.000878,2.56,0.62,-2.46,0.28,19.12,866.47,82.77,17.0,0.0,-0.000115685,8.35085e-05,-0.00147193,33.9943324,-106.894678,1363.06362,-12.7068461,2.36920371,0.0339722957,,,,,,,,,,,,,,2022-08-31 14:30:17.959980+00:00,1.0327712524446775,0.013856966287682642,2.5368005176185764,-2.2632899161167126,1.1458078468025437,0.27852807,333.1488375584164,0.261347306071966,0.19529748681719655,,,,,,,,0.5852980997815153,0.8108181882469999,,,,,,,,,,,,
2022-08-31 08:30:18.159725-06:00,7.200623,2.39,0.22,-2.38,0.13,19.16,866.48,82.44,23.0,0.0,-0.000166654,0.000353952,-0.00194604,33.9943324,-106.894678,1363.0554399999999,-12.693874,2.36869049,0.0300506193,,,,,,,,,,,,,,2022-08-31 14:30:18.159725+00:00,1.0326418446330539,0.013854618533538086,2.3897583336334867,-2.2731309748946296,0.7374418378050502,0.12805396,342.02606709689167,0.2602676764639517,0.19563270694142787,,,,,,,,0.9047316750191896,0.4259819200587879,,,,,,,,,,,,
2022-08-31 08:30:18.359599-06:00,7.400497,2.59,-0.24,-2.57,-0.11,19.11,866.47,82.74,19.0,0.0,-0.000246559,0.000158787,-0.00203136,33.9943325,-106.894678,1363.0578899999998,-12.6831912,2.36982363,0.0326435836,,,,,,,,,,,,,,2022-08-31 14:30:18.359599+00:00,1.0328065898583654,0.01385756375309204,2.5809928924543613,-2.5598250386880363,0.3298788902093032,-0.11203136,352.6568921555232,0.2628203196979565,0.20432227344117063,,,,,,,,0.5414445323918581,0.8407364737793658,,,,,,,,,,,,
2022-08-31 08:30:18.559093-06:00,7.599991,2.61,-0.17,-2.61,0.04,19.19,866.48,82.49,16.0,0.0,-0.000660158,8.60336e-05,-0.00083838,33.9943326,-106.894678,1363.05813,-12.6735968,2.36785438,0.0340489753,,,,,,,,,,,,,,2022-08-31 14:30:18.559093+00:00,1.0325358746825204,0.013852827069292332,2.6153429623803377,-2.5836207027252667,0.40610697521928735,0.03916162,351.06704148352793,0.263369806583113,0.2050969414508057,,,,,,,,0.12922993968872248,0.9916146543330474,,,,,,,,,,,,
2022-08-31 08:30:18.759938-06:00,7.800836,3.14,-0.46,-3.11,-0.13,19.1,866.47,82.79,16.0,0.0,2.35147e-05,-8.00421e-05,-0.000512576,33.9943326,-106.894678,1363.06155,-12.6634514,2.37049748,0.0295290168,,,,,,,,,,,,,,2022-08-31 14:30:18.759938+00:00,1.0328419296903537,0.013858161270951944,3.1439168020498216,-3.1352709794440248,0.23299944992914473,-0.130512576,355.74984425614787,0.27101228639814656,0.22352239860595194,,,,,,,,0.9594533713617399,0.28186739467804917,,,,,,,,,,,,
2022-08-31 08:30:18.959454-06:00,8.000352,3.16,-0.46,-3.12,-0.17,19.04,866.47,83.06,20.0,0.0,0.000434568,-0.00019675,-6.74544e-05,33.9943327,-106.894678,1363.0599599999998,-12.6525312,2.37148732,0.0319671813,,,,,,,,,,,,,,2022-08-31 14:30:18.959454+00:00,1.0330540194804951,0.013861747479953323,3.153956507982421,-3.1451891975737527,0.23500333127434833,-0.1700674544,355.726894389223,0.271166710341432,0.22389715058730655,,,,,,,,0.4124457807469509,0.910982150178607,,,,,,,,,,,,
2022-08-31 08:30:19.159840-06:00,8.200738,3.08,-0.56,-3.02,-0.19,18.98,866.48,83.47,22.0,0.0,3.38103e-05,3.5156e-05,-0.000472911,33.9943328,-106.894678,1363.05422,-12.6425928,2.37326786,0.0270707087,,,,,,,,,,,,,,2022-08-31 14:30:19.159840+00:00,1.033278121400363,0.013865377232251066,3.0714478568431525,-3.0693093655002635,0.11459474751822059,-0.190472911,357.86181633990526,0.2695312731665535,0.2212853946838457,,,,,,,,0.7207669542227045,-0.6931774647956508,,,,,,,,,,,,
2022-08-31 08:30:19.359448-06:00,8.400346,2.37,-0.16,-2.36,0.15,19.02,866.47,83.19,17.0,0.0,0.000361531,-0.00045136,-0.00173481,33.9943328,-106.894678,1363.05422,-12.631863,2.37287734,0.0310917697,,,,,,,,,,,,,,2022-08-31 14:30:19.359448+00:00,1.0331247354348698,0.01386294330286661,2.3659186493115794,-2.3383180130082506,0.3603330753642731,0.14826519,351.23967166862604,0.2599093229463049,0.19771857555610522,,,,,,,,0.7804949922670676,0.6251620326331647,,,,,,,,,,,,
2022-08-31 08:30:19.559519-06:00,8.600417,2.2,-0.16,-2.19,0.1,19.17,866.49,82.52,15.0,0.0,0.000318527,-0.000196319,-0.000602648,33.9943329,-106.894678,1363.05984,-12.6178539,2.371168,0.0245350274,1.80057,15.7688,23138.2,27.2592,11854.0,0.196207,-1.0,13.0,-1166.0,88.0,,0.0,2022-08-31 07:30:18.019,2022-08-31 14:30:19.559519+00:00,1.0326184361568493,0.013854062905963308,2.1960779296060533,-2.172256631294291,0.3225823936621281,0.09939735200000001,351.5532463766253,0.257744086326526,0.19297898963911073,2.4702253801905227,349.85550767087426,-2.4178960970267163,0.4162437031451828,0.0811865188,0.2005455848365413,0.26128125832515753,0.5246834741451982,0.8512973933702165,-1.8399524525815867,0.19723677529220923,,,,,,,,,,
2022-08-31 08:30:19.759893-06:00,8.800791,2.28,-0.13,-2.28,0.06,19.18,866.48,82.45,17.0,0.0,-0.000202005,-0.000841349,-0.000941982,33.994333,-106.894678,1363.05496,-12.6083292,2.36955724,0.0282394983,,,,,,,,,,,,,,2022-08-31 14:30:19.759893+00:00,1.032571195582691,0.013853424171635292,2.284500539472773,-2.2542363038546447,0.37062299069963334,0.059058018,350.6634276014403,0.2588452192447866,0.19532736161361552,,,,,,,,0.9723659913701167,-0.23346172882682537,,,,,,,,,,,,
2022-08-31 08:30:19.959497-06:00,9.000395,2.45,0.4,-2.4,0.29,19.14,866.48,82.66,22.0,0.0,-0.000626325,-0.000336657,-0.000315055,33.9943331,-106.894678,1363.0595899999998,-12.5949475,2.3677068,0.021408348,,,,,,,,,,,,,,2022-08-31 14:30:19.959497+00:00,1.0327125033517672,0.013855813105108718,2.4331819257190546,-2.2553601714761307,0.9130853084816586,0.28968494499999997,337.9593763677744,0.26037638994161677,0.19541760269002917,,,,,,,,0.47345109207441705,-0.8808201084293783,,,,,,,,,,,,
2022-08-31 08:30:20.159521-06:00,9.200419,2.47,0.37,-2.42,0.31,19.16,866.47,82.46,19.0,0.0,-6.56229e-05,-0.000283555,0.000277011,33.9943332,-106.894678,1363.05947,-12.584047,2.36883811,0.0169050653,,,,,,,,,,,,,,2022-08-31 14:30:20.159521+00:00,1.0326299269679649,0.013854576950413955,2.4483621489656895,-2.2815365563801437,0.8882950829476229,0.310277011,338.7270108056345,0.26062532078840184,0.1962123180879457,,,,,,,,0.9742501330317714,-0.22546990550309737,,,,,,,,,,,,
2022-08-31 08:30:20.359142-06:00,9.40004,2.63,0.48,-2.56,0.31,19.09,866.48,82.72,16.0,0.0,8.18081e-05,-0.000582619,-0.000285797,33.9943332,-106.894678,1363.05325,-12.5693088,2.36917716,0.0174643938,,,,,,,,,,,,,,2022-08-31 14:30:20.359142+00:00,1.032889192460608,0.013858800451689307,2.605179063006351,-2.3947704949696127,1.025686222365127,0.309714203,336.81442760019365,0.262519152610796,0.19959446791003368,,,,,,,,0.990285316285676,0.1390503230811735,,,,,,,,,,,,
2022-08-31 08:30:20.559669-06:00,9.600567,2.47,0.73,-2.34,0.37,19.2,866.46,82.84,16.0,0.0,-0.000157767,0.000113222,-0.00169084,33.9943333,-106.894678,1363.04543,-12.5598477,2.36661491,0.0146063597,,,,,,,,,,,,,,2022-08-31 14:30:20.559669+00:00,1.0324767241297204,0.01385214688462698,2.4510474082275473,-2.1251438909602207,1.2212275955338676,0.36830915999999997,330.11589436433604,0.2595347773889119,0.1918628860090391,,,,,,,,0.5830483697630697,0.8124374428327554,,,,,,,,,,,,
2022-08-31 08:30:20.759208-06:00,9.800106,2.18,0.73,-1.99,0.47,19.21,866.47,82.11,21.0,0.0,-0.000109755,-0.000509138,-0.00148826,33.9943334,-106.894678,1363.0389599999999,-12.5468392,2.36660018,0.0208263411,1.80101,16.598,23067.5,27.2625,11890.0,0.182642,-1.0,12.0,-1174.0,88.0,,0.0,2022-08-31 07:30:19.043,2022-08-31 14:30:20.759208+00:00,1.0324533245040564,0.013851591458147898,2.1200390223209626,-1.7844019412607257,1.1447598735929636,0.46851173999999995,327.3183262110457,0.25527541815501614,0.18300738668841934,2.2753608712687785,335.5949522283076,-2.0590762400881077,0.9396611478983805,0.3214340118,0.1902763561857485,0.25802343043680775,0.9775444159294476,-0.21072948271458158,1.3524685789375692,0.18218743287817898,,,,,,,,,,
2022-08-31 08:30:20.959882-06:00,10.00078,2.13,0.16,-2.11,0.25,19.15,866.48,83.2,21.0,0.0,-0.000320079,0.000741751,-0.000416744,33.9943335,-106.894678,1363.0414099999998,-12.5349548,2.36715827,0.0196640616,,,,,,,,,,,,,,2022-08-31 14:30:20.959882+00:00,1.032677172783743,0.013855215793111523,2.1152549374297354,-2.024238196193139,0.6138103741332668,0.249583256,343.1311060992776,0.25663797384605497,0.18921524313765414,,,,,,,,0.9181625938938456,0.3962038000500818,,,,,,,,,,,,
2022-08-31 08:30:21.159989-06:00,10.200887,2.09,0.25,-2.07,0.21,19.15,866.48,82.61,17.0,0.0,-0.000132612,-0.000303258,0.0010517,33.9943335,-106.894678,1363.04385,-12.5247716,2.3658451,0.0298112158,,,,,,,,,,,,,,2022-08-31 14:30:21.159989+00:00,1.032677172783743,0.013855215793111523,2.0852839253592963,-1.96682667705684,0.6928216738666771,0.21105169999999998,340.59500686668497,0.2561498301832599,0.18770179718359634,,,,,,,,0.9162276324536938,-0.4006581155153344,,,,,,,,,,,,
2022-08-31 08:30:21.359453-06:00,10.400351,1.94,0.62,-1.78,0.46,19.2,866.49,82.37,15.0,0.0,-0.0002825,0.000280885,0.00124578,33.9943336,-106.894678,1363.04385,-12.5149878,2.36836624,0.0240070751,,,,,,,,,,,,,,2022-08-31 14:30:21.359453+00:00,1.0325124722331802,0.013852271587237893,1.8844998103144013,-1.603074273508447,0.9907029871209532,0.46124578,328.28385495382463,0.2529691281611366,0.17889431245302245,,,,,,,,0.7050768912420831,0.7091308605866761,,,,,,,,,,,,
2022-08-31 08:30:21.559589-06:00,10.600487,1.78,0.53,-1.65,0.41,19.22,866.47,82.01,17.0,0.0,0.000154686,-0.000343648,0.00179069,33.9943336,-106.894678,1363.04507,-12.5063572,2.3681821,0.0317206007,1.79663,16.4666,23018.1,27.2657,11911.0,0.232909,-1.0,13.0,-1191.0,88.0,,0.0,2022-08-31 07:30:20.067,2022-08-31 14:30:21.559589+00:00,1.0324180112597252,0.013850994516869322,1.7334067633216685,-1.496422018909528,0.874882934141497,0.41179068999999996,329.68731435213215,0.25167679752053446,0.17658666850393578,1.7315722496657173,329.5128057586232,-1.4950528926480398,0.8519188026064273,0.42739693440000004,0.17708462038432,0.2518304204156697,0.9118774106289331,0.41046265114462255,0.16318213786909896,0.15324022885261374,,,,,,,,,,
2022-08-31 08:30:21.759417-06:00,10.800315,1.64,0.53,-1.5,0.4,19.23,866.47,82.08,22.0,0.0,7.68009e-06,0.000388603,0.00200025,33.9943337,-106.894678,1363.04702,-12.4957193,2.37162044,0.0276124815,1.79663,16.4666,23018.1,27.2657,11911.0,0.232909,-1.0,13.0,-1191.0,88.0,,0.0,2022-08-31 07:30:20.067,2022-08-31 14:30:21.759417+00:00,1.032382700430966,0.013850397627966434,1.5905546253853353,-1.3494053234851628,0.8420031408994788,0.40200025,328.03662465564696,0.2502955200583237,0.17365352232773812,1.6238925016423837,326.4142818328174,-1.3554310894033055,0.8903526908087063,0.4833214544000001,0.17398424912369545,0.25053151488350156,0.9998047625508588,-0.01975947318682318,0.9169614648881679,0.1739163467813858,,,,,,,,,,
2022-08-31 08:30:21.959194-06:00,11.000092,1.51,0.61,-1.22,0.65,19.28,866.46,81.84,19.0,0.0,-0.000107719,-0.000234993,0.000896252,33.9943337,-106.894679,1363.04434,-12.4834526,2.37099363,0.0252541984,,,,,,,,,,,,,,2022-08-31 14:30:21.959194+00:00,1.0321942697374542,0.013847372432818616,1.364116123947885,-1.0595361702802208,0.8591832770035298,0.650896252,320.96122796482723,0.24806082615509406,0.16858680145330718,,,,,,,,0.909044491953709,-0.41669906605201695,,,,,,,,,,,,
2022-08-31 08:30:22.159501-06:00,11.200399,1.62,0.59,-1.43,0.49,19.27,866.46,82.59,16.0,0.0,4.30478e-05,8.76507e-05,0.0006743,33.9943337,-106.894679,1363.0448199999998,-12.4740203,2.37171776,0.0287229477,,,,,,,,,,,,,,2022-08-31 14:30:22.159501+00:00,1.0322295680846856,0.013847969056052766,1.546885185242629,-1.268717660833169,0.8849911148780731,0.4906743,325.1023872376558,0.24965530252241896,0.17219994088047372,,,,,,,,0.8975895166673933,-0.44083223517432946,,,,,,,,,,,,
2022-08-31 08:30:22.359245-06:00,11.400143,1.41,0.7,-0.98,0.73,19.2,866.47,82.26,15.0,0.0,-0.000193562,4.22522e-06,0.00185121,33.9943338,-106.894679,1363.0434799999998,-12.4647627,2.36906401,0.0202064214,,,,,,,,,,,,,,2022-08-31 14:30:22.359245+00:00,1.032488640164207,0.013852188451808954,1.2041788668113673,-0.8058087294470534,0.8948290534074284,0.73185121,312.00357239027096,0.24647332053417892,0.16511574560138567,,,,,,,,0.021823569250478285,0.999761837551909,,,,,,,,,,,,
2022-08-31 08:30:22.559807-06:00,11.600705,1.19,0.49,-0.86,0.66,19.32,866.47,82.24,19.0,0.0,-0.000269608,-0.000460895,0.00168996,33.9943338,-106.894679,1363.04604,-12.4550201,2.36711998,0.0198444213,,,,,,,,,,,,,,2022-08-31 14:30:22.559807+00:00,1.0320650116319823,0.013845027983625543,0.9899590609811445,-0.7345415063030363,0.6636774200895611,0.66168996,317.9013639649665,0.24580073432944563,0.1643149286149565,,,,,,,,0.8631648261041702,-0.5049222543882944,,,,,,,,,,,,
2022-08-31 08:30:22.759883-06:00,11.800781,1.52,0.75,-1.08,0.78,19.37,866.48,81.56,21.0,0.0,-0.000276559,0.0001936,0.0011432,33.9943339,-106.894679,1363.04324,-12.4458014,2.36774262,0.0152858835,1.80103,15.4739,23006.0,27.2698,11851.0,0.2909,-1.0,14.0,-1180.0,88.0,,0.0,2022-08-31 07:30:21.091,2022-08-31 14:30:22.759883+00:00,1.0319005114340492,0.013842088180347118,1.314541942524005,-0.8927897379495109,0.9648559490757304,0.7811432,312.7783598840387,0.24703190515325738,0.16630524093258925,1.4138821372329893,321.0746127873628,-1.1120380946988313,0.845178611726481,0.59101793074,0.17057309507101065,0.24875846875277804,0.5734796402338789,0.8192198131376102,-0.4263109139548091,0.17612011105575157,,,,,,,,,,
2022-08-31 08:30:22.959986-06:00,12.000884,1.61,0.45,-1.48,0.46,19.3,866.47,81.86,17.0,0.0,-0.000245879,-0.000397682,5.50417e-05,33.9943339,-106.894679,1363.0410399999998,-12.4368863,2.36645819,0.0222804245,,,,,,,,,,,,,,2022-08-31 14:30:22.959986+00:00,1.0321355922448483,0.013846220871594803,1.547126307716088,-1.3487539300758362,0.7579331422574167,0.4600550417,330.66616236917275,0.24999500877789996,0.1738399804334457,,,,,,,,0.850557051391238,-0.5258827838298595,,,,,,,,,,,,
2022-08-31 08:30:23.159724-06:00,12.200622,2.04,0.54,-1.94,0.32,19.16,866.48,82.55,15.0,0.0,-0.00020568,5.85587e-05,0.000350242,33.994334,-106.894679,1363.0476299999998,-12.42621,2.36608087,0.0218467074,,,,,,,,,,,,,,2022-08-31 14:30:23.159724+00:00,1.0326418446330539,0.013854618533538086,2.0136045081323424,-1.7782965697187199,0.944597493802268,0.320350242,332.0236053283652,0.25449137496910834,0.1832895797726761,,,,,,,,0.27382604841421687,0.9617792341332053,,,,,,,,,,,,
2022-08-31 08:30:23.359939-06:00,12.400837,1.63,0.68,-1.42,0.44,19.22,866.47,82.23,17.0,0.0,9.20005e-05,-0.000478938,0.000471859,33.994334,-106.894679,1363.0527599999998,-12.4181363,2.36729546,0.0238720188,,,,,,,,,,,,,,2022-08-31 14:30:23.359939+00:00,1.0324180112597252,0.013850994516869322,1.574854567675709,-1.2410267437267786,0.9695460436121398,0.440471859,322.0014424399665,0.2494488185624894,0.17189045789513488,,,,,,,,0.9820455777641357,0.18864379977593987,,,,,,,,,,,,
2022-08-31 08:30:23.560041-06:00,12.600939,1.86,0.77,-1.63,0.45,19.2,866.47,82.25,22.0,0.0,3.75717e-05,0.000488117,0.00110274,33.9943341,-106.894678,1363.06033,-12.4009597,2.36780899,0.0280570842,1.79832,15.9819,23051.1,27.2729,11861.0,0.376576,-1.0,12.0,-1157.0,88.0,,0.0,2022-08-31 07:30:22.115,2022-08-31 14:30:23.560041+00:00,1.032488640164207,0.013852188451808954,1.8023568868031021,-1.4261230352067886,1.102117705083784,0.45110274,322.3029034592789,0.25126727227832596,0.1755242112764142,1.8893178563237796,325.78407560653295,-1.5644137270784002,1.05246646665702,0.4242616886,0.17872383846193068,0.2526261401242767,0.9970506981805416,-0.07674571817172933,1.1694244803943332,0.17767740242459926,,,,,,,,,,
2022-08-31 08:30:23.759486-06:00,12.800384,2.25,0.78,-2.08,0.37,19.16,866.46,83.17,19.0,0.0,-0.000365567,0.000167098,2.3018e-05,33.9943341,-106.894679,1363.06326,-12.391188,2.36938802,0.0307404685,1.79832,15.9819,23051.1,27.2729,11861.0,0.376576,-1.0,12.0,-1157.0,88.0,,0.0,2022-08-31 07:30:22.115,2022-08-31 14:30:23.759486+00:00,1.0326180093028758,0.013854535367644926,2.2211019407276513,-1.8640035219850364,1.2078015984140433,0.370023018,327.0583360183249,0.2560256627024071,0.18552874959327859,1.8725694140673377,325.5933437149547,-1.5465617181926843,1.050257878240818,0.48206509100000006,0.17833935175170512,0.25240931841086345,0.4157220131406719,0.9094917304683242,-0.9699697738960056,0.21104942851496333,,,,,,,,,,
2022-08-31 08:30:23.959849-06:00,13.000747,1.91,0.69,-1.7,0.54,19.29,866.47,81.96,16.0,0.0,-0.00017226,-9.14999e-05,-0.000639416,33.9943342,-106.894679,1363.06558,-12.3805961,2.37107696,0.029637953,,,,,,,,,,,,,,2022-08-31 14:30:23.959849+00:00,1.0321708861715424,0.013846817394058079,1.8346713782800927,-1.5126187647546783,1.0382694923728646,0.5393605840000001,325.53409078672934,0.2518975721090526,0.17738619377214968,,,,,,,,0.4691023467704447,-0.8831438094978991,,,,,,,,,,,,
2022-08-31 08:30:24.159411-06:00,13.200309,2.02,0.55,-1.85,0.61,19.31,866.45,82.28,16.0,0.0,1.63467e-05,0.000195969,-0.000632746,33.9943342,-106.894679,1363.06899,-12.3697438,2.37257049,0.0241811916,,,,,,,,,,,,,,2022-08-31 14:30:24.159411+00:00,1.0320764776264841,0.013845541353093311,1.9298622968501327,-1.68903652529014,0.9335545517212581,0.609367254,331.06994587047404,0.25340726640204214,0.18136714622154831,,,,,,,,0.9965390425424838,-0.08312602894707281,,,,,,,,,,,,
2022-08-31 08:30:24.359378-06:00,13.400276,2.06,0.66,-1.85,0.63,19.3,866.47,81.74,20.0,0.0,0.00010191,0.000107315,-0.00083128,33.9943343,-106.894679,1363.0709499999998,-12.3546586,2.3724516,0.0314602798,,,,,,,,,,,,,,2022-08-31 14:30:24.359378+00:00,1.0321355922448483,0.013846220871594803,1.9641676468123928,-1.6658350486372486,1.0406479402354418,0.62916872,328.0069594668436,0.2533775898901105,0.18088067241804157,,,,,,,,0.725131852867964,-0.6886100463660644,,,,,,,,,,,,
2022-08-31 08:30:24.559754-06:00,13.600652,2.18,0.57,-2.02,0.59,19.27,866.46,82.52,21.0,0.0,-6.09425e-05,0.000310764,-0.000740518,33.9943343,-106.894678,1363.07632,-12.3435762,2.3700825,0.0249037243,1.79794,15.7294,23108.2,27.276,11911.0,0.488557,-1.0,12.0,-1187.0,88.0,,0.0,2022-08-31 07:30:23.139,2022-08-31 14:30:24.559754+00:00,1.0322295680846856,0.013847969056052766,2.098577820595089,-1.8511425990049388,0.9885848204594652,0.589259482,331.89598462527033,0.2552390057243159,0.18537304295460574,2.022255734438757,331.2979323888279,-1.773538766521336,0.9695785082198043,0.5431967996,0.1834902249949441,0.25435200109573547,0.9813087514583003,0.19243994988398797,0.6101561639953017,0.17694589997381646,,,,,,,,,,
2022-08-31 08:30:24.759653-06:00,13.800551,2.11,0.55,-1.98,0.47,19.23,866.47,82.63,17.0,0.0,-0.000153316,-3.83032e-05,-0.0013796,33.9943344,-106.894678,1363.0768099999998,-12.3330018,2.37095757,0.0286863155,,,,,,,,,,,,,,2022-08-31 14:30:24.759653+00:00,1.032382700430966,0.013850397627966434,2.054931816651004,-1.8168690512819874,0.9600685504578754,0.4686204,332.14716562354806,0.2547624116548571,0.1845509886395239,,,,,,,,0.24238196369955733,-0.9701809025502133,,,,,,,,,,,,
2022-08-31 08:30:24.959535-06:00,14.000433,2.1,0.51,-2.0,0.42,19.15,866.48,83.03,15.0,0.0,-0.000101539,0.000242041,-0.000431858,33.9943344,-106.894678,1363.0834,-12.3243498,2.37091425,0.0223257278,,,,,,,,,,,,,,2022-08-31 14:30:24.959535+00:00,1.032677172783743,0.013855215793111523,2.063739091285164,-1.8448106083923648,0.9250366782249808,0.419568142,333.36960635800347,0.2549737318073518,0.18527927474100106,,,,,,,,0.9221428292377125,0.38684958638399364,,,,,,,,,,,,
2022-08-31 08:30:25.159476-06:00,14.200374,2.16,0.4,-2.09,0.34,19.15,866.48,82.53,18.0,0.0,-1.23779e-05,-0.000420216,-0.000643345,33.9943345,-106.894678,1363.08279,-12.3146328,2.37199905,0.0193172694,,,,,,,,,,,,,,2022-08-31 14:30:25.159476+00:00,1.032677172783743,0.013855215793111523,2.1283147925237835,-1.9570197285425346,0.8365390834688239,0.339356655,336.855442024069,0.2560060448972863,0.18815126305646962,,,,,,,,0.9995664529127019,-0.029443271073700587,,,,,,,,,,,,
2022-08-31 08:30:25.359470-06:00,14.400368,1.99,0.19,-1.96,0.29,19.19,866.48,82.98,23.0,0.0,-8.22259e-05,0.000332347,-0.000936178,33.9943345,-106.894678,1363.08279,-12.3092965,2.37110296,0.016322845,,,,,,,,,,,,,,2022-08-31 14:30:25.359470+00:00,1.0325358746825204,0.013852827069292332,1.9688460953866027,-1.8741033124259732,0.6034001339683867,0.28906382199999997,342.1531348581512,0.2544921193238506,0.18606649234980918,,,,,,,,0.9707312378280133,0.24016840738301348,,,,,,,,,,,,
2022-08-31 08:30:25.559768-06:00,14.600666,1.76,0.54,-1.59,0.51,19.24,866.46,82.74,19.0,0.0,-2.60671e-05,0.000288532,-0.000668981,33.9943345,-106.894678,1363.0877899999998,-12.2898537,2.37341436,0.0174827499,,,,,,,,,,,,,,2022-08-31 14:30:25.559768+00:00,1.0323354776132005,0.013849759239829843,1.6789356022988247,-1.438330914165517,0.86604211099825,0.509331019,328.9471796026927,0.25065840572156844,0.17616956375775364,,,,,,,,0.9959438050210218,0.08997742628153486,,,,,,,,,,,,
2022-08-31 08:30:25.759358-06:00,14.800256,2.05,0.53,-1.94,0.44,19.26,866.46,82.57,16.0,0.0,-0.000316938,-0.000211923,-0.000398456,33.9943345,-106.894678,1363.0932899999998,-12.2804289,2.37473266,0.0226948783,1.79821,15.5825,23103.0,27.2797,11901.0,0.605982,-1.0,16.0,-1181.0,88.0,,0.0,2022-08-31 07:30:24.163,2022-08-31 14:30:25.759358+00:00,1.032264868846222,0.013848565731628158,2.0111354971184374,-1.783092178418553,0.9301872236450061,0.439601544,332.45026332588515,0.25421337695802426,0.18390289112868063,1.9529975451987098,333.1125208005934,-1.7369857962993567,0.8775223937350969,0.39157665360000005,0.1829305093363193,0.2536602151099541,0.5558454588512773,-0.8312856463781947,1.9316981980244101,0.18417486579683098,,,,,,,,,,
2022-08-31 08:30:25.960025-06:00,15.000923,2.08,0.66,-1.93,0.4,19.2,866.49,82.85,15.0,0.0,4.43919e-05,0.000260735,-0.000363208,33.9943345,-106.894678,1363.0938999999998,-12.2691693,2.37542352,0.0160757309,,,,,,,,,,,,,,2022-08-31 14:30:25.960025+00:00,1.0325124722331802,0.013852271587237893,2.039530198296054,-1.745405146029875,1.055103931361253,0.399636792,328.8468813979766,0.2540805680712752,0.18304723969350636,,,,,,,,0.9858139923176129,-0.16784151021368185,,,,,,,,,,,,
2022-08-31 08:30:26.159400-06:00,15.200298,2.09,0.52,-2.0,0.32,19.2,866.46,82.94,20.0,0.0,-1.16202e-05,-5.71127e-05,0.000250091,33.9943345,-106.894678,1363.0973099999999,-12.2616413,2.37716539,0.0269018483,,,,,,,,,,,,,,2022-08-31 14:30:26.159400+00:00,1.0324767241297204,0.01385214688462698,2.0665403328936303,-1.8439974304568663,0.9328785687025882,0.320250091,333.1651448182612,0.2548566054750521,0.1854663597518467,,,,,,,,0.9799230625687669,-0.19937600519081647,,,,,,,,,,,,
2022-08-31 08:30:26.359824-06:00,15.400722,2.12,0.51,-2.03,0.35,19.2,866.48,83.04,22.0,0.0,0.000280907,0.000318022,-0.000164861,33.9943345,-106.894678,1363.09231,-12.2486645,2.37532503,0.0215795296,,,,,,,,,,,,,,2022-08-31 14:30:26.359824+00:00,1.0325005561986935,0.013852230019345926,2.092923597216058,-1.8752721672821002,0.929345728133991,0.34983513899999996,333.63794521273365,0.25517924375819645,0.18630234437810236,,,,,,,,0.749487750509552,-0.6620182111061081,,,,,,,,,,,,
2022-08-31 08:30:26.559781-06:00,15.600679,2.09,0.66,-1.95,0.38,19.16,866.47,83.13,17.0,0.0,0.000100049,0.000141897,-0.000521521,33.9943345,-106.894678,1363.0928,-12.243323,2.37462951,0.0233503897,,,,,,,,,,,,,,2022-08-31 14:30:26.559781+00:00,1.0326299269679649,0.013854576950413955,2.0585943615042037,-1.7655448634790307,1.0586132817321494,0.379478479,329.05327522178965,0.25425446787153455,0.18361611726001284,,,,,,,,0.8172759739004652,-0.5762464598459986,,,,,,,,,,,,
2022-08-31 08:30:26.759416-06:00,15.800314,2.01,0.42,-1.92,0.42,19.22,866.47,82.25,15.0,0.0,-5.40164e-05,-0.000189547,-0.000258988,33.9943346,-106.894678,1363.0917,-12.2342961,2.37327796,0.0223513944,1.79775,15.5569,23120.3,27.2833,11852.0,0.707182,0.201977,14.0,-1169.0,88.0,,0.0,2022-08-31 07:30:25.187,2022-08-31 14:30:26.759416+00:00,1.0324180112597252,0.013850994516869322,1.9655506431050305,-1.7875827334756644,0.8172743123274283,0.41974101199999997,335.4303463279905,0.25390265733987877,0.18417155403040558,2.0911296280828164,334.3147583162807,-1.881465055871314,0.9030747233603847,0.3533527406,0.1865498049562989,0.25517246920076486,0.9617112030275993,-0.2740648864251087,1.3841405854769144,0.17359904617539249,,,,,,,,,,
2022-08-31 08:30:26.959274-06:00,16.000172,2.2,0.29,-2.16,0.32,19.12,866.47,83.19,18.0,0.0,-0.000528424,-0.000168346,-0.000684357,33.9943346,-106.894678,1363.08853,-12.2252896,2.37251071,0.0173998005,,,,,,,,,,,,,,2022-08-31 14:30:26.959274+00:00,1.0327712524446775,0.013856966287682642,2.179359415768812,-2.0497756995551955,0.7402884874244545,0.319315643,340.1425179594591,0.25669534987654574,0.1909080875980738,,,,,,,,0.30354926943526117,-0.9528157434810359,,,,,,,,,,,,
2022-08-31 08:30:27.159667-06:00,16.200565,2.18,0.54,-2.09,0.3,19.16,866.47,83.21,23.0,0.0,-0.000207407,-0.00076056,-0.00160657,33.9943346,-106.894678,1363.0891399999998,-12.217404,2.36936616,0.023002637,,,,,,,,,,,,,,2022-08-31 14:30:27.159667+00:00,1.0326299269679649,0.013854576950413955,2.1592201228199794,-1.9291498155645794,0.9698518071839004,0.29839343,333.3097068594304,0.25583062715766897,0.18775092151489994,,,,,,,,0.9647697634226248,-0.263095616811555,,,,,,,,,,,,
2022-08-31 08:30:27.359348-06:00,16.400246,2.21,0.73,-2.05,0.35,19.15,866.47,83.09,20.0,0.0,-8.25745e-05,-0.000209077,-0.000617533,33.9943346,-106.894678,1363.0949999999998,-12.209329,2.36651711,0.0168647512,,,,,,,,,,,,,,2022-08-31 14:30:27.359348+00:00,1.0326652547109336,0.013855174206089402,2.176231580127286,-1.8494578218480338,1.146947974211747,0.349382467,328.19472953957796,0.25534093824857906,0.1857774573365346,,,,,,,,0.9300881978174105,-0.36733628228200044,,,,,,,,,,,,
2022-08-31 08:30:27.559045-06:00,16.599943,2.2,0.69,-2.05,0.39,19.17,866.47,83.03,15.0,0.0,-0.000231033,-0.000655678,-0.000726264,33.9943347,-106.894678,1363.0980499999998,-12.195297,2.36361978,0.0264162378,,,,,,,,,,,,,,2022-08-31 14:30:27.559045+00:00,1.0325946016420562,0.01385397974715499,2.163452154939947,-1.8586350631133663,1.1072492623072152,0.38927373600000004,329.2163697210885,0.25531517622162825,0.18604306393450004,,,,,,,,0.9431630069216355,-0.3323304716310844,,,,,,,,,,,,
2022-08-31 08:30:27.759264-06:00,16.800162,1.97,0.66,-1.81,0.39,19.19,866.46,83.02,16.0,0.0,-0.000305213,-0.000483418,-0.000452066,33.9943347,-106.894678,1363.09817,-12.194654,2.3642458,0.0233225353,1.80272,15.6122,23079.5,27.2863,11910.0,0.718405,0.207767,11.0,-1178.0,88.0,,0.0,2022-08-31 07:30:26.211,2022-08-31 14:30:27.759264+00:00,1.0325120417983296,0.013852743926781272,1.9268235118983517,-1.6302276937197682,1.0271350995041613,0.38954793400000004,327.7867663673164,0.25263727467706193,0.18061779213134946,2.082393213234621,329.968443402686,-1.8013308169173794,1.0393591736200651,0.3621829568,0.18472082695773034,0.254523486365973,0.8455707325527223,-0.5338634059853257,1.8405163030491518,0.1506841839768249,,,,,,,,,,
2022-08-31 08:30:27.959143-06:00,17.000041,2.16,0.45,-2.09,0.31,19.17,866.48,82.99,20.0,0.0,-0.000668078,-0.000339547,0.000963347,33.9943347,-106.894678,1363.10513,-12.1817066,2.36010076,0.0258828693,,,,,,,,,,,,,,2022-08-31 14:30:27.959143+00:00,1.0326065188994527,0.013854021326381612,2.1379304075693923,-1.9483239556564995,0.8802159913480546,0.310963347,335.68744555280745,0.2557661245289984,0.18837647243249508,,,,,,,,0.4530837313431033,-0.891467964871543,,,,,,,,,,,,
2022-08-31 08:30:28.159793-06:00,17.200691,2.04,0.65,-1.9,0.37,19.22,866.45,82.73,22.0,0.0,-0.000697084,0.000257503,0.0017473,33.9943347,-106.894678,1363.1114699999998,-12.1702588,2.36007098,0.019061751,,,,,,,,,,,,,,2022-08-31 14:30:28.159793+00:00,1.0323941808210197,0.013850911398441617,2.0075284116381273,-1.7200095502492285,1.035247540729148,0.3717473,328.95690583263956,0.25355791815359713,0.18278934895377238,,,,,,,,0.34651398118574184,0.938044807481395,,,,,,,,,,,,
2022-08-31 08:30:28.359821-06:00,17.400719,2.11,0.63,-1.97,0.42,19.25,866.48,82.79,17.0,0.0,-0.000440551,0.000159011,0.00142136,33.9943347,-106.894678,1363.1080599999998,-12.1644592,2.35731935,0.0136528546,,,,,,,,,,,,,,2022-08-31 14:30:28.359821+00:00,1.032324000016033,0.013849245555324354,2.0679268874171197,-1.792855538589065,1.0305292957762877,0.42142135999999997,330.1098084795372,0.25433077807335336,0.184548856688749,,,,,,,,0.3394992867715785,0.9406063120570634,,,,,,,,,,,,
2022-08-31 08:30:28.559064-06:00,17.599962,2.3,0.43,-2.23,0.3,19.2,866.49,82.95,15.0,0.0,-0.000616759,0.000198704,0.000934434,33.9943347,-106.894678,1363.10549,-12.1533703,2.35750612,0.0166069382,,,,,,,,,,,,,,2022-08-31 14:30:28.559064+00:00,1.0325124722331802,0.013852271587237893,2.2706546196038766,-2.089293961027555,0.8892261500553252,0.300934434,336.9448705998168,0.2574485011957648,0.19222405119286382,,,,,,,,0.30665258528685113,0.9518215126466151,,,,,,,,,,,,
2022-08-31 08:30:28.759010-06:00,17.799908,2.31,0.13,-2.3,0.18,19.25,866.48,82.67,17.0,0.0,-0.000698616,0.00053805,0.000645676,33.9943347,-106.894678,1363.1039099999998,-12.1435449,2.35858402,0.0113615929,1.7986,15.0552,23004.0,27.2896,11922.0,0.730384,0.219029,9.0,-1193.0,88.0,,0.0,2022-08-31 07:30:27.235,2022-08-31 14:30:28.759010+00:00,1.032324000016033,0.013849245555324354,2.3029669899825946,-2.220649320420358,0.6102241823019585,0.180645676,344.63464870010336,0.25833659844053775,0.1959127966870271,2.033031641573853,335.0542187954453,-1.8412098088383508,0.8356245247837238,0.36702513200000003,0.18622687381925251,0.2545567302562092,0.6101759538252876,0.7922659309685105,-0.948849811857958,0.1741765663279906,,,,,,,,,,
2022-08-31 08:30:28.960005-06:00,18.000903,1.9,0.38,-1.82,0.4,19.31,866.47,82.37,23.0,0.0,-0.000590521,0.000413261,0.00056602,33.9943347,-106.894678,1363.10708,-12.13647,2.35801307,0.0160118846,,,,,,,,,,,,,,2022-08-31 14:30:28.960005+00:00,1.0321003007317442,0.013845624401452884,1.8586299323245368,-1.6990174905489188,0.7535547704988446,0.40056602,336.08157207583446,0.25262654108550925,0.1824193175434877,,,,,,,,0.5733657798066735,0.8192995072296121,,,,,,,,,,,,
2022-08-31 08:30:29.159559-06:00,18.200457,1.75,0.58,-1.56,0.53,19.37,866.47,82.16,20.0,0.0,-0.000294951,-0.000956531,0.00155817,33.9943348,-106.894678,1363.1131799999998,-12.1311863,2.35887884,0.0155839306,,,,,,,,,,,,,,2022-08-31 14:30:29.159559+00:00,1.0318886023246476,0.01384204667897001,1.6649797785411384,-1.4042327336058578,0.8945882252862033,0.53155817,327.50019412193495,0.2500412324858805,0.1760293469841348,,,,,,,,0.9556008663970467,-0.2946641887661509,,,,,,,,,,,,
2022-08-31 08:30:29.359648-06:00,18.400546,1.7,0.77,-1.3,0.77,19.44,866.46,81.72,16.0,0.0,-0.00037289,-0.000193597,-6.92381e-05,33.9943348,-106.894678,1363.10989,-12.1219968,2.35986598,0.0167460766,,,,,,,,,,,,,,2022-08-31 14:30:29.359648+00:00,1.031629824325246,0.013837833573945095,1.5108158919767203,-1.1095117625781814,1.0254502953093683,0.7699307619,317.2547851204886,0.24782059528816283,0.1707382096094498,,,,,,,,0.4607797234216847,-0.8875145331111124,,,,,,,,,,,,
2022-08-31 08:30:29.559914-06:00,18.600812,2.19,0.64,-2.06,0.38,19.27,866.46,82.39,16.0,0.0,-3.67957e-05,0.000300479,9.82275e-05,33.9943348,-106.894678,1363.1145299999998,-12.108384,2.36243065,0.0113979049,1.8009,15.0322,23023.4,27.2936,11874.0,0.702086,0.223898,14.0,-1174.0,88.0,,0.0,2022-08-31 07:30:28.259,2022-08-31 14:30:29.559914+00:00,1.0322295680846856,0.013847969056052766,2.1568478126214083,-1.8796223320729892,1.0578338128374662,0.3800982275,330.6295990806947,0.2552741525323648,0.1868894760577726,1.898604101303576,328.7503041297799,-1.6273759968921362,0.9584718152357882,0.49429342485999994,0.18143745266526218,0.25255570205641636,0.9925854509337092,0.12154884859481481,0.7535595002799875,0.17879581186107954,,,,,,,,,,
2022-08-31 08:30:29.759415-06:00,18.800313,2.23,0.55,-2.14,0.32,19.22,866.48,82.77,20.0,0.0,-0.000123625,-0.000878309,-4.56345e-05,33.9943348,-106.894678,1363.1175799999999,-12.1037202,2.3664914,0.0184863876,1.8009,15.0322,23023.4,27.2936,11874.0,0.702086,0.223898,14.0,-1174.0,88.0,,0.0,2022-08-31 07:30:28.259,2022-08-31 14:30:29.759415+00:00,1.032429926479078,0.013851036076615593,2.2102782379319152,-1.9779801775089298,0.9863692546187532,0.3199543655,333.49571477353214,0.256234451691085,0.18939553950155377,1.9745475851670058,332.1062028977233,-1.7401728186903553,0.8903529231403425,0.47783210526,0.18407576348086593,0.25354517493847095,0.9902390342893522,-0.13937953569190525,1.1242066982799304,0.1805669793936807,,,,,,,,,,
2022-08-31 08:30:29.959829-06:00,19.000727,2.0,0.44,-1.9,0.47,19.36,866.46,82.05,23.0,0.0,-0.000172696,0.000121396,-7.44006e-05,33.9943348,-106.894678,1363.11599,-12.0931947,2.36776323,0.00816877287,,,,,,,,,,,,,,2022-08-31 14:30:29.959829+00:00,1.0319119698448727,0.013842601330415767,1.9500987854466962,-1.7655329786947227,0.8281174881271499,0.46992559939999995,334.8712275522494,0.25340807828458856,0.18413469117339995,,,,,,,,0.5750788738207356,0.8180979702242723,,,,,,,,,,,,
2022-08-31 08:30:30.159791-06:00,19.200689,2.09,0.13,-2.04,0.45,19.38,866.48,81.84,18.0,0.0,-0.000124229,-0.000615956,-0.000748428,33.9943348,-106.894678,1363.11196,-12.0820704,2.36997572,0.0160650053,,,,,,,,,,,,,,2022-08-31 14:30:30.159791+00:00,1.0318652364020375,0.013841492072377335,2.0446971978582895,-1.9682168425969533,0.5539937648089748,0.449251572,344.27968796165175,0.25498859689615355,0.18922090106215358,,,,,,,,0.9802617734766579,-0.19770395914193897,,,,,,,,,,,,
2022-08-31 08:30:30.360029-06:00,19.400927,2.16,-0.01,-2.12,0.37,19.23,866.47,82.71,16.0,0.0,0.00019018,-0.000384156,-0.000815505,33.9943347,-106.894678,1363.10647,-12.0745143,2.37216083,0.0101993401,,,,,,,,,,,,,,2022-08-31 14:30:30.360029+00:00,1.032382700430966,0.013850397627966434,2.120438524329255,-2.0755739184458672,0.43388068005719965,0.369184495,348.1928401384491,0.25593686965073764,0.19209782422598318,,,,,,,,0.8961913020512504,0.44366783760791634,,,,,,,,,,,,
2022-08-31 08:30:30.560020-06:00,19.600918,2.64,-0.21,-2.64,0.05,19.14,866.48,83.36,17.0,0.0,-5.29302e-05,-0.000172817,-0.000701331,33.9943347,-106.894678,1363.1076899999998,-12.0696011,2.36929766,0.0136141146,,,,,,,,,,,,,,2022-08-31 14:30:30.560020+00:00,1.0327125033517672,0.013855813105108718,2.6485035047233176,-2.6257247569730144,0.3466126298199477,0.049298669,352.4800658891491,0.26297636122076057,0.20826812085686536,,,,,,,,0.9561580769663716,-0.2928510403805495,,,,,,,,,,,,
2022-08-31 08:30:30.759681-06:00,19.800579,2.36,-0.14,-2.35,0.21,19.15,866.48,83.26,21.0,0.0,-0.000262266,-0.000952299,-0.000259861,33.9943347,-106.894678,1363.10513,-12.0552862,2.36832724,0.00491674903,1.79754,14.7876,23122.8,27.2972,11860.0,0.710439,0.232113,11.0,-1165.0,88.0,,0.0,2022-08-31 07:30:29.283,2022-08-31 14:30:30.759681+00:00,1.032677172783743,0.013855215793111523,2.355068604774107,-2.3283663957743563,0.3536354906134183,0.209740139,351.3638407416665,0.25885588242398716,0.19925407209023127,2.520710455674037,352.2820992570831,-2.497002165919139,0.3265303958399787,0.12619376659999998,0.2046244001520113,0.26124082102155743,0.9641059906823055,-0.2655176806363189,0.9778081344079027,0.19108807358933166,,,,,,,,,,
2022-08-31 08:30:30.959475-06:00,20.000373,2.55,-0.24,-2.54,0.08,19.17,866.48,82.99,20.0,0.0,-0.000419434,0.00082479,0.00104498,33.9943347,-106.894678,1363.11294,-12.0462388,2.37055603,-1.1072377e-05,,,,,,,,,,,,,,2022-08-31 14:30:30.959475+00:00,1.0326065188994527,0.013854021326381612,2.550445602922501,-2.533331365125308,0.2949660454002522,0.08104498,353.3587239617834,0.2614830691991485,0.2054907397804398,,,,,,,,0.8913636234267402,0.4532889705602293,,,,,,,,,,,,
2022-08-31 08:30:31.159205-06:00,20.200103,2.93,-0.41,-2.9,-0.08,19.16,866.48,83.15,16.0,0.0,-7.44926e-05,-0.000262494,0.00170055,33.9943347,-106.894678,1363.11538,-12.0338902,2.37109876,0.000443348646,,,,,,,,,,,,,,2022-08-31 14:30:31.159205+00:00,1.0326418446330539,0.013854618533538086,2.929096041621003,-2.9220143932771485,0.2035571333090758,-0.07829945,356.0150255543672,0.2669519226131533,0.21801124380653686,,,,,,,,0.9620119675035389,-0.27300727898715443,,,,,,,,,,,,
2022-08-31 08:30:31.359247-06:00,20.400145,3.27,-0.4,-3.24,-0.22,19.18,866.48,82.95,15.0,0.0,-2.4183e-05,0.00129428,0.0013898,33.9943347,-106.894678,1363.1209999999999,-12.0230188,2.37168099,-0.0029319921,,,,,,,,,,,,,,2022-08-31 14:30:31.359247+00:00,1.032571195582691,0.013853424171635292,3.263306500013672,-3.250954915053741,0.28365728144964664,-0.2186102,355.0133702833861,0.27267043279438863,0.22944278146535796,,,,,,,,0.9998254900552737,0.018681258943976896,,,,,,,,,,,,
2022-08-31 08:30:31.559611-06:00,20.600509,2.94,-0.38,-2.91,-0.11,19.25,866.47,82.69,19.0,0.0,0.000139693,-0.000808879,0.00207693,33.9943346,-106.894678,1363.12563,-12.0151172,2.37376237,-0.00208432828,,,,,,,,,,,,,,2022-08-31 14:30:31.559611+00:00,1.0323120860191721,0.013849204007260538,2.935523563699913,-2.926163175697449,0.23423847299207368,-0.10792307,355.4232494810658,0.2670918858188805,0.2181868424086447,,,,,,,,0.9854129376356572,0.1701803230113998,,,,,,,,,,,,
2022-08-31 08:30:31.759542-06:00,20.80044,2.52,-0.15,-2.51,0.11,19.15,866.48,83.22,21.0,0.0,-3.40456e-05,0.000166218,0.000257071,33.9943346,-106.894677,1363.12539,-11.9999599,2.37545274,-0.00769767658,1.79916,15.1814,23155.7,27.3002,11865.0,0.693919,-1.0,15.0,-1168.0,88.0,,0.0,2022-08-31 07:30:30.307,2022-08-31 14:30:31.759542+00:00,1.032677172783743,0.013855215793111523,2.5143086400322,-2.486171276013119,0.3751004181120958,0.110257071,351.4202252448482,0.2609855951988875,0.20416971068667622,2.9924795792079775,354.11079158534096,-2.976327597679911,0.3015588516031304,-0.10105989019999999,0.22016952786639066,0.2682699222114372,0.9796611319402919,0.20065908044607897,-0.30180167294860094,0.21158051060294772,,,,,,,,,,
2022-08-31 08:30:31.959374-06:00,21.000272,3.14,-0.39,-3.12,-0.14,19.11,866.47,83.49,17.0,0.0,-0.000197856,-0.000375602,0.000666555,33.9943346,-106.894677,1363.1313699999998,-11.9916717,2.37522174,0.00114280271,,,,,,,,,,,,,,2022-08-31 14:30:31.959374+00:00,1.0328065898583654,0.01385756375309204,3.1446379925473655,-3.133320482807747,0.26655366474642783,-0.139333445,355.13751720321295,0.27056045992907063,0.2253431099314188,,,,,,,,0.8847524086138868,-0.4660613430139061,,,,,,,,,,,,
2022-08-31 08:30:32.159799-06:00,21.200697,3.11,-0.3,-3.09,-0.15,19.13,866.48,83.29,15.0,0.0,0.000135461,-7.75473e-05,0.000310193,33.9943346,-106.894677,1363.13333,-11.9833979,2.37338681,-0.00182093911,,,,,,,,,,,,,,2022-08-31 14:30:32.159799+00:00,1.0327478363373752,0.013856410469536479,3.104621199746736,-3.0850281388274974,0.348244420715408,-0.149689807,353.55959571419146,0.2700412373159586,0.2237051948398556,,,,,,,,0.49681983428522924,0.8678537044115197,,,,,,,,,,,,
2022-08-31 08:30:32.359424-06:00,21.400322,2.83,-0.24,-2.82,-0.02,19.2,866.48,82.92,17.0,0.0,0.00012769,4.06549e-05,-4.43185e-05,33.9943346,-106.894677,1363.13601,-11.9767891,2.37351959,0.00104595276,,,,,,,,,,,,,,2022-08-31 14:30:32.359424+00:00,1.0325005561986935,0.013852230019345926,2.8301698104228135,-2.808376572007485,0.3505455542838781,-0.0200443185,352.8850582855285,0.2656110698468333,0.21442519576825964,,,,,,,,0.30338162304715915,-0.952869136239217,,,,,,,,,,,,
2022-08-31 08:30:32.559682-06:00,21.60058,2.78,-0.26,-2.77,-0.03,19.25,866.47,82.79,23.0,0.0,7.06785e-07,-0.000231153,-0.000564816,33.9943346,-106.894677,1363.13601,-11.9723257,2.37449631,0.00284397338,1.80195,15.1571,23100.1,27.3036,11865.0,0.615966,-1.0,15.0,-1168.0,88.0,,0.0,2022-08-31 07:30:31.331,2022-08-31 14:30:32.559682+00:00,1.0323120860191721,0.013849204007260538,2.7824051057331154,-2.763912058094717,0.3202628725411899,-0.030564815999999998,353.39044030306854,0.26482299024456674,0.21298045023302323,2.836987100229936,353.4918610714411,-2.818617085110195,0.32157895296791655,-0.045969969900000004,0.21483930628675624,0.26571066569788665,0.9999953254206255,0.0030576358346290394,0.3129591451180452,0.21483729773903307,,,,,,,,,,
2022-08-31 08:30:32.759962-06:00,21.80086,2.77,-0.3,-2.75,-0.03,19.27,866.48,82.6,20.0,0.0,-0.000279222,0.000295842,-0.000301933,33.9943345,-106.894677,1363.1436999999999,-11.9671068,2.3753898,0.00263154382,,,,,,,,,,,,,,2022-08-31 14:30:32.759962+00:00,1.0322533944486973,0.01384805213625377,2.7659929594597985,-2.7521428916270576,0.27645353289085056,-0.030301933,354.26386411447385,0.2645065588839092,0.21263183997738433,,,,,,,,0.7272393077581925,0.6863839954802159,,,,,,,,,,,,
2022-08-31 08:30:32.959458-06:00,22.000356,2.7,-0.25,-2.69,0.0,19.24,866.47,82.76,16.0,0.0,-0.000224512,-0.00018149,0.000751025,33.9943345,-106.894677,1363.1567599999998,-11.9544624,2.37502295,-0.00076516795,,,,,,,,,,,,,,2022-08-31 14:30:32.959458+00:00,1.0323473920175308,0.01384980079143244,2.7017464257872166,-2.6836257649942175,0.3123883844082563,0.000751025,353.3603469399435,0.2635714721981654,0.2104538506152583,,,,,,,,0.6286585952478939,-0.7776814068890581,,,,,,,,,,,,
2022-08-31 08:30:33.159430-06:00,22.200328,2.79,-0.19,-2.78,-0.13,19.24,866.47,82.74,16.0,0.0,-0.000390368,0.000525759,0.00107088,33.9943345,-106.894677,1363.16238,-11.9454695,2.37615788,0.00341464102,,,,,,,,,,,,,,2022-08-31 14:30:33.159430+00:00,1.0323473920175308,0.01384980079143244,2.7859100929225513,-2.7585997629964947,0.3891303039386949,-0.12892912,351.97078702603056,0.2649451507670481,0.21291325512571904,,,,,,,,0.8028869786729487,0.5961312770501344,,,,,,,,,,,,
2022-08-31 08:30:33.359782-06:00,22.40068,2.64,-0.06,-2.64,-0.12,19.28,866.47,82.37,20.0,0.0,-0.000167708,-0.000319429,0.00244185,33.9943345,-106.894677,1363.17349,-11.9362844,2.37700952,0.00412351327,,,,,,,,,,,,,,2022-08-31 14:30:33.359782+00:00,1.0322061825120743,0.013847413968849505,2.640964733547256,-2.5956473150822523,0.4871444750242204,-0.11755815,349.37052307819306,0.2627938233981237,0.20772858247978312,,,,,,,,0.8853890332311422,-0.46485079308744154,,,,,,,,,,,,
