Timestamp,Seconds,S,Um,Vm,Wm,T,P,H,MD,Sts,Vx,Vy,Vz,Lat,Lon,Alt,Yaw,Roll,Pitch,CH4,C2H6,H2O,T_a,Batt,R,C2C1,Power,Current,SOC,Lat_a,Lon_a,TS,Timestamp_UTC,Rho,Rho_err,Sc,V,U,W,WD,V_err,U_err,Sc_avg,WD_avg,V_avg,U_avg,W_avg,U_err_avg,V_err_avg,Nx,Ny,cross_wind,cross_wind_err,CH4_sub,CH4_res,CH4_adj,CH4_adj_err,BG_Samples_CH4,C2H6_sub,C2H6_res,C2H6_adj,C2H6_adj_err,BG_Samples_C2H6,x_dist,y_dist,s_dist,z_dist,velocity_s,velocity_z,x_src_dist,y_src_dist,s_src_dist,collecting,group,transect_num
2022-08-31 08:30:11.559824-06:00,0.600722,3.01,0.24,-3.0,0.22,19.08,866.5,83.07,16.0,0.0,-9.08134e-05,-0.000437714,4.21417e-05,33.9943304,-106.894679,1362.9927,-13.0797286,2.36794853,0.0320940467,1.80044,17.7815,22972.1,27.2318,11886.0,-0.0476175,-1.0,10.0,-1197.0,88.0,,0.0,2022-08-31 07:30:09.827,2022-08-31 14:30:11.559824+00:00,1.0329483793931233,0.013859481308080943,3.0099742574510717,-2.868292394960316,0.9126027435477864,0.2200421417,342.35052418071075,0.26965763415135163,0.21313526849890024,3.149550588838951,342.08925764277944,-2.98886573774785,0.9489327512206046,0.06202939812,0.21746652005276582,0.27175267624590577,0.9791484796032129,-0.2031458955793016,1.536321867664426,0.20879345857064743,,,,,,,,,,,-0.8462040158825446,0.1846267754566474,0.866111010616575,-0.2074000000000069,0.866111010616575,-0.2074000000000069,-802.0677156429383,517.9264595137392,954.7567428099779,False,,
2022-08-31 08:30:12.759186-06:00,1.800084,3.24,-0.33,-3.22,-0.04,19.11,866.48,82.81,23.0,0.0,-0.000148866,-4.88492e-05,6.58808e-05,33.9943307,-106.894679,1362.9950199999998,-13.0172608,2.37146136,0.0534895404,1.80315,17.338,22942.9,27.235,11858.0,-0.0559439,-1.0,11.0,-1186.0,88.0,,0.0,2022-08-31 07:30:10.851,2022-08-31 14:30:12.759186+00:00,1.0328185095623352,0.013857605355710923,3.236895669706624,-3.211632813281733,0.403618940608037,-0.0399341192,352.8369600833648,0.27313083048282616,0.22523138038837878,3.0495866863639485,350.6536500798197,-3.006758116003234,0.4897129060701818,-0.012245884654000005,0.2182267189972662,0.27031467020519445,0.3117850754803419,-0.9501526544233393,3.009564380512181,0.24495770593346125,,,,,,,,,,,-0.8128012267764502,0.18462677487187948,0.833506376849568,-0.20508000000018,-0.03260463376700706,0.002319999999826905,-802.0343128538321,517.9264595131544,954.7286821179878,False,,
2022-08-31 08:30:13.759302-06:00,2.8002,2.22,-0.04,-2.2,0.33,19.25,866.48,82.09,22.0,0.0,-0.000758794,-4.97174e-05,-0.000646582,33.994331,-106.894679,1363.0378699999999,-12.941127,2.36687009,0.0355846209,1.79995,17.7081,22898.8,27.2385,11896.0,0.00142513,-1.0,13.0,-1199.0,88.0,,0.0,2022-08-31 07:30:11.875,2022-08-31 14:30:13.759302+00:00,1.032324000016033,0.013849245555324354,2.200255924066207,-2.1531292335140835,0.4529466140457331,0.329353418,348.12010139772013,0.25841632283842525,0.1913856119772038,2.631898082753301,351.1867341125647,-2.599555030073167,0.3938978921023273,0.19180190139999997,0.20502202493571092,0.26403631751209816,0.06538141049112461,-0.9978603465225938,2.6197464828884933,0.2629090946279232,,,,,,,,,,,-0.7793984411812092,0.18462677546008222,0.8009675251422409,-0.162230000000136,-0.032538851707327066,0.04285000000004402,-802.000910068237,517.9264595137427,954.700621773507,False,,
2022-08-31 08:30:15.759173-06:00,4.800071,2.28,-0.18,-2.26,0.16,19.17,866.47,82.51,16.0,0.0,-0.000235665,-0.00014093,-0.000815985,33.9943316,-106.894678,1363.0980499999998,-12.8237825,2.36619277,0.0353259274,1.80296,16.6536,22960.3,27.2456,11865.0,0.111353,-1.0,11.0,-1188.0,88.0,,0.0,2022-08-31 07:30:13.923,2022-08-31 14:30:15.759173+00:00,1.0325946016420562,0.01385397974715499,2.2672623907613287,-2.243722033371197,0.32586835612774295,0.159184015,351.7363912879795,0.2589507868634797,0.19434703394335617,1.9919682321070646,345.43342321182223,-1.926644793321011,0.4746557174557301,0.281081243,0.18618880255596423,0.25596382017307445,0.5132393170893531,-0.8582455379398454,1.8971462733423292,0.19481384001875302,,,,,,,,,,,-0.7125928672104686,0.2769401626724465,0.7645158259318624,-0.10205000000019027,-0.036451699210378496,0.06017999999994572,-801.9341044942662,518.018772900955,954.6945883521242,False,,
2022-08-31 08:30:16.759548-06:00,5.800446,1.65,0.53,-1.5,0.43,19.19,866.47,82.3,16.0,0.0,-0.000471902,-0.000360576,-0.000371679,33.994332,-106.894678,1363.08413,-12.7620299,2.36626803,0.0246014617,1.80132,17.1994,22992.2,27.2487,11864.0,0.0999318,-1.0,12.0,-1194.0,88.0,,0.0,2022-08-31 07:30:14.947,2022-08-31 14:30:16.759548+00:00,1.032523958240425,0.013852785497859288,1.5909337934512218,-1.3462263440037594,0.8477882789089302,0.429628321,327.79925930167474,0.2508721712848605,0.17260586220385837,1.4949067220873427,334.37549501760816,-1.3439005176720547,0.6401122783684644,0.4595996058,0.17277136230449286,0.2505598942207892,0.6071416891675654,-0.7945935874865562,1.4564935835076063,0.17053662258445976,,,,,,,,,,,-0.6680558117734473,0.27694016076434136,0.7231835315384739,-0.11597000000006119,-0.04133229439338848,-0.013919999999870925,-801.8895674388292,518.0187728990469,954.6571779665552,False,,
2022-08-31 08:30:17.759127-06:00,6.800025,2.18,0.43,-2.12,0.28,19.15,866.47,82.7,15.0,0.0,-9.04266e-05,9.27466e-05,-0.00036208,33.9943323,-106.894678,1363.0674099999999,-12.713647,2.3728404,0.0276567177,1.80141,16.6099,23088.1,27.2525,11912.0,0.123939,-1.0,14.0,-1186.0,88.0,,0.0,2022-08-31 07:30:15.971,2022-08-31 14:30:17.759127+00:00,1.0326652547109336,0.013855174206089402,2.1630473241243973,-1.9732956370051706,0.8859334373292806,0.27963792000000004,335.8217635608959,0.2570724928076948,0.18724592923027494,2.05008498546018,334.27467962352944,-1.8505807914539532,0.8663607767907469,0.329155557,0.18495667860725798,0.25610256097040546,0.7160052910605141,0.6980948525618481,-0.6715620246143639,0.15674182750744228,,,,,,,,,,,-0.6346530195214063,0.27694015906064007,0.6924451652572723,-0.13269000000013875,-0.030738366281201635,-0.01672000000007756,-801.8561646465771,518.0187728973432,954.6291205781373,False,,
2022-08-31 08:30:19.559519-06:00,8.600417,2.2,-0.16,-2.19,0.1,19.17,866.49,82.52,15.0,0.0,0.000318527,-0.000196319,-0.000602648,33.9943329,-106.894678,1363.05984,-12.6178539,2.371168,0.0245350274,1.80057,15.7688,23138.2,27.2592,11854.0,0.196207,-1.0,13.0,-1166.0,88.0,,0.0,2022-08-31 07:30:18.019,2022-08-31 14:30:19.559519+00:00,1.0326184361568493,0.013854062905963308,2.1960779296060533,-2.172256631294291,0.3225823936621281,0.09939735200000001,351.5532463766253,0.257744086326526,0.19297898963911073,2.4702253801905227,349.85550767087426,-2.4178960970267163,0.4162437031451828,0.0811865188,0.2005455848365413,0.26128125832515753,0.5246834741451982,0.8512973933702165,-1.8399524525815867,0.19723677529220923,,,,,,,,,,,-0.5678474378453338,0.27694015677628536,0.6317804706563694,-0.14026000000012573,-0.060664694600902846,-0.007569999999986976,-801.7893590649011,518.0187728950589,954.5730068367781,False,,
2022-08-31 08:30:20.759208-06:00,9.800106,2.18,0.73,-1.99,0.47,19.21,866.47,82.11,21.0,0.0,-0.000109755,-0.000509138,-0.00148826,33.9943334,-106.894678,1363.0389599999999,-12.5468392,2.36660018,0.0208263411,1.80101,16.598,23067.5,27.2625,11890.0,0.182642,-1.0,12.0,-1174.0,88.0,,0.0,2022-08-31 07:30:19.043,2022-08-31 14:30:20.759208+00:00,1.0324533245040564,0.013851591458147898,2.1200390223209626,-1.7844019412607257,1.1447598735929636,0.46851173999999995,327.3183262110457,0.25527541815501614,0.18300738668841934,2.2753608712687785,335.5949522283076,-2.0590762400881077,0.9396611478983805,0.3214340118,0.1902763561857485,0.25802343043680775,0.9775444159294476,-0.21072948271458158,1.3524685789375692,0.18218743287817898,,,,,,,,,,,-0.5121761184970753,0.27694015424008284,0.5822544335505321,-0.1611400000001595,-0.04952603710583736,-0.02088000000003376,-801.7336877455529,518.0187728925226,954.5262464359787,False,,
2022-08-31 08:30:21.559589-06:00,10.600487,1.78,0.53,-1.65,0.41,19.22,866.47,82.01,17.0,0.0,0.000154686,-0.000343648,0.00179069,33.9943336,-106.894678,1363.04507,-12.5063572,2.3681821,0.0317206007,1.79663,16.4666,23018.1,27.2657,11911.0,0.232909,-1.0,13.0,-1191.0,88.0,,0.0,2022-08-31 07:30:20.067,2022-08-31 14:30:21.559589+00:00,1.0324180112597252,0.013850994516869322,1.7334067633216685,-1.496422018909528,0.874882934141497,0.41179068999999996,329.68731435213215,0.25167679752053446,0.17658666850393578,1.7315722496657173,329.5128057586232,-1.4950528926480398,0.8519188026064273,0.42739693440000004,0.17708462038432,0.2518304204156697,0.9118774106289331,0.41046265114462255,0.16318213786909896,0.15324022885261374,,,,,,,,,,,-0.48990759253702293,0.27694015385341464,0.5627657577018832,-0.15503000000012435,-0.019488675848648884,0.006110000000035143,-801.7114192195928,518.018772892136,954.5075425452478,False,,
2022-08-31 08:30:21.759417-06:00,10.800315,1.64,0.53,-1.5,0.4,19.23,866.47,82.08,22.0,0.0,7.68009e-06,0.000388603,0.00200025,33.9943337,-106.894678,1363.04702,-12.4957193,2.37162044,0.0276124815,1.79663,16.4666,23018.1,27.2657,11911.0,0.232909,-1.0,13.0,-1191.0,88.0,,0.0,2022-08-31 07:30:20.067,2022-08-31 14:30:21.759417+00:00,1.032382700430966,0.013850397627966434,1.5905546253853353,-1.3494053234851628,0.8420031408994788,0.40200025,328.03662465564696,0.2502955200583237,0.17365352232773812,1.6238925016423837,326.4142818328174,-1.3554310894033055,0.8903526908087063,0.4833214544000001,0.17398424912369545,0.25053151488350156,0.9998047625508588,-0.01975947318682318,0.9169614648881679,0.1739163467813858,,,,,,,,,,,-0.47877332945807144,0.2769401536121112,0.5531001262728719,-0.1530800000000454,-0.009665631429011334,0.0019500000000789441,-801.7002849565138,518.0187728918947,954.4981906571535,False,,
2022-08-31 08:30:22.759883-06:00,11.800781,1.52,0.75,-1.08,0.78,19.37,866.48,81.56,21.0,0.0,-0.000276559,0.0001936,0.0011432,33.9943339,-106.894679,1363.04324,-12.4458014,2.36774262,0.0152858835,1.80103,15.4739,23006.0,27.2698,11851.0,0.2909,-1.0,14.0,-1180.0,88.0,,0.0,2022-08-31 07:30:21.091,2022-08-31 14:30:22.759883+00:00,1.0319005114340492,0.013842088180347118,1.314541942524005,-0.8927897379495109,0.9648559490757304,0.7811432,312.7783598840387,0.24703190515325738,0.16630524093258925,1.4138821372329893,321.0746127873628,-1.1120380946988313,0.845178611726481,0.59101793074,0.17057309507101065,0.24875846875277804,0.5734796402338789,0.8192198131376102,-0.4263109139548091,0.17612011105575157,,,,,,,,,,,-0.4565048020219161,0.18462676931369146,0.49242631755043303,-0.1568600000000515,-0.06067380872243883,-0.003780000000006112,-801.6780164290776,517.9264595075963,954.4293894698205,False,,
2022-08-31 08:30:23.560041-06:00,12.600939,1.86,0.77,-1.63,0.45,19.2,866.47,82.25,22.0,0.0,3.75717e-05,0.000488117,0.00110274,33.9943341,-106.894678,1363.06033,-12.4009597,2.36780899,0.0280570842,1.79832,15.9819,23051.1,27.2729,11861.0,0.376576,-1.0,12.0,-1157.0,88.0,,0.0,2022-08-31 07:30:22.115,2022-08-31 14:30:23.560041+00:00,1.032488640164207,0.013852188451808954,1.8023568868031021,-1.4261230352067886,1.102117705083784,0.45110274,322.3029034592789,0.25126727227832596,0.1755242112764142,1.8893178563237796,325.78407560653295,-1.5644137270784002,1.05246646665702,0.4242616886,0.17872383846193068,0.2526261401242767,0.9970506981805416,-0.07674571817172933,1.1694244803943332,0.17767740242459926,,,,,,,,,,,-0.43423627603272613,0.2769401528860929,0.515031058969595,-0.13976999999999862,0.022604741419161967,0.017090000000052896,-801.6557479030885,518.0187728911687,954.4607834865361,False,,
2022-08-31 08:30:23.759486-06:00,12.800384,2.25,0.78,-2.08,0.37,19.16,866.46,83.17,19.0,0.0,-0.000365567,0.000167098,2.3018e-05,33.9943341,-106.894679,1363.06326,-12.391188,2.36938802,0.0307404685,1.79832,15.9819,23051.1,27.2729,11861.0,0.376576,-1.0,12.0,-1157.0,88.0,,0.0,2022-08-31 07:30:22.115,2022-08-31 14:30:23.759486+00:00,1.0326180093028758,0.013854535367644926,2.2211019407276513,-1.8640035219850364,1.2078015984140433,0.370023018,327.0583360183249,0.2560256627024071,0.18552874959327859,1.8725694140673377,325.5933437149547,-1.5465617181926843,1.050257878240818,0.48206509100000006,0.17833935175170512,0.25240931841086345,0.4157220131406719,0.9094917304683242,-0.9699697738960056,0.21104942851496333,,,,,,,,,,,-0.43423627623216493,0.18462676945847922,0.4718561089957949,-0.1368400000001202,-0.043174949973800114,0.0029299999998784187,-801.6557479032879,517.9264595077411,954.4106849803201,False,,
2022-08-31 08:30:24.559754-06:00,13.600652,2.18,0.57,-2.02,0.59,19.27,866.46,82.52,21.0,0.0,-6.09425e-05,0.000310764,-0.000740518,33.9943343,-106.894678,1363.07632,-12.3435762,2.3700825,0.0249037243,1.79794,15.7294,23108.2,27.276,11911.0,0.488557,-1.0,12.0,-1187.0,88.0,,0.0,2022-08-31 07:30:23.139,2022-08-31 14:30:24.559754+00:00,1.0322295680846856,0.013847969056052766,2.098577820595089,-1.8511425990049388,0.9885848204594652,0.589259482,331.89598462527033,0.2552390057243159,0.18537304295460574,2.022255734438757,331.2979323888279,-1.773538766521336,0.9695785082198043,0.5431967996,0.1834902249949441,0.25435200109573547,0.9813087514583003,0.19243994988398797,0.6101561639953017,0.17694589997381646,,,,,,,,,,,-0.4119677505614532,0.27694015292832735,0.496400318096825,-0.12378000000012435,0.024544209101030112,0.013059999999995853,-801.6334793776172,518.0187728912109,954.4420801320426,False,,
2022-08-31 08:30:25.759358-06:00,14.800256,2.05,0.53,-1.94,0.44,19.26,866.46,82.57,16.0,0.0,-0.000316938,-0.000211923,-0.000398456,33.9943345,-106.894678,1363.0932899999998,-12.2804289,2.37473266,0.0226948783,1.79821,15.5825,23103.0,27.2797,11901.0,0.605982,-1.0,16.0,-1181.0,88.0,,0.0,2022-08-31 07:30:24.163,2022-08-31 14:30:25.759358+00:00,1.032264868846222,0.013848565731628158,2.0111354971184374,-1.783092178418553,0.9301872236450061,0.439601544,332.45026332588515,0.25421337695802426,0.18390289112868063,1.9529975451987098,333.1125208005934,-1.7369857962993567,0.8775223937350969,0.39157665360000005,0.1829305093363193,0.2536602151099541,0.5558454588512773,-0.8312856463781947,1.9316981980244101,0.18417486579683098,,,,,,,,,,,-0.38969922433015103,0.2769401530131048,0.4780808862467138,-0.10681000000022323,-0.0183194318501112,0.01696999999990112,-801.6112108513859,518.0187728912957,954.4233769299811,False,,
2022-08-31 08:30:26.759416-06:00,15.800314,2.01,0.42,-1.92,0.42,19.22,866.47,82.25,15.0,0.0,-5.40164e-05,-0.000189547,-0.000258988,33.9943346,-106.894678,1363.0917,-12.2342961,2.37327796,0.0223513944,1.79775,15.5569,23120.3,27.2833,11852.0,0.707182,0.201977,14.0,-1169.0,88.0,,0.0,2022-08-31 07:30:25.187,2022-08-31 14:30:26.759416+00:00,1.0324180112597252,0.013850994516869322,1.9655506431050305,-1.7875827334756644,0.8172743123274283,0.41974101199999997,335.4303463279905,0.25390265733987877,0.18417155403040558,2.0911296280828164,334.3147583162807,-1.881465055871314,0.9030747233603847,0.3533527406,0.1865498049562989,0.25517246920076486,0.9617112030275993,-0.2740648864251087,1.3841405854769144,0.17359904617539249,,,,,,,,,,,-0.3785649602180787,0.2769401526181256,0.46904933347897027,-0.10840000000007421,-0.009031552767743534,-0.0015899999998509884,-801.6000765872739,518.0187728909008,954.4140253852717,False,,
2022-08-31 08:30:27.759264-06:00,16.800162,1.97,0.66,-1.81,0.39,19.19,866.46,83.02,16.0,0.0,-0.000305213,-0.000483418,-0.000452066,33.9943347,-106.894678,1363.09817,-12.194654,2.3642458,0.0233225353,1.80272,15.6122,23079.5,27.2863,11910.0,0.718405,0.207767,11.0,-1178.0,88.0,,0.0,2022-08-31 07:30:26.211,2022-08-31 14:30:27.759264+00:00,1.0325120417983296,0.013852743926781272,1.9268235118983517,-1.6302276937197682,1.0271350995041613,0.38954793400000004,327.7867663673164,0.25263727467706193,0.18061779213134946,2.082393213234621,329.968443402686,-1.8013308169173794,1.0393591736200651,0.3621829568,0.18472082695773034,0.254523486365973,0.8455707325527223,-0.5338634059853257,1.8405163030491518,0.1506841839768249,,,,,,,,,,,-0.367430697284042,0.2769401525730407,0.46010994926627735,-0.10193000000003849,-0.008939384212692914,0.006470000000035725,-801.5889423243398,518.0187728908556,954.4046738800065,False,,
2022-08-31 08:30:28.759010-06:00,17.799908,2.31,0.13,-2.3,0.18,19.25,866.48,82.67,17.0,0.0,-0.000698616,0.00053805,0.000645676,33.9943347,-106.894678,1363.1039099999998,-12.1435449,2.35858402,0.0113615929,1.7986,15.0552,23004.0,27.2896,11922.0,0.730384,0.219029,9.0,-1193.0,88.0,,0.0,2022-08-31 07:30:27.235,2022-08-31 14:30:28.759010+00:00,1.032324000016033,0.013849245555324354,2.3029669899825946,-2.220649320420358,0.6102241823019585,0.180645676,344.63464870010336,0.25833659844053775,0.1959127966870271,2.033031641573853,335.0542187954453,-1.8412098088383508,0.8356245247837238,0.36702513200000003,0.18622687381925251,0.2545567302562092,0.6101759538252876,0.7922659309685105,-0.948849811857958,0.1741765663279906,,,,,,,,,,,-0.36743069761464225,0.276940152822221,0.46010994968026697,-0.09619000000020606,4.139896203625426e-10,0.005739999999832435,-801.5889423246704,518.0187728911048,954.4046738804194,False,,
2022-08-31 08:30:29.559914-06:00,18.600812,2.19,0.64,-2.06,0.38,19.27,866.46,82.39,16.0,0.0,-3.67957e-05,0.000300479,9.82275e-05,33.9943348,-106.894678,1363.1145299999998,-12.108384,2.36243065,0.0113979049,1.8009,15.0322,23023.4,27.2936,11874.0,0.702086,0.223898,14.0,-1174.0,88.0,,0.0,2022-08-31 07:30:28.259,2022-08-31 14:30:29.559914+00:00,1.0322295680846856,0.013847969056052766,2.1568478126214083,-1.8796223320729892,1.0578338128374662,0.3800982275,330.6295990806947,0.2552741525323648,0.1868894760577726,1.898604101303576,328.7503041297799,-1.6273759968921362,0.9584718152357882,0.49429342485999994,0.18143745266526218,0.25255570205641636,0.9925854509337092,0.12154884859481481,0.7535595002799875,0.17879581186107954,,,,,,,,,,,-0.3562964348797824,0.27694015295729263,0.4512682105223585,-0.08557000000018888,-0.00884173915790848,0.010620000000017171,-801.5778080619356,518.0187728912399,954.3953224136858,False,,
2022-08-31 08:30:29.759415-06:00,18.800313,2.23,0.55,-2.14,0.32,19.22,866.48,82.77,20.0,0.0,-0.000123625,-0.000878309,-4.56345e-05,33.9943348,-106.894678,1363.1175799999999,-12.1037202,2.3664914,0.0184863876,1.8009,15.0322,23023.4,27.2936,11874.0,0.702086,0.223898,14.0,-1174.0,88.0,,0.0,2022-08-31 07:30:28.259,2022-08-31 14:30:29.759415+00:00,1.032429926479078,0.013851036076615593,2.2102782379319152,-1.9779801775089298,0.9863692546187532,0.3199543655,333.49571477353214,0.256234451691085,0.18939553950155377,1.9745475851670058,332.1062028977233,-1.7401728186903553,0.8903529231403425,0.47783210526,0.18407576348086593,0.25354517493847095,0.9902390342893522,-0.13937953569190525,1.1242066982799304,0.1805669793936807,,,,,,,,,,,-0.3562964350501266,0.27694015308969683,0.4512682107381084,-0.08252000000015869,2.1574991793116283e-10,0.0030500000000301952,-801.5778080621059,518.0187728913722,954.3953224139007,False,,
2022-08-31 08:30:30.759681-06:00,19.800579,2.36,-0.14,-2.35,0.21,19.15,866.48,83.26,21.0,0.0,-0.000262266,-0.000952299,-0.000259861,33.9943347,-106.894678,1363.10513,-12.0552862,2.36832724,0.00491674903,1.79754,14.7876,23122.8,27.2972,11860.0,0.710439,0.232113,11.0,-1165.0,88.0,,0.0,2022-08-31 07:30:29.283,2022-08-31 14:30:30.759681+00:00,1.032677172783743,0.013855215793111523,2.355068604774107,-2.3283663957743563,0.3536354906134183,0.209740139,351.3638407416665,0.25885588242398716,0.19925407209023127,2.520710455674037,352.2820992570831,-2.497002165919139,0.3265303958399787,0.12619376659999998,0.2046244001520113,0.26124082102155743,0.9641059906823055,-0.2655176806363189,0.9778081344079027,0.19108807358933166,,,,,,,,,,,-0.3674306976849092,0.2769401528751827,0.4601099497682578,-0.09497000000010303,0.008841739030149398,-0.012449999999944339,-801.5889423247406,518.0187728911578,954.4046738805072,False,,
2022-08-31 08:30:31.759542-06:00,20.80044,2.52,-0.15,-2.51,0.11,19.15,866.48,83.22,21.0,0.0,-3.40456e-05,0.000166218,0.000257071,33.9943346,-106.894677,1363.12539,-11.9999599,2.37545274,-0.00769767658,1.79916,15.1814,23155.7,27.3002,11865.0,0.693919,-1.0,15.0,-1168.0,88.0,,0.0,2022-08-31 07:30:30.307,2022-08-31 14:30:31.759542+00:00,1.032677172783743,0.013855215793111523,2.5143086400322,-2.486171276013119,0.3751004181120958,0.110257071,351.4202252448482,0.2609855951988875,0.20416971068667622,2.9924795792079775,354.11079158534096,-2.976327597679911,0.3015588516031304,-0.10105989019999999,0.22016952786639066,0.2682699222114372,0.9796611319402919,0.20065908044607897,-0.30180167294860094,0.21158051060294772,,,,,,,,,,,-0.3785649622172836,0.3692535391656756,0.5288285230629589,-0.07471000000009553,0.0687185732947011,0.020260000000007494,-801.600076589273,518.1110862774483,954.4641326480141,False,,
2022-08-31 08:30:32.559682-06:00,21.60058,2.78,-0.26,-2.77,-0.03,19.25,866.47,82.79,23.0,0.0,7.06785e-07,-0.000231153,-0.000564816,33.9943346,-106.894677,1363.13601,-11.9723257,2.37449631,0.00284397338,1.80195,15.1571,23100.1,27.3036,11865.0,0.615966,-1.0,15.0,-1168.0,88.0,,0.0,2022-08-31 07:30:31.331,2022-08-31 14:30:32.559682+00:00,1.0323120860191721,0.013849204007260538,2.7824051057331154,-2.763912058094717,0.3202628725411899,-0.030564815999999998,353.39044030306854,0.26482299024456674,0.21298045023302323,2.836987100229936,353.4918610714411,-2.818617085110195,0.32157895296791655,-0.045969969900000004,0.21483930628675624,0.26571066569788665,0.9999953254206255,0.0030576358346290394,0.3129591451180452,0.21483729773903307,,,,,,,,,,,-0.37856496284748703,0.36925353978037817,0.5288285239433087,-0.06409000000007836,8.803497930642834e-10,0.010620000000017171,-801.6000765899032,518.111086278063,954.4641326488771,False,,
2022-08-31 08:30:33.759719-06:00,22.800617,2.4,0.06,-2.4,0.13,19.26,866.47,82.7,18.0,0.0,0.00025965,3.01035e-05,0.00254968,33.9943345,-106.894677,1363.18301,-11.9191497,2.37757414,0.00414979349,1.79963,15.0307,23051.8,27.3072,11849.0,0.589132,-1.0,14.0,-1160.0,88.0,,0.0,2022-08-31 07:30:32.355,2022-08-31 14:30:33.759719+00:00,1.0322767824356414,0.013848607275443943,2.400780565393387,-2.3358340518178813,0.5546409699424031,0.13254968,346.64255902227455,0.25931913615243257,0.199935942040329,2.540216476210843,349.6897488982496,-2.4958178207061485,0.4452038086927893,0.001971691799999997,0.2048415762131203,0.26127261752436903,0.11516731960390318,-0.993346107102279,2.5304838455595435,0.25782154097225735,,,,,,,,,,,-0.38969922981083394,0.3692535429354206,0.5368553517340753,-0.017090000000052896,0.008026827790766577,0.047000000000025466,-801.6112108568666,518.111086281218,954.4734837065489,False,,
2022-08-31 08:30:34.759181-06:00,23.800079,3.01,-0.14,-3.01,-0.08,19.14,866.48,83.08,17.0,0.0,0.000430772,-0.000483309,0.000825755,33.9943345,-106.894677,1363.1935099999998,-11.8740374,2.372175,0.00154295574,1.79909,14.5161,23020.8,27.3107,11896.0,0.580603,-1.0,11.0,-1176.0,88.0,,0.0,2022-08-31 07:30:33.379,2022-08-31 14:30:34.759181+00:00,1.0327125033517672,0.013855813105108718,3.0138001062747204,-2.974882807572611,0.4827663635656629,-0.079174245,350.7823502745417,0.2685838244924846,0.2202475733706073,2.965891659199803,353.768678859925,-2.947077732891329,0.32148398414325075,-0.06532956448,0.21936675486100335,0.26761476880992774,0.7465158901971201,0.6653675868895339,-1.7208970969029662,0.17024048060592387,,,,,,,,,,,-0.3896992304522424,0.3692535435431774,0.536855352617689,-0.006590000000187501,8.836137377343789e-10,0.010499999999865395,-801.611210857508,518.1110862818258,954.4734837074175,False,,
2022-08-31 08:30:35.559707-06:00,24.600605,2.5,-0.09,-2.5,0.04,19.31,866.47,82.39,19.0,0.0,-0.000255936,0.000269678,0.000203266,33.9943344,-106.894677,1363.19875,-11.8304147,2.3661584,-0.0118326091,1.78972,14.2844,23010.4,27.3142,11908.0,0.592576,-1.0,14.0,-1193.0,88.0,,0.0,2022-08-31 07:30:34.403,2022-08-31 14:30:35.559707+00:00,1.0321003007317442,0.013845624401452884,2.5013102913116994,-2.4650784718780243,0.4241948855247126,0.040203266,350.2360724276307,0.2605901304005231,0.20406368213429707,2.6640478840817083,351.4700917140064,-2.6341890493622606,0.3882493115823147,0.054359458719999997,0.2094507585274082,0.26302652661692527,0.7253459881258091,0.688384483780535,-1.5317197883767388,0.16636994265858912,,,,,,,,,,,-0.4008334942658554,0.36925354428108415,0.5449914403818817,-0.0013500000000021828,0.008136087764192723,0.005240000000185319,-801.6223451213216,518.1110862825636,954.4828347994035,False,,
2022-08-31 08:30:36.759829-06:00,25.800727,2.44,-0.17,-2.43,0.05,19.14,866.47,83.24,16.0,0.0,-0.000128992,-9.22936e-06,0.00117653,33.9943344,-106.894676,1363.21902,-11.7917093,2.36900822,-0.00411409508,1.79617,14.7582,23001.1,27.3173,11858.0,0.582651,-1.0,15.0,-1158.0,88.0,,0.0,2022-08-31 07:30:35.427,2022-08-31 14:30:36.759829+00:00,1.0327005848712099,0.013855771514188127,2.435930907857575,-2.4134691135491204,0.3300397336689187,0.051176530000000005,352.21315273920345,0.259537021325043,0.20262926421303007,2.4070692371744373,350.9664666072207,-2.376977214236259,0.3776209958487252,0.038161263620000004,0.2016130126603099,0.2592058785438637,0.07136741818845002,-0.9974500948022988,2.3978659832103357,0.257887707528599,,,,,,,,,,,-0.400833495539457,0.46156693093710693,0.6113194932938749,0.018919999999980064,0.06632805291199317,0.020269999999982247,-801.6223451225952,518.2033996692197,954.5329473771905,False,,
2022-08-31 08:30:37.759318-06:00,26.800216,2.3,-0.21,-2.29,0.02,19.25,866.48,82.71,16.0,0.0,-0.000813056,0.000406071,-0.000100525,33.9943344,-106.894676,1363.21975,-11.7488326,2.36980339,-0.00697074167,1.79648,13.7807,22970.6,27.3204,11897.0,0.587571,-1.0,11.0,-1174.0,88.0,,0.0,2022-08-31 07:30:36.451,2022-08-31 14:30:37.759318+00:00,1.032324000016033,0.013849245555324354,2.2991131637855107,-2.284378140826763,0.2598804525251609,0.019899475,353.5096952829289,0.2575490397831948,0.19900283741383096,2.1182848677470845,349.63580211504257,-2.0816629548741354,0.37350226650033214,0.20006426200000002,0.19343885756618712,0.25532357893873975,0.4468112703693763,0.8946282404836682,-1.6954294444182267,0.20796772235139038,,,,,,,,,,,-0.4008334955853243,0.46156693098992396,0.6113194933638281,0.01964999999995598,6.995315438018679e-11,0.0007299999999759166,-801.622345122641,518.2033996692725,954.5329473772575,False,,
2022-08-31 08:30:38.759500-06:00,27.800398,2.12,-0.04,-2.12,0.17,19.05,866.47,83.73,20.0,0.0,-0.000383283,-9.07027e-05,-0.000339835,33.9943345,-106.894676,1363.22708,-11.7107484,2.36849783,-0.00233109554,1.79562,14.5858,22952.0,27.3237,11916.0,0.604129,-1.0,15.0,-1204.0,88.0,,0.0,2022-08-31 07:30:37.475,2022-08-31 14:30:38.759500+00:00,1.0330186651334903,0.01386114964724737,2.120395806083721,-2.084081215474628,0.3907478237472708,0.169660165,349.3808069512219,0.2552831085212641,0.1935403145195099,2.22468676577169,349.253845283591,-2.184876277672602,0.4077477635494017,0.12843120700000002,0.1964443550930421,0.2566651531697146,0.23028642964698598,-0.9731228906569014,2.2200518957207884,0.2432768902423644,,,,,,,,,,,-0.38969923250291705,0.4615669309770052,0.6040774152249809,0.026979999999866777,-0.007242078138847141,0.007329999999910797,-801.6112108595587,518.2033996692596,954.5235967772123,False,,
2022-08-31 08:30:39.759330-06:00,28.800228,1.88,0.39,-1.82,0.27,19.26,866.47,82.57,22.0,0.0,-7.14762e-05,-0.00017404,0.000294567,33.9943346,-106.894676,1363.22878,-11.6760044,2.3679221,-0.00217896375,1.79652,14.0215,22962.7,27.327,11849.0,0.610376,-1.0,14.0,-1171.0,88.0,,0.0,2022-08-31 07:30:38.499,2022-08-31 14:30:39.759330+00:00,1.0322767824356414,0.013848607275443943,1.8614472080552036,-1.7035868685885192,0.7501849702235281,0.27029456700000004,336.2334112239054,0.25170170171142325,0.18411647595898342,2.067035508381384,340.75722689780025,-1.9341735352885,0.622130081531532,0.210964729,0.19043777804131806,0.25426495631266194,0.9250282502719768,-0.3798983235008614,1.3102771841765106,0.16703407607483386,,,,,,,,,,,-0.37856496835256964,0.4615669305567446,0.5969551630125639,0.02867999999989479,-0.007122252212417024,0.0017000000000280124,-801.6000765954083,518.2033996688393,954.5142462143282,False,,
2022-08-31 08:30:40.759832-06:00,29.80073,1.82,0.46,-1.72,0.41,19.27,866.47,82.51,23.0,0.0,-5.27399e-05,-0.00069359,0.00121358,33.9943347,-106.894676,1363.23391,-11.6256131,2.36583209,0.00188043646,1.79734,14.3815,22968.7,27.3304,11900.0,0.616785,-1.0,14.0,-1169.0,88.0,,0.0,2022-08-31 07:30:39.523,2022-08-31 14:30:40.759832+00:00,1.0322414812666916,0.013848010595975863,1.7810459884987833,-1.5927109732504392,0.7971176631057967,0.41121357999999997,333.4130183475323,0.2505331710403207,0.18178492123741594,2.00503223774568,339.2143169061758,-1.8571654970386338,0.6594296233486983,0.2630381279999999,0.18856735955814216,0.2533298660725592,0.9971215105692252,-0.07582013690403487,0.7983420043864684,0.1874889996993638,,,,,,,,,,,-0.36743070510210474,0.4615669303846515,0.5899570783341272,0.033809999999903084,-0.006998084678436656,0.005130000000008295,-801.5889423321579,518.2033996686672,954.5048956906151,False,,
2022-08-31 08:30:41.759737-06:00,30.800635,2.14,0.17,-2.13,0.2,19.26,866.48,82.81,23.0,0.0,0.000290367,0.000168318,-0.000159666,33.9943348,-106.894676,1363.22939,-11.5905169,2.36753382,0.00513894362,1.79237,14.0226,23019.3,27.3336,11895.0,0.667742,-1.0,14.0,-1205.0,88.0,,0.0,2022-08-31 07:30:40.649,2022-08-31 14:30:41.759737+00:00,1.0322886960250608,0.013848648819614564,2.136692405217095,-2.0522421390062364,0.5947744424565681,0.199840334,343.83751879528097,0.2551921215258236,0.19309444936009404,2.2610729592847307,345.4857733463761,-2.1857237895377835,0.5502442079258326,0.157011173,0.1969651496713337,0.2568856876817606,0.50150658336809,-0.8651538284250176,2.166938397133216,0.198555725223024,,,,,,,,,,,-0.356296441294775,0.46156692951436157,0.58308763020719,0.029289999999946303,-0.006869448126937239,-0.004519999999956781,-801.5778080683506,518.2033996677969,954.4955452043366,False,,
2022-08-31 08:30:42.759225-06:00,31.800123,2.21,0.0,-2.2,0.13,19.21,866.47,82.91,21.0,0.0,-0.000313555,-0.000334997,0.00256519,33.9943348,-106.894676,1363.2404999999999,-11.5568263,2.36773793,0.00231532741,1.79532,13.9442,23078.7,27.3374,11895.0,0.659121,-1.0,14.0,-1205.0,88.0,,0.0,2022-08-31 07:30:41.673,2022-08-31 14:30:42.759225+00:00,1.0324533245040564,0.013851591458147898,2.2002654197490426,-2.1557332714065653,0.4404338541644794,0.13256519,348.4529209152129,0.2560318736001145,0.19599005836595537,2.282758388740535,349.50776128067616,-2.243514614059752,0.4094412823572283,0.14038028200000002,0.1986147448564719,0.2571771432566383,0.7300857788536843,-0.6833555118059773,1.8320453348596197,0.1600956513181614,,,,,,,,,,,-0.3562964419152745,0.4615669303181923,0.5830876312226521,0.04039999999986321,1.015462047782023e-09,0.011109999999916909,-801.577808068971,518.2033996686008,954.4955452052941,False,,
2022-08-31 08:30:43.559661-06:00,32.600559,3.09,-0.36,-3.06,-0.06,19.11,866.46,83.49,23.0,0.0,-9.91331e-05,7.58393e-05,0.00137529,33.9943349,-106.894676,1363.2408699999999,-11.5307368,2.37043007,-0.00578991935,1.79989,13.7334,23138.2,27.341,11870.0,0.639445,-1.0,14.0,-1186.0,88.0,,0.0,2022-08-31 07:30:42.697,2022-08-31 14:30:43.559661+00:00,1.0327946701543957,0.013857522150828397,3.0810197974592928,-3.0701277444598998,0.25884092611808807,-0.05862471,355.1808184750738,0.26908735032625924,0.22449194635021122,2.706506359575115,352.2779764793933,-2.6799977693140287,0.3506061194244317,0.08757617800000002,0.21189402933427873,0.2632419049986312,0.6076100270710618,0.7942355160798991,-1.9155176176893471,0.1835600035368475,,,,,,,,,,,-0.34516217836890634,0.4615669298017036,0.5763514206306249,0.040769999999838547,-0.006736210592027114,0.0003699999999753345,-801.5666738054247,518.2033996680843,954.4861947577097,False,,
2022-08-31 08:30:45.759097-06:00,34.799995,1.77,0.57,-1.57,0.58,19.45,866.46,81.81,16.0,0.0,-1.00948e-05,-0.000414111,-0.000165392,33.994335,-106.894676,1363.2351299999998,-11.4499549,2.35980026,-0.0123412448,1.79306,13.52,23246.2,27.3472,11910.0,0.635037,-1.0,16.0,-1210.0,88.0,,0.0,2022-08-31 07:30:44.745,2022-08-31 14:30:45.759097+00:00,1.0315945669833348,0.013837237839474313,1.6706176449964327,-1.426016900784528,0.8703097807392013,0.579834608,328.60394176977593,0.2486549413785908,0.17893003741245464,1.8585918350117907,325.03457635884445,-1.5159240926577198,1.0700158483199307,0.5158143396,0.18092373951407625,0.25005194876275794,0.9997030123395537,-0.024369799326669626,1.10664083274903,0.18081635221747824,,,,,,,,,,,-0.3340279137930652,0.46156692884314426,0.5697531719917315,0.03502999999977874,-0.006598248638893467,-0.005740000000059808,-801.5555395408488,518.2033996671257,954.4768443473042,False,,
2022-08-31 08:30:46.759730-06:00,35.800628,2.35,0.97,-2.11,0.39,19.31,866.46,82.43,17.0,0.0,-0.00049008,0.000168629,-0.000941783,33.9943351,-106.894676,1363.23293,-11.4205147,2.36391469,-0.0129589234,1.79563,12.9628,23268.5,27.3506,11848.0,0.615415,-1.0,14.0,-1180.0,88.0,,0.0,2022-08-31 07:30:45.769,2022-08-31 14:30:46.759730+00:00,1.0320883891791142,0.013845582877095745,2.321858325014544,-1.8759860265223358,1.3681017907057504,0.38905821700000004,323.89782169572817,0.2546306804721412,0.18913716046379248,2.4649343802076618,325.651507205593,-2.0190616850307546,1.3868862001172289,0.3788791334,0.19288393589174213,0.25653725750468326,0.3253627457731919,0.9455892785257928,-1.4579619799022125,0.2302870150833339,,,,,,,,,,,-0.32289365012469856,0.4615669281407109,0.5632977351668507,0.032829999999876236,-0.006455436824880811,-0.002199999999902502,-801.5444052771804,518.2033996664233,954.4674939760849,False,,
2022-08-31 08:30:48.759530-06:00,37.800428,2.78,0.1,-2.77,0.09,19.08,866.48,83.66,19.0,0.0,-0.000542564,0.00029769,-0.00014896,33.994335,-106.894676,1363.20815,-11.3576366,2.36379015,-0.0232959616,1.7931,13.655,23191.0,27.3575,11900.0,0.504874,-1.0,12.0,-1188.0,88.0,,0.0,2022-08-31 07:30:47.817,2022-08-31 14:30:48.759530+00:00,1.0329245375378575,0.013859398078371998,2.771388979055215,-2.695764291178209,0.6430021459040045,0.08985104,346.5843031518597,0.26404746676116514,0.21266357849872214,2.9381985671226225,343.8790065646559,-2.8159591523614385,0.8159390457467252,0.17031783979999998,0.21655101865068244,0.26656769808253855,0.4810250316152719,0.8767068603356123,-2.0762836020236755,0.2109258978977054,,,,,,,,,,,-0.3340279123803957,0.46156692689108725,0.5697531695821336,0.008049999999911961,0.006455434415282957,-0.024779999999964275,-801.5555395394362,518.2033996651737,954.4768443450581,False,,
2022-08-31 08:30:49.759594-06:00,38.800492,2.43,0.21,-2.4,0.33,19.24,866.48,82.88,22.0,0.0,-0.000317786,2.55327e-05,0.000528731,33.9943351,-106.894676,1363.21011,-11.3294307,2.36084245,-0.00909266269,1.79826,12.7972,23087.9,27.3602,11899.0,0.437225,-1.0,15.0,-1191.0,88.0,,0.0,2022-08-31 07:30:48.841,2022-08-31 14:30:49.759594+00:00,1.0323593064218615,0.013849842343389925,2.4090561452554207,-2.3119533139124875,0.6770697048915807,0.330528731,343.67700711350517,0.25838389085893737,0.20113023938207666,2.4627500228464396,337.80395405375765,-2.2769644421532207,0.9208522374447371,0.394986934,0.20041473440560909,0.2587358218585603,0.08008749542044222,0.9967878375448211,-2.1959017131110996,0.2570795023397908,,,,,,,,,,,-0.3228936489696746,0.4615669264896383,0.5632977331518765,0.010009999999965657,-0.006455436430257144,0.0019600000000536966,-801.5444052760254,518.2033996647723,954.4674939742185,False,,
2022-08-31 08:30:50.760019-06:00,39.800917,2.55,-0.19,-2.54,0.15,19.24,866.49,82.82,23.0,0.0,-0.00041374,0.000209005,0.00142088,33.994335,-106.894676,1363.20669,-11.2938504,2.36441153,-0.0102506733,1.79722,12.2634,23050.8,27.3637,11850.0,0.360206,-1.0,16.0,-1169.0,88.0,,0.0,2022-08-31 07:30:49.865,2022-08-31 14:30:50.760019+00:00,1.0323712208261917,0.013849883895702299,2.5468384389019127,-2.527815401896956,0.31070134824435813,0.15142088,352.99275097773517,0.26038007361446636,0.20763762438749803,2.3928863318889144,332.5476142552387,-2.098608602678118,1.030349085221617,0.32968729799999996,0.19649038019075626,0.25692832138548205,0.4508945346929286,0.8925772339602033,-1.4085914903912362,0.20855491999598164,,,,,,,,,,,-0.33402791230395024,0.46156692678545336,0.5697531694517404,0.006589999999960128,0.0064554362998638926,-0.0034200000000055297,-801.5555395393596,518.2033996650681,954.4768443449366,False,,
2022-08-31 08:30:51.759256-06:00,40.800154,1.98,1.08,-1.62,0.35,19.32,866.45,82.42,23.0,0.0,3.46084e-05,0.000624128,0.00131408,33.994335,-106.894676,1363.2178,-11.2531095,2.36040124,-0.0181939967,1.79284,13.2385,23115.2,27.3672,11850.0,0.435913,-1.0,16.0,-1169.0,88.0,,0.0,2022-08-31 07:30:50.889,2022-08-31 14:30:51.759256+00:00,1.032041189341271,0.013844944943046526,1.9465804293269289,-1.3774758378245375,1.3754038258083328,0.35131408,315.043124849509,0.24871852459003468,0.17870800316391186,1.8504122510819354,315.8512234921885,-1.3107383765787353,1.2925308068832086,0.4332924386,0.17744186946292223,0.24792980076313403,0.9984661404335909,-0.055365751215427854,1.3631182610063646,0.1768995776706118,,,,,,,,,,,-0.33402791288566847,0.46156692758928397,0.5697531704439801,0.017699999999877036,9.922397348205436e-10,0.011109999999916909,-801.5555395399414,518.2033996658719,954.4768443458614,False,,
2022-08-31 08:30:52.759298-06:00,41.800196,2.11,0.55,-1.95,0.59,19.25,866.47,82.78,21.0,0.0,-0.000374003,0.00146788,-0.000277542,33.9943349,-106.894676,1363.1955799999998,-11.2363147,2.36684259,-0.0261815301,1.79578,13.0252,23193.7,27.3706,11881.0,0.411442,-1.0,14.0,-1164.0,88.0,,0.0,2022-08-31 07:30:51.913,2022-08-31 14:30:52.759298+00:00,1.0323120860191721,0.013849204007260538,2.0246022291115997,-1.803983399531261,0.9190528169475863,0.589722458,333.0030922905419,0.25231377956255907,0.18804109659933527,2.5623125961454365,342.7755998913578,-2.4451657449477167,0.6524748722399122,0.21773641447999997,0.20759211081093074,0.2613623162225851,0.9690402051932911,0.2469029783517085,0.028555679087665764,0.19558711623132916,,,,,,,,,,,-0.34516217591848153,0.46156692652488146,0.5763514165389082,-0.0045200000001841545,0.006598246094928095,-0.02222000000006119,-801.5666738029743,518.2033996648075,954.4861947538728,False,,
2022-08-31 08:30:53.759542-06:00,42.80044,2.64,0.15,-2.61,0.34,19.19,866.48,83.18,18.0,0.0,0.000236765,0.000633263,-0.00161505,33.9943348,-106.894676,1363.17068,-11.1980916,2.37080941,-0.0201499656,1.79274,12.3152,23211.9,27.3738,11898.0,0.454831,-1.0,16.0,-1188.0,88.0,,0.0,2022-08-31 07:30:52.937,2022-08-31 14:30:53.759542+00:00,1.0325358746825204,0.013852827069292332,2.6137529236656794,-2.530546324878947,0.6542473871652374,0.33838495,345.5041679271018,0.2613081065845222,0.20803082419989805,2.7738203014575875,340.2455694156759,-2.6060224994211794,0.9341703400271717,0.30336227039999997,0.21044044488716138,0.2633927663128198,0.9366733215857853,-0.35020435267062583,1.787652857775054,0.1874359873805877,,,,,,,,,,,-0.35629643801579003,0.46156692526657556,0.5830876248410527,-0.029420000000072832,0.006736208302144497,-0.024899999999888678,-801.5778080650715,518.2033996635491,954.4955451992768,False,,
2022-08-31 08:30:54.784577-06:00,43.825475,3.19,-0.32,-3.17,-0.09,19.1,866.47,83.56,17.0,0.0,-0.000409583,0.00022787,-0.00098594,33.9943348,-106.894676,1363.16763,-11.1614675,2.36615415,-0.0215122416,1.79204,11.8513,23184.6,27.3765,11850.0,0.507085,-1.0,14.0,-1166.0,88.0,,0.0,2022-08-31 07:30:53.961,2022-08-31 14:30:54.784577+00:00,1.0328419296903537,0.013858161270951944,3.1858451199292803,-3.1717572253913167,0.2992745083617859,-0.09098594,354.60975487817274,0.27069025370302097,0.22904293115925295,2.580187218870499,347.88520547604986,-2.5169327288909247,0.5186663290181673,0.1579129048,0.20906672439847035,0.2614877561293162,0.4861708949558124,0.873863754196193,-1.947295810165684,0.2057055394501401,,,,,,,,,,,-0.3562964378454459,0.4615669250459019,0.5830876245622805,-0.03247000000010303,-2.787722275243709e-10,-0.0030500000000301952,-801.5778080649012,518.2033996633285,954.495545199014,False,,
2022-08-31 08:30:55.789525-06:00,44.830423,2.02,0.61,-1.88,0.4,19.23,866.47,83.04,16.0,0.0,0.000559865,0.000511464,-0.00198935,33.9943347,-106.894676,1363.15139,-11.1221901,2.37178524,-0.0318149694,1.79353,11.8238,23212.8,27.3808,11892.0,0.521714,-1.0,12.0,-1162.0,88.0,,0.0,2022-08-31 07:30:54.985,2022-08-31 14:30:55.789525+00:00,1.032382700430966,0.013850397627966434,1.9763122833551836,-1.7265082112958463,0.9617586171532839,0.39801065,330.8798239049171,0.25126355956213464,0.186585580913918,1.8392216443098413,329.75973716555427,-1.5874580269076748,0.9218960122498693,0.44616203800000004,0.18359537532731038,0.24972064047633874,0.6744728018213988,-0.7382996949770412,1.793813563424936,0.15969993121452486,,,,,,,,,,,-0.3674307003492939,0.4615669244141644,0.5899570707028805,-0.04871000000002823,0.006869446140600033,-0.016239999999925203,-801.588942327405,518.2033996626967,954.5048956833822,False,,
2022-08-31 08:30:56.845524-06:00,45.886422,2.91,-0.02,-2.91,0.03,18.97,866.49,84.33,16.0,0.0,-0.000101921,0.000487173,-0.000798129,33.9943345,-106.894676,1363.1626199999998,-11.0931526,2.36418573,-0.0312620442,1.78913,12.7486,23204.0,27.3839,11895.0,0.549499,-1.0,16.0,-1181.0,88.0,,0.0,2022-08-31 07:30:56.009,2022-08-31 14:30:56.845524+00:00,1.0333254185176304,0.013866017094117878,2.9095711020819643,-2.8589895066202553,0.5401694170403624,0.029201870999999997,349.3008176905678,0.26604648148428456,0.2187161132645684,2.80148293095849,349.89984098781974,-2.7441913294301528,0.46063932316139294,0.02109264419999999,0.2153325604906809,0.2640675192452788,0.9788089286519177,0.20477568505876137,-0.11106577701782505,0.2065999610843683,,,,,,,,,,,-0.3896992285652797,0.4615669263131952,0.6040774091212024,-0.03748000000018692,0.014120338418321943,0.011229999999841311,-801.611210855621,518.2033996645957,954.5235967713736,False,,
2022-08-31 08:30:59.759604-06:00,48.800502,2.11,0.37,-2.05,0.35,19.13,866.48,83.45,19.0,0.0,-0.000353303,-0.000351087,0.00140123,33.9943348,-106.894675,1363.16445,-10.9999032,2.35834949,-0.0345180706,1.79676,11.9309,23181.3,27.3902,11863.0,0.421941,-1.0,13.0,-1152.0,88.0,,0.0,2022-08-31 07:30:58.057,2022-08-31 14:30:59.759604+00:00,1.0327478363373752,0.013856410469536479,2.083322023225664,-1.9420887592516245,0.7540039148741599,0.35140122999999995,338.78160703545814,0.2530903214528211,0.19220230110392278,1.8941685776847959,337.3134970251842,-1.747209752601221,0.6674176291700247,0.40881322580000007,0.18852279030519561,0.25106851303929495,0.7048787460743554,-0.7093278179605282,1.7097929828892646,0.15726262231275828,,,,,,,,,,,-0.3562964376678412,0.5538803102487596,0.6585822268905046,-0.03565000000003238,0.05450481776930216,0.0018300000001545413,-801.5778080647236,518.2957130485314,954.5456660350685,False,,
2022-08-31 08:31:00.559598-06:00,49.600496,2.66,-0.17,-2.65,-0.08,18.98,866.48,84.32,17.0,0.0,-0.000236783,-0.000517638,0.000920299,33.9943346,-106.894675,1363.1709199999998,-10.9771673,2.35790989,-0.0357015345,1.7904,12.0501,23322.5,27.3937,11913.0,0.424547,-1.0,14.0,-1188.0,88.0,,0.0,2022-08-31 07:30:59.081,2022-08-31 14:31:00.559598+00:00,1.033278121400363,0.013865377232251066,2.6559305694411264,-2.634401994915974,0.3374808422334548,-0.079079701,352.6998681146684,0.26162423179753386,0.21186945764873913,2.6370565807205693,354.069616965672,-2.621217416199891,0.2695961931681586,-0.0028836634000000026,0.2115089214645009,0.26124433382548273,0.9093758141190285,-0.4159755145382408,1.3355265210660328,0.18065735983388698,,,,,,,,,,,-0.3785649649190882,0.5538803121143219,0.6708910737310857,-0.029180000000224027,0.012308846840581089,0.006469999999808351,-801.6000765919748,518.2957130503969,954.564366063745,False,,
2022-08-31 08:31:01.759334-06:00,50.800232,2.25,-0.12,-2.25,0.05,19.06,866.48,83.81,23.0,0.0,-0.000157193,-0.000291786,0.000208608,33.9943346,-106.894675,1363.1722699999998,-10.9451528,2.360674,-0.021924721,1.79352,11.0943,23226.1,27.3972,11881.0,0.417586,-1.0,14.0,-1180.0,88.0,,0.0,2022-08-31 07:31:00.105,2022-08-31 14:31:01.759334+00:00,1.032995234949824,0.013860593489158433,2.253465174065978,-2.2321472174238024,0.309231451303685,0.050208608,352.1127072775936,0.2556381072174927,0.2000992632257222,2.213557693988176,349.87056155882436,-2.1772520892457754,0.38198520706907546,0.11242938196,0.19874825125705164,0.2551736345917271,0.8803735208878094,-0.47428099658282935,1.3689189523739944,0.1643880191910661,,,,,,,,,,,-0.3785649649991988,0.553880312231532,0.6708910738730572,-0.027830000000221844,1.419715456307813e-10,0.0013500000000021828,-801.600076592055,518.2957130505141,954.5643660638759,False,,
2022-08-31 08:31:03.759342-06:00,52.80024,3.06,-0.39,-3.03,-0.19,18.95,866.46,84.5,20.0,0.0,-0.000296805,0.000468788,-0.00163064,33.9943345,-106.894675,1363.17239,-10.8926124,2.36835696,-0.0337186982,1.80051,11.3031,23089.6,27.4039,11907.0,0.11389,-1.0,12.0,-1179.0,88.0,,0.0,2022-08-31 07:31:02.153,2022-08-31 14:31:03.759342+00:00,1.0333603913020326,0.013867088672816457,3.054509615136035,-3.0486378064933124,0.18930534535013122,-0.19163064,356.4467773222011,0.26791631901630764,0.22560472512234922,2.8242404107840047,354.1346356314583,-2.8087691313513368,0.2834315401379317,-0.14752097000000003,0.21787887307931766,0.264289485876249,0.8448957010024107,0.534931074464407,-1.263027799565199,0.17294445732203378,,,,,,,,,,,-0.3896992291620951,0.5538803128938614,0.6772362144930917,-0.027710000000070067,0.00634514062003444,0.00012000000015177648,-801.6112108562179,518.2957130511764,954.573716135951,False,,
2022-08-31 08:31:06.559701-06:00,55.600599,1.65,0.45,-1.54,0.39,19.04,866.48,84.04,20.0,0.0,-0.000445158,-0.000457405,-0.00215111,33.9943345,-106.894674,1363.16555,-10.8111845,2.36673429,-0.0311482788,1.79226,11.6066,23119.7,27.4133,11902.0,-0.132796,-1.0,11.0,-1176.0,88.0,,0.0,2022-08-31 07:31:05.225,2022-08-31 14:31:06.559701+00:00,1.03306594204007,0.013861789109885031,1.604604712141266,-1.428715535270789,0.730430148270085,0.38784889,332.92163190084034,0.24694885772917807,0.18127410838273422,1.7821143551411214,344.00146258161374,-1.7046905339419616,0.4780001104296122,0.24633130226,0.18730212796809756,0.24935529507711424,0.7166356382326182,-0.6974477485911958,1.5314844891555317,0.15480742026959943,,,,,,,,,,,-0.38969922874426327,0.6461936980748061,0.754607039667314,-0.03455000000008113,0.07737082517422234,-0.0068400000000110595,-801.6112108558,518.3880264363574,954.6238417943915,False,,
2022-08-31 08:31:07.759564-06:00,56.800462,1.15,0.55,-0.8,0.6,19.38,866.47,82.34,16.0,0.0,0.00129837,0.000124253,-2.54771e-05,33.9943346,-106.894674,1363.16897,-10.7748715,2.36456791,-0.0290622961,1.79316,11.8547,23154.0,27.4167,11882.0,-0.13342,-1.0,15.0,-1182.0,88.0,,0.0,2022-08-31 07:31:06.249,2022-08-31 14:31:07.759564+00:00,1.0318533276997433,0.013841450574887676,0.9716600999088357,-0.6829484471835813,0.6911618972747151,0.5999745229,314.65753083585673,0.2412564198781348,0.170217850062035,1.1679488875451856,328.550295171528,-0.9538849866042967,0.6050958221945233,0.51078635518,0.17384943477433462,0.24298011688623408,0.09526398705852362,-0.9954520444349458,1.0071906006457538,0.24078018621981098,,,,,,,,,,,-0.37856496480337287,0.6461936976606649,0.7489177040723111,-0.031130000000075597,-0.005689335595002953,0.0034200000000055297,-801.6000765918591,518.3880264359433,954.6144922135985,False,,
2022-08-31 08:31:08.759794-06:00,57.800692,1.43,0.65,-1.15,0.55,19.12,866.48,83.7,16.0,0.0,-0.000258205,0.000439743,-0.000867926,33.9943346,-106.894674,1363.1698199999998,-10.7483196,2.35719767,-0.023792271,1.79488,10.8312,23199.4,27.4206,11846.0,-0.134613,-1.0,13.0,-1165.0,88.0,,0.0,2022-08-31 07:31:07.273,2022-08-31 14:31:08.759794+00:00,1.0327831717408151,0.013857007886401613,1.3204819865012767,-1.0081626105641996,0.852807614491531,0.5491320740000001,319.77202375759066,0.24341847050755233,0.1743138856957915,1.2502532036791765,331.0703195413744,-1.0935192474668622,0.5759587137406038,0.4165994128,0.17644357783578188,0.24408311165060853,0.8623344633717203,0.506339089229152,-0.05702249147914895,0.14536605832391603,,,,,,,,,,,-0.3785649648538129,0.6461936977467638,0.748917704172097,-0.030280000000175278,9.978595727488937e-11,0.0008499999999003194,-801.6000765919096,518.3880264360293,954.6144922136876,False,,
2022-08-31 08:31:09.759206-06:00,58.800104,1.72,0.53,-1.6,0.35,19.32,866.47,82.64,17.0,0.0,0.000279532,-0.000741608,-0.00277724,33.9943346,-106.894674,1363.16799,-10.7255312,2.34971475,-0.0351542655,1.79992,10.7597,23202.0,27.4241,11912.0,-0.213292,-1.0,14.0,-1194.0,88.0,,0.0,2022-08-31 07:31:08.297,2022-08-31 14:31:09.759206+00:00,1.0320650116319823,0.013845027983625543,1.6862810013756255,-1.4741541925759232,0.8187875378333566,0.34722275999999996,330.9509505349209,0.24736154740329772,0.1824804249758176,1.9736519733410098,340.4084387004853,-1.8603425635893391,0.453829460512759,0.215347284,0.19470347866874377,0.25266650617947883,0.935735055604062,0.35270370810875096,-0.23148558506283168,0.17335568769893586,,,,,,,,,,,-0.3785649647452185,0.646193697561398,0.748917703957264,-0.032110000000102445,-2.1483304024627614e-10,-0.0018299999999271677,-801.600076591801,518.388026435844,954.6144922134959,False,,
2022-08-31 08:31:10.559749-06:00,59.600647,2.47,0.05,-2.47,-0.03,19.15,866.46,83.51,16.0,0.0,-0.000959748,8.5036e-05,-0.00262338,33.9943346,-106.894674,1363.1777599999998,-10.7057422,2.35371921,-0.0308103845,1.80124,10.7442,23217.5,27.4271,11912.0,-0.302791,-1.0,14.0,-1194.0,88.0,,0.0,2022-08-31 07:31:09.321,2022-08-31 14:31:10.559749+00:00,1.0326533366381243,0.01385513261942241,2.470225636774637,-2.417634343982957,0.5070097389328525,-0.03262338,348.1559623282518,0.25843132108436573,0.20618167126448822,2.8454062841966956,351.41201756351694,-2.8112894657511838,0.41678191066685627,-0.13438966999999996,0.2185079008438632,0.2645213975759515,0.08825667738491347,0.9960977657323479,-2.7635353690320477,0.2624664951871338,,,,,,,,,,,-0.37856496532498196,0.6461936985510287,0.7489177051042141,-0.022340000000212967,1.1469500904581764e-09,0.009769999999889478,-801.6000765923807,518.3880264368336,954.61449221452,False,,
2022-08-31 08:31:11.759285-06:00,60.800183,2.52,0.37,-2.49,-0.17,19.1,866.46,83.87,22.0,0.0,-0.000556146,0.000562552,-0.00508583,33.9943345,-106.894674,1363.2035199999998,-10.6662567,2.35905259,-0.0267529448,1.79698,11.4328,23282.6,27.4305,11866.0,-0.364718,-1.0,14.0,-1177.0,88.0,,0.0,2022-08-31 07:31:10.345,2022-08-31 14:31:11.759285+00:00,1.032830009578524,0.013858119664787939,2.51662621644085,-2.37793263618003,0.8239198329129372,-0.17508583000000003,340.88952657234194,0.25867502003690357,0.20516311413808777,2.5131850971254375,342.4726490105895,-2.379615454715169,0.7304968351097059,-0.15231910799999998,0.2055549604831671,0.258613992503906,0.7111442272270814,0.7030461493256308,-1.1534908750173392,0.1647606243353549,,,,,,,,,,,-0.38969923106371857,0.6461937019208938,0.7546070441586683,0.003419999999778156,0.005689339054454234,0.025759999999991123,-801.6112108581194,518.3880264402035,954.6238417984276,False,,
2022-08-31 08:31:12.759718-06:00,61.800616,2.27,-0.1,-2.27,-0.04,19.1,866.45,83.93,23.0,0.0,-0.000314852,-0.000486475,-0.00439446,33.9943344,-106.894674,1363.20669,-10.6389829,2.36023555,-0.0340480815,1.79567,10.449,23311.7,27.434,11889.0,-0.315675,-1.0,12.0,-1170.0,88.0,,0.0,2022-08-31 07:31:11.369,2022-08-31 14:31:12.759718+00:00,1.0328180894666947,0.013858078058979201,2.272638756129615,-2.2499271029328964,0.32049172742887977,-0.044394460000000004,351.8930192491552,0.2553881145246325,0.20157936823199948,2.125582421921758,345.7455432647921,-2.0517578542729473,0.4745894076177989,0.075360852,0.1969701127881455,0.2534689242322069,0.8395118614045867,-0.543341360988657,1.5132283419519483,0.15770400835325674,,,,,,,,,,,-0.40083349476474034,0.6461937030025544,0.7604168543144402,0.006589999999960128,0.005809810155771866,0.0031700000001819717,-801.6223451218204,518.3880264412852,954.6331914176762,False,,
2022-08-31 08:31:13.759442-06:00,62.80034,3.52,-0.24,-3.5,-0.34,19.15,866.46,83.67,22.0,0.0,-0.000857702,-0.000697187,-0.00374761,33.9943343,-106.894674,1363.2124299999998,-10.6081359,2.37036236,-0.035837498,1.79303,10.2479,23332.5,27.4371,11906.0,-0.261256,-1.0,14.0,-1202.0,88.0,,0.0,2022-08-31 07:31:12.393,2022-08-31 14:31:13.759442+00:00,1.0326533366381243,0.01385513261942241,3.508811639725512,-3.4850612733739412,0.40756231904144247,-0.34374761000000004,353.32981262466194,0.2766183516854371,0.2416121053029294,3.0535347017912557,350.14629877047275,-2.9779574427920332,0.34903709735720767,-0.09189482800000001,0.2266104708972275,0.2683891612287431,0.6307583467277493,-0.7759793219108846,2.5309914596129186,0.18505665420882872,,,,,,,,,,,-0.41196775935105345,0.6461937043445375,0.7663443992613523,0.012329999999792562,0.005927544946912167,0.005739999999832435,-801.6334793864067,518.3880264426272,954.6425410761028,False,,
2022-08-31 08:31:14.559807-06:00,63.600705,3.34,-0.89,-3.22,-0.03,19.03,866.47,84.22,21.0,0.0,0.000153499,-0.000252828,-0.0184204,33.9943342,-106.894674,1363.20437,-10.5806799,2.38110213,-0.0360424704,1.79608,10.2339,23329.6,27.4404,11882.0,-0.351962,-1.0,15.0,-1189.0,88.0,,0.0,2022-08-31 07:31:13.417,2022-08-31 14:31:14.559807+00:00,1.033089376247539,0.013862345365157465,3.3409723409241066,-3.3289259099157364,-0.28345805529494145,-0.0484204,364.86699576934757,0.27111521329790184,0.2361362573151578,3.3697154217613843,366.55231331824615,-3.3454180411756895,-0.38043116738320515,-0.04428466,0.23680959776535343,0.2711624458349567,0.8547930859827877,0.5189689587595993,-2.06135804901605,0.1878111218134535,,,,,,,,,,,-0.42310202233388966,0.6461937042886801,0.7723869656884128,0.004269999999905849,0.0060425664270604695,-0.008059999999886713,-801.6446136493896,518.3880264425712,954.6518907707159,False,,
2022-08-31 08:31:14.759473-06:00,63.800371,3.23,-1.14,-3.02,0.02,19.04,866.48,84.2,20.0,0.0,-0.000445202,0.00162792,-0.0141375,33.9943342,-106.894674,1363.2003399999999,-10.5782877,2.38203235,-0.0396838692,1.79608,10.2339,23329.6,27.4404,11882.0,-0.351962,-1.0,15.0,-1189.0,88.0,,0.0,2022-08-31 07:31:13.417,2022-08-31 14:31:14.759473+00:00,1.03306594204007,0.013861789109885031,3.226477971076708,-3.176327033542424,-0.5666627514058552,0.0058625,370.1152578090595,0.26741059478840135,0.23089343857602543,3.3500380884903835,366.3592792168846,-3.3264020932946776,-0.36770258120036947,-0.041758887999999994,0.2361502994276202,0.27084503840043056,0.9645795111427261,0.2637922794239048,-1.2321575664908224,0.2205243193100392,,,,,,,,,,,-0.4231020220666099,0.6461937038804699,0.7723869652004846,0.0002399999998488056,-4.879282533565288e-10,-0.0040300000000570435,-801.6446136491223,518.3880264421631,954.6518907702699,False,,
2022-08-31 08:31:15.759560-06:00,64.800458,3.01,-0.75,-2.9,-0.25,18.98,866.47,84.6,18.0,0.0,-0.000423514,0.00110533,-0.00710522,33.9943342,-106.894674,1363.18472,-10.5523814,2.37568655,-0.0187605957,1.7919,10.2882,23227.7,27.4441,11853.0,-0.224917,-1.0,12.0,-1158.0,88.0,,0.0,2022-08-31 07:31:14.441,2022-08-31 14:31:15.759560+00:00,1.0332661963920373,0.013865335578889611,2.994339652198991,-2.9872003326516956,-0.20664976490858505,-0.25710522,363.95732608162723,0.26524971438714345,0.22454832983237766,2.8180755853742174,368.57747406171757,-2.751224220893495,-0.32535163050277294,-0.27060670600000003,0.2179308068860296,0.26192796783874794,0.9338014008446344,0.3577917603587295,-1.288179165465633,0.19296793286816974,,,,,,,,,,,-0.4231020210306523,0.6461937022982764,0.7723869633093091,-0.015380000000050131,-1.8911754384731694e-09,-0.015619999999898937,-801.6446136480864,518.3880264405809,954.6518907685409,False,,
2022-08-31 08:31:16.559907-06:00,65.600805,1.77,-0.66,-1.63,-0.23,19.16,866.46,83.61,21.0,0.0,-0.000124816,0.000370281,-0.0025299,33.9943341,-106.894674,1363.17373,-10.5264214,2.3763125,-0.0184957124,1.79674,9.61876,23138.7,27.4475,11896.0,-0.202415,-1.0,11.0,-1168.0,88.0,,0.0,2022-08-31 07:31:15.465,2022-08-31 14:31:16.559907+00:00,1.0326180093028758,0.013854535367644926,1.7582126454619191,-1.7227727592646565,-0.35123457488954885,-0.2325299,371.5233910109114,0.24723534371562184,0.18855742369063522,1.8753205625287936,383.15512150645833,-1.687270290139638,-0.7401217957415218,0.0028824926000000084,0.1878998776793291,0.24626007386566512,0.9476114981792105,0.3194251845402176,-1.2403045474947916,0.17058862087568485,,,,,,,,,,,-0.43423628375161927,0.646193701945631,0.7785418746352798,-0.026370000000042637,0.00615491132597068,-0.010989999999992506,-801.6557479108073,518.3880264402283,954.6612405010642,False,,
2022-08-31 08:31:18.759687-06:00,67.800585,2.17,-0.59,-2.09,-0.02,19.32,866.46,82.88,15.0,0.0,-0.000625005,0.000914659,-0.00442137,33.994334,-106.894673,1363.13638,-10.4695137,2.37319318,-0.0452566247,1.79463,9.51888,23138.6,27.4539,11867.0,-0.259964,-1.0,12.0,-1172.0,88.0,,0.0,2022-08-31 07:31:17.513,2022-08-31 14:31:18.759687+00:00,1.0320531004866267,0.013844986463158694,2.1708284092236285,-2.1615007345202035,-0.20102377212909672,-0.02442137,365.3133351152146,0.25261156747721514,0.1997376544171369,1.8030673732172182,372.0342751812444,-1.7274520852193853,-0.3683774595125243,0.10074009400000002,0.1891516960400902,0.24732727467461585,0.825649680338241,0.5641831310464364,-1.2787500578620974,0.15107688055612817,,,,,,,,,,,-0.44537054459394876,0.7385070848188743,0.8624080451384846,-0.06372000000010303,0.08386617050320477,-0.03735000000006039,-801.6668821716497,518.4803398231014,954.7207197677718,False,,
2022-08-31 08:31:19.759279-06:00,68.800177,1.89,-0.53,-1.81,-0.08,19.38,866.47,82.58,16.0,0.0,0.000537083,-0.000393976,-0.00299403,33.994334,-106.894674,1363.12429,-10.4459857,2.37326896,-0.0357700899,1.79698,9.59288,23190.8,27.4573,11907.0,-0.241192,-1.0,13.0,-1204.0,88.0,,0.0,2022-08-31 07:31:18.537,2022-08-31 14:31:19.759279+00:00,1.0318533276997433,0.013841450574887676,1.8863380798335732,-1.8764890297107861,-0.19251044856133037,-0.08299403,365.8575254291977,0.24906591974689476,0.19244492206501446,1.9715847852111406,367.893682153997,-1.9135775367826262,-0.33024198072513106,-0.042421776,0.19421980485983298,0.24959587383701454,0.5914760601063723,0.8063225597247314,-1.7382909633313386,0.17592706373142575,,,,,,,,,,,-0.44537054374990753,0.6461936976982772,0.7848064832715519,-0.07581000000004678,-0.07760156186693268,-0.012089999999943757,-801.6668821708057,518.3880264359809,954.6705902674764,False,,
2022-08-31 08:31:20.759616-06:00,69.800514,1.65,-0.52,-1.56,-0.13,19.19,866.48,83.53,16.0,0.0,0.000131923,-0.000574084,-0.00190537,33.9943342,-106.894674,1363.10635,-10.4225669,2.37203929,-0.0351595215,1.79847,9.03742,23246.5,27.4606,11907.0,-0.334984,-1.0,13.0,-1204.0,88.0,,0.0,2022-08-31 07:31:19.561,2022-08-31 14:31:20.759616+00:00,1.0325358746825204,0.013852827069292332,1.6449344881862473,-1.6289059368999461,-0.2290740473223893,-0.13190537,368.00504445968454,0.24627785023627244,0.1868018515294463,2.1364394570993093,364.84000536635443,-2.1148236120338195,-0.15421714220171162,-0.090130054,0.1993845825105957,0.25257371006659446,0.9745983051087024,0.22396013859444866,-0.6239359546624026,0.1898070761901617,,,,,,,,,,,-0.42310201583295703,0.6461936943599594,0.7723869538207416,-0.09375,-0.012419529450810263,-0.017939999999953216,-801.6446136428887,518.3880264326425,954.6518907598655,False,,
2022-08-31 08:31:21.759629-06:00,70.800527,3.07,-0.47,-3.04,-0.11,19.06,866.48,84.23,18.0,0.0,-0.000273488,0.00058359,-0.00320775,33.9943343,-106.894673,1363.0762,-10.3906107,2.37026366,-0.0510330725,1.79494,9.37562,23260.3,27.4635,11887.0,-0.337255,-1.0,15.0,-1198.0,88.0,,0.0,2022-08-31 07:31:20.585,2022-08-31 14:31:21.759629+00:00,1.032995234949824,0.013860593489158433,3.0755266862802375,-3.074331813306923,0.08572222413624668,-0.11320775,358.40282386989645,0.2675793530702322,0.22791608020243653,2.8587641421600436,356.9829131227725,-2.853985163697889,0.14703183906797093,-0.079440144,0.2207280191790209,0.26397814984678947,0.9055005603058697,0.4243450662912862,-1.0779371108248779,0.1871200540360169,,,,,,,,,,,-0.4119677505537039,0.7385070752446021,0.8456418436209359,-0.12390000000004875,0.07325488980019423,-0.03015000000004875,-801.6334793776094,518.4803398135272,954.6926720323157,False,,
