Timestamp,Seconds,S,Um,Vm,Wm,T,P,H,MD,Sts,Vx,Vy,Vz,Lat,Lon,Alt,Yaw,Roll,Pitch,CH4,C2H6,H20,T_a,Batt,R,C2C1,Power,Current,SOC,Lat_a,Lon_a,TS,Timestamp_UTC
2022-08-31 08:30:10.959102-06:00,0.0,2.65,0.14,-2.63,0.36,19.22,866.47,82.25,22.0,0.0,0.00014329,-0.000384601,0.000353335,33.9943302,-106.894679,1362.15076,-13.1191037,2.37409735,0.0291317186,,,,,,,,,,,,,,2022-08-31 14:30:10.959102+00:00
2022-08-31 08:30:11.160016-06:00,0.200914,2.89,0.72,-2.77,0.36,19.19,866.48,82.38,20.0,0.0,0.000226642,-0.000138119,-9.63541e-05,33.9943302,-106.894679,1362.1449,-13.1047792,2.37515298,0.031918783,,,,,,,,,,,,,,2022-08-31 14:30:11.160016+00:00
2022-08-31 08:30:11.359769-06:00,0.400667,3.23,0.31,-3.21,0.14,19.05,866.49,83.15,16.0,0.0,-8.57361e-05,-0.000221938,-0.000123106,33.9943303,-106.894679,1362.14575,-13.0906858,2.36989965,0.0374770906,,,,,,,,,,,,,,2022-08-31 14:30:11.359769+00:00
2022-08-31 08:30:11.559824-06:00,0.600722,3.01,0.24,-3.0,0.22,19.08,866.5,83.07,16.0,0.0,-9.08134e-05,-0.000437714,4.21417e-05,33.9943304,-106.894679,1362.1427,-13.0797286,2.36794853,0.0320940467,1.80044,17.7815,22972.1,27.2318,11886.0,-0.0476175,-1.0,10.0,-1197.0,88.0,,0.0,2022-08-31 07:30:09.827,2022-08-31 14:30:11.559824+00:00
2022-08-31 08:30:11.759839-06:00,0.800737,3.28,0.02,-3.28,-0.14,19.02,866.48,83.35,22.0,0.0,-0.00049283,0.000367107,-0.000155675,33.9943304,-106.894679,1362.14355,-13.0665695,2.37009562,0.0351992754,,,,,,,,,,,,,,2022-08-31 14:30:11.759839+00:00
2022-08-31 08:30:11.959644-06:00,1.000542,3.38,-0.05,-3.37,-0.27,19.07,866.48,83.03,22.0,0.0,0.000232451,-0.00038844,0.000479984,33.9943305,-106.894679,1362.14331,-13.0607819,2.37098047,0.035234627,,,,,,,,,,,,,,2022-08-31 14:30:11.959644+00:00
2022-08-31 08:30:12.159701-06:00,1.200599,3.12,0.06,-3.12,-0.08,19.04,866.49,83.11,16.0,0.0,-0.000410156,0.000523757,-0.00125677,33.9943306,-106.894679,1362.14026,-13.0442706,2.37246593,0.0426194772,,,,,,,,,,,,,,2022-08-31 14:30:12.159701+00:00
2022-08-31 08:30:12.360018-06:00,1.400916,2.93,0.05,-2.93,-0.11,19.05,866.48,83.14,15.0,0.0,-4.71676e-05,-4.86658e-07,-0.000794198,33.9943306,-106.894679,1362.13843,-13.0353813,2.37082646,0.0351872692,,,,,,,,,,,,,,2022-08-31 14:30:12.360018+00:00
2022-08-31 08:30:12.559061-06:00,1.599959,3.39,-0.33,-3.37,-0.09,19.11,866.48,82.91,18.0,0.0,-8.87555e-05,0.000502859,-0.00102516,33.9943307,-106.894679,1362.13647,-13.0280427,2.37027507,0.0358824545,,,,,,,,,,,,,,2022-08-31 14:30:12.559061+00:00
2022-08-31 08:30:12.759186-06:00,1.800084,3.24,-0.33,-3.22,-0.04,19.11,866.48,82.81,23.0,0.0,-0.000148866,-4.88492e-05,6.58808e-05,33.9943307,-106.894679,1362.14502,-13.0172608,2.37146136,0.0534895404,1.80315,17.338,22942.9,27.235,11858.0,-0.0559439,-1.0,11.0,-1186.0,88.0,,0.0,2022-08-31 07:30:10.851,2022-08-31 14:30:12.759186+00:00
2022-08-31 08:30:12.960036-06:00,2.000934,2.86,-0.12,-2.86,0.06,19.2,866.48,82.34,21.0,0.0,5.12008e-05,0.00051211,4.92093e-06,33.9943308,-106.894679,1362.14966,-13.000952,2.37156851,0.0426841773,,,,,,,,,,,,,,2022-08-31 14:30:12.960036+00:00
2022-08-31 08:30:13.159483-06:00,2.200381,2.83,-0.27,-2.82,0.12,19.24,866.48,82.25,17.0,0.0,0.000354062,-4.91521e-05,0.000519133,33.9943309,-106.894679,1362.16138,-12.9825476,2.36882491,0.046756999,,,,,,,,,,,,,,2022-08-31 14:30:13.159483+00:00
2022-08-31 08:30:13.359700-06:00,2.400598,2.6,-0.06,-2.6,0.12,19.24,866.48,82.17,17.0,0.0,8.47105e-05,0.000148942,0.000341163,33.9943309,-106.894679,1362.1748,-12.9665477,2.36733109,0.0402445985,,,,,,,,,,,,,,2022-08-31 14:30:13.359700+00:00
2022-08-31 08:30:13.559433-06:00,2.600331,2.75,-0.34,-2.72,0.19,19.22,866.48,82.23,22.0,0.0,-0.000311261,0.000630398,-0.000123951,33.9943309,-106.894679,1362.18103,-12.9529467,2.36580389,0.0431644251,,,,,,,,,,,,,,2022-08-31 14:30:13.559433+00:00
2022-08-31 08:30:13.759302-06:00,2.8002,2.22,-0.04,-2.2,0.33,19.25,866.48,82.09,22.0,0.0,-0.000758794,-4.97174e-05,-0.000646582,33.994331,-106.894679,1362.18787,-12.941127,2.36687009,0.0355846209,1.79995,17.7081,22898.8,27.2385,11896.0,0.00142513,-1.0,13.0,-1199.0,88.0,,0.0,2022-08-31 07:30:11.875,2022-08-31 14:30:13.759302+00:00
2022-08-31 08:30:13.959776-06:00,3.000674,2.69,-0.2,-2.67,0.23,19.22,866.48,82.24,17.0,0.0,-0.000410105,0.00043493,-0.000717129,33.994331,-106.894679,1362.19653,-12.9296948,2.36445816,0.0472420226,,,,,,,,,,,,,,2022-08-31 14:30:13.959776+00:00
2022-08-31 08:30:14.159810-06:00,3.200708,2.94,-0.35,-2.92,0.09,19.19,866.47,82.21,15.0,0.0,-0.000349119,-0.000311124,0.000156006,33.994331,-106.894679,1362.20618,-12.9204171,2.36314708,0.0350495448,,,,,,,,,,,,,,2022-08-31 14:30:14.159810+00:00
2022-08-31 08:30:14.359744-06:00,3.400642,2.31,-0.1,-2.3,0.23,19.24,866.48,81.94,18.0,0.0,-0.000759958,0.000299084,-0.0011418,33.9943311,-106.894679,1362.21155,-12.9079541,2.36452955,0.0381304944,,,,,,,,,,,,,,2022-08-31 14:30:14.359744+00:00
2022-08-31 08:30:14.559245-06:00,3.600143,1.99,-0.02,-1.96,0.37,19.28,866.48,81.86,23.0,0.0,-0.000974407,0.000725501,-0.000733128,33.9943312,-106.894678,1362.21948,-12.8986271,2.36938368,0.0401398244,,,,,,,,,,,,,,2022-08-31 14:30:14.559245+00:00
2022-08-31 08:30:14.760096-06:00,3.800994,1.71,0.18,-1.62,0.53,19.27,866.48,81.9,20.0,0.0,-0.00178393,0.00130536,-0.000800898,33.9943313,-106.894678,1362.23071,-12.8884993,2.36786591,0.0385213627,,,,,,,,,,,,,,2022-08-31 14:30:14.760096+00:00
2022-08-31 08:30:14.959151-06:00,4.000049,1.48,0.47,-1.27,0.59,19.29,866.47,81.79,16.0,0.0,-0.00204452,0.00226028,-0.000360622,33.9943313,-106.894678,1362.24121,-12.8770606,2.36802398,0.0410244942,,,,,,,,,,,,,,2022-08-31 14:30:14.959151+00:00
2022-08-31 08:30:15.159588-06:00,4.200486,1.54,0.42,-1.38,0.53,19.25,866.47,82.1,16.0,0.0,-0.00143996,0.000590954,-0.00149331,33.9943314,-106.894678,1362.24683,-12.8652009,2.36660824,0.0395831105,,,,,,,,,,,,,,2022-08-31 14:30:15.159588+00:00
2022-08-31 08:30:15.359607-06:00,4.400505,1.64,0.25,-1.53,0.53,19.22,866.48,82.23,21.0,0.0,-0.00119129,0.000233315,-0.00151589,33.9943314,-106.894678,1362.25098,-12.8515123,2.36568748,0.0393676927,,,,,,,,,,,,,,2022-08-31 14:30:15.359607+00:00
2022-08-31 08:30:15.559475-06:00,4.600373,2.39,-0.13,-2.38,0.09,19.15,866.48,82.61,22.0,0.0,-0.000969329,-0.000365885,-0.00128878,33.9943315,-106.894678,1362.25183,-12.8476832,2.36579647,0.0368446576,,,,,,,,,,,,,,2022-08-31 14:30:15.559475+00:00
2022-08-31 08:30:15.759173-06:00,4.800071,2.28,-0.18,-2.26,0.16,19.17,866.47,82.51,16.0,0.0,-0.000235665,-0.00014093,-0.000815985,33.9943316,-106.894678,1362.24805,-12.8237825,2.36619277,0.0353259274,1.80296,16.6536,22960.3,27.2456,11865.0,0.111353,-1.0,11.0,-1188.0,88.0,,0.0,2022-08-31 07:30:13.923,2022-08-31 14:30:15.759173+00:00
2022-08-31 08:30:15.959323-06:00,5.000221,1.88,0.06,-1.83,0.42,19.27,866.47,82.07,15.0,0.0,-0.000940741,-2.61048e-05,-0.000425379,33.9943317,-106.894678,1362.24963,-12.8083935,2.36483212,0.0275574398,,,,,,,,,,,,,,2022-08-31 14:30:15.959323+00:00
2022-08-31 08:30:16.160033-06:00,5.200931,1.94,0.18,-1.92,0.21,19.25,866.48,82.11,17.0,0.0,-0.00100985,-0.000350523,-0.000547751,33.9943317,-106.894678,1362.24951,-12.7968749,2.3662952,0.0356536431,,,,,,,,,,,,,,2022-08-31 14:30:16.160033+00:00
2022-08-31 08:30:16.359903-06:00,5.400801,1.78,0.13,-1.73,0.37,19.3,866.47,81.9,22.0,0.0,-0.000690493,-0.000272459,0.0001222,33.9943318,-106.894678,1362.24548,-12.7834331,2.3656369,0.0255075291,,,,,,,,,,,,,,2022-08-31 14:30:16.359903+00:00
2022-08-31 08:30:16.559760-06:00,5.600658,1.64,0.42,-1.51,0.46,19.2,866.47,82.35,19.0,0.0,-0.000824297,-0.000130536,-0.000417404,33.9943319,-106.894678,1362.23999,-12.7720737,2.36678702,0.0311849911,,,,,,,,,,,,,,2022-08-31 14:30:16.559760+00:00
2022-08-31 08:30:16.759548-06:00,5.800446,1.65,0.53,-1.5,0.43,19.19,866.47,82.3,16.0,0.0,-0.000471902,-0.000360576,-0.000371679,33.994332,-106.894678,1362.23413,-12.7620299,2.36626803,0.0246014617,1.80132,17.1994,22992.2,27.2487,11864.0,0.0999318,-1.0,12.0,-1194.0,88.0,,0.0,2022-08-31 07:30:14.947,2022-08-31 14:30:16.759548+00:00
2022-08-31 08:30:16.959154-06:00,6.000052,1.31,0.28,-1.19,0.49,19.2,866.47,82.34,15.0,0.0,-0.0003949,-0.000314465,-0.000349956,33.9943321,-106.894678,1362.23071,-12.7533923,2.36696926,0.0247376119,,,,,,,,,,,,,,2022-08-31 14:30:16.959154+00:00
2022-08-31 08:30:17.159208-06:00,6.200106,1.47,0.28,-1.33,0.55,19.24,866.46,82.22,20.0,0.0,-0.000549888,-9.41942e-05,-0.000985132,33.9943321,-106.894678,1362.22974,-12.7417002,2.36888157,0.0261624002,,,,,,,,,,,,,,2022-08-31 14:30:17.159208+00:00
2022-08-31 08:30:17.360034-06:00,6.400932,1.6,0.51,-1.41,0.56,19.34,866.48,81.53,21.0,0.0,-2.64155e-05,8.37305e-05,-0.000105829,33.9943322,-106.894678,1362.22595,-12.7336006,2.36879948,0.0287831387,,,,,,,,,,,,,,2022-08-31 14:30:17.360034+00:00
2022-08-31 08:30:17.559451-06:00,6.600349,1.71,0.41,-1.61,0.4,19.28,866.47,81.95,17.0,0.0,-0.00012901,-0.00019895,-0.000336336,33.9943323,-106.894678,1362.22461,-12.7235369,2.36948923,0.0367616281,,,,,,,,,,,,,,2022-08-31 14:30:17.559451+00:00
2022-08-31 08:30:17.759127-06:00,6.800025,2.18,0.43,-2.12,0.28,19.15,866.47,82.7,15.0,0.0,-9.04266e-05,9.27466e-05,-0.00036208,33.9943323,-106.894678,1362.21741,-12.713647,2.3728404,0.0276567177,1.80141,16.6099,23088.1,27.2525,11912.0,0.123939,-1.0,14.0,-1186.0,88.0,,0.0,2022-08-31 07:30:15.971,2022-08-31 14:30:17.759127+00:00
2022-08-31 08:30:17.959980-06:00,7.000878,2.56,0.62,-2.46,0.28,19.12,866.47,82.77,17.0,0.0,-0.000115685,8.35085e-05,-0.00147193,33.9943324,-106.894678,1362.21362,-12.7068461,2.36920371,0.0339722957,,,,,,,,,,,,,,2022-08-31 14:30:17.959980+00:00
2022-08-31 08:30:18.159725-06:00,7.200623,2.39,0.22,-2.38,0.13,19.16,866.48,82.44,23.0,0.0,-0.000166654,0.000353952,-0.00194604,33.9943324,-106.894678,1362.20544,-12.693874,2.36869049,0.0300506193,,,,,,,,,,,,,,2022-08-31 14:30:18.159725+00:00
2022-08-31 08:30:18.359599-06:00,7.400497,2.59,-0.24,-2.57,-0.11,19.11,866.47,82.74,19.0,0.0,-0.000246559,0.000158787,-0.00203136,33.9943325,-106.894678,1362.20789,-12.6831912,2.36982363,0.0326435836,,,,,,,,,,,,,,2022-08-31 14:30:18.359599+00:00
2022-08-31 08:30:18.559093-06:00,7.599991,2.61,-0.17,-2.61,0.04,19.19,866.48,82.49,16.0,0.0,-0.000660158,8.60336e-05,-0.00083838,33.9943326,-106.894678,1362.20813,-12.6735968,2.36785438,0.0340489753,,,,,,,,,,,,,,2022-08-31 14:30:18.559093+00:00
2022-08-31 08:30:18.759938-06:00,7.800836,3.14,-0.46,-3.11,-0.13,19.1,866.47,82.79,16.0,0.0,2.35147e-05,-8.00421e-05,-0.000512576,33.9943326,-106.894678,1362.21155,-12.6634514,2.37049748,0.0295290168,,,,,,,,,,,,,,2022-08-31 14:30:18.759938+00:00
2022-08-31 08:30:18.959454-06:00,8.000352,3.16,-0.46,-3.12,-0.17,19.04,866.47,83.06,20.0,0.0,0.000434568,-0.00019675,-6.74544e-05,33.9943327,-106.894678,1362.20996,-12.6525312,2.37148732,0.0319671813,,,,,,,,,,,,,,2022-08-31 14:30:18.959454+00:00
2022-08-31 08:30:19.159840-06:00,8.200738,3.08,-0.56,-3.02,-0.19,18.98,866.48,83.47,22.0,0.0,3.38103e-05,3.5156e-05,-0.000472911,33.9943328,-106.894678,1362.20422,-12.6425928,2.37326786,0.0270707087,,,,,,,,,,,,,,2022-08-31 14:30:19.159840+00:00
2022-08-31 08:30:19.359448-06:00,8.400346,2.37,-0.16,-2.36,0.15,19.02,866.47,83.19,17.0,0.0,0.000361531,-0.00045136,-0.00173481,33.9943328,-106.894678,1362.20422,-12.631863,2.37287734,0.0310917697,,,,,,,,,,,,,,2022-08-31 14:30:19.359448+00:00
2022-08-31 08:30:19.559519-06:00,8.600417,2.2,-0.16,-2.19,0.1,19.17,866.49,82.52,15.0,0.0,0.000318527,-0.000196319,-0.000602648,33.9943329,-106.894678,1362.20984,-12.6178539,2.371168,0.0245350274,1.80057,15.7688,23138.2,27.2592,11854.0,0.196207,-1.0,13.0,-1166.0,88.0,,0.0,2022-08-31 07:30:18.019,2022-08-31 14:30:19.559519+00:00
2022-08-31 08:30:19.759893-06:00,8.800791,2.28,-0.13,-2.28,0.06,19.18,866.48,82.45,17.0,0.0,-0.000202005,-0.000841349,-0.000941982,33.994333,-106.894678,1362.20496,-12.6083292,2.36955724,0.0282394983,,,,,,,,,,,,,,2022-08-31 14:30:19.759893+00:00
2022-08-31 08:30:19.959497-06:00,9.000395,2.45,0.4,-2.4,0.29,19.14,866.48,82.66,22.0,0.0,-0.000626325,-0.000336657,-0.000315055,33.9943331,-106.894678,1362.20959,-12.5949475,2.3677068,0.021408348,,,,,,,,,,,,,,2022-08-31 14:30:19.959497+00:00
2022-08-31 08:30:20.159521-06:00,9.200419,2.47,0.37,-2.42,0.31,19.16,866.47,82.46,19.0,0.0,-6.56229e-05,-0.000283555,0.000277011,33.9943332,-106.894678,1362.20947,-12.584047,2.36883811,0.0169050653,,,,,,,,,,,,,,2022-08-31 14:30:20.159521+00:00
2022-08-31 08:30:20.359142-06:00,9.40004,2.63,0.48,-2.56,0.31,19.09,866.48,82.72,16.0,0.0,8.18081e-05,-0.000582619,-0.000285797,33.9943332,-106.894678,1362.20325,-12.5693088,2.36917716,0.0174643938,,,,,,,,,,,,,,2022-08-31 14:30:20.359142+00:00
2022-08-31 08:30:20.559669-06:00,9.600567,2.47,0.73,-2.34,0.37,19.2,866.46,82.84,16.0,0.0,-0.000157767,0.000113222,-0.00169084,33.9943333,-106.894678,1362.19543,-12.5598477,2.36661491,0.0146063597,,,,,,,,,,,,,,2022-08-31 14:30:20.559669+00:00
2022-08-31 08:30:20.759208-06:00,9.800106,2.18,0.73,-1.99,0.47,19.21,866.47,82.11,21.0,0.0,-0.000109755,-0.000509138,-0.00148826,33.9943334,-106.894678,1362.18896,-12.5468392,2.36660018,0.0208263411,1.80101,16.598,23067.5,27.2625,11890.0,0.182642,-1.0,12.0,-1174.0,88.0,,0.0,2022-08-31 07:30:19.043,2022-08-31 14:30:20.759208+00:00
2022-08-31 08:30:20.959882-06:00,10.00078,2.13,0.16,-2.11,0.25,19.15,866.48,83.2,21.0,0.0,-0.000320079,0.000741751,-0.000416744,33.9943335,-106.894678,1362.19141,-12.5349548,2.36715827,0.0196640616,,,,,,,,,,,,,,2022-08-31 14:30:20.959882+00:00
2022-08-31 08:30:21.159989-06:00,10.200887,2.09,0.25,-2.07,0.21,19.15,866.48,82.61,17.0,0.0,-0.000132612,-0.000303258,0.0010517,33.9943335,-106.894678,1362.19385,-12.5247716,2.3658451,0.0298112158,,,,,,,,,,,,,,2022-08-31 14:30:21.159989+00:00
2022-08-31 08:30:21.359453-06:00,10.400351,1.94,0.62,-1.78,0.46,19.2,866.49,82.37,15.0,0.0,-0.0002825,0.000280885,0.00124578,33.9943336,-106.894678,1362.19385,-12.5149878,2.36836624,0.0240070751,,,,,,,,,,,,,,2022-08-31 14:30:21.359453+00:00
2022-08-31 08:30:21.559589-06:00,10.600487,1.78,0.53,-1.65,0.41,19.22,866.47,82.01,17.0,0.0,0.000154686,-0.000343648,0.00179069,33.9943336,-106.894678,1362.19507,-12.5063572,2.3681821,0.0317206007,1.79663,16.4666,23018.1,27.2657,11911.0,0.232909,-1.0,13.0,-1191.0,88.0,,0.0,2022-08-31 07:30:20.067,2022-08-31 14:30:21.559589+00:00
2022-08-31 08:30:21.759417-06:00,10.800315,1.64,0.53,-1.5,0.4,19.23,866.47,82.08,22.0,0.0,7.68009e-06,0.000388603,0.00200025,33.9943337,-106.894678,1362.19702,-12.4957193,2.37162044,0.0276124815,1.79663,16.4666,23018.1,27.2657,11911.0,0.232909,-1.0,13.0,-1191.0,88.0,,0.0,2022-08-31 07:30:20.067,2022-08-31 14:30:21.759417+00:00
2022-08-31 08:30:21.959194-06:00,11.000092,1.51,0.61,-1.22,0.65,19.28,866.46,81.84,19.0,0.0,-0.000107719,-0.000234993,0.000896252,33.9943337,-106.894679,1362.19434,-12.4834526,2.37099363,0.0252541984,,,,,,,,,,,,,,2022-08-31 14:30:21.959194+00:00
2022-08-31 08:30:22.159501-06:00,11.200399,1.62,0.59,-1.43,0.49,19.27,866.46,82.59,16.0,0.0,4.30478e-05,8.76507e-05,0.0006743,33.9943337,-106.894679,1362.19482,-12.4740203,2.37171776,0.0287229477,,,,,,,,,,,,,,2022-08-31 14:30:22.159501+00:00
2022-08-31 08:30:22.359245-06:00,11.400143,1.41,0.7,-0.98,0.73,19.2,866.47,82.26,15.0,0.0,-0.000193562,4.22522e-06,0.00185121,33.9943338,-106.894679,1362.19348,-12.4647627,2.36906401,0.0202064214,,,,,,,,,,,,,,2022-08-31 14:30:22.359245+00:00
2022-08-31 08:30:22.559807-06:00,11.600705,1.19,0.49,-0.86,0.66,19.32,866.47,82.24,19.0,0.0,-0.000269608,-0.000460895,0.00168996,33.9943338,-106.894679,1362.19604,-12.4550201,2.36711998,0.0198444213,,,,,,,,,,,,,,2022-08-31 14:30:22.559807+00:00
2022-08-31 08:30:22.759883-06:00,11.800781,1.52,0.75,-1.08,0.78,19.37,866.48,81.56,21.0,0.0,-0.000276559,0.0001936,0.0011432,33.9943339,-106.894679,1362.19324,-12.4458014,2.36774262,0.0152858835,1.80103,15.4739,23006.0,27.2698,11851.0,0.2909,-1.0,14.0,-1180.0,88.0,,0.0,2022-08-31 07:30:21.091,2022-08-31 14:30:22.759883+00:00
2022-08-31 08:30:22.959986-06:00,12.000884,1.61,0.45,-1.48,0.46,19.3,866.47,81.86,17.0,0.0,-0.000245879,-0.000397682,5.50417e-05,33.9943339,-106.894679,1362.19104,-12.4368863,2.36645819,0.0222804245,,,,,,,,,,,,,,2022-08-31 14:30:22.959986+00:00
2022-08-31 08:30:23.159724-06:00,12.200622,2.04,0.54,-1.94,0.32,19.16,866.48,82.55,15.0,0.0,-0.00020568,5.85587e-05,0.000350242,33.994334,-106.894679,1362.19763,-12.42621,2.36608087,0.0218467074,,,,,,,,,,,,,,2022-08-31 14:30:23.159724+00:00
2022-08-31 08:30:23.359939-06:00,12.400837,1.63,0.68,-1.42,0.44,19.22,866.47,82.23,17.0,0.0,9.20005e-05,-0.000478938,0.000471859,33.994334,-106.894679,1362.20276,-12.4181363,2.36729546,0.0238720188,,,,,,,,,,,,,,2022-08-31 14:30:23.359939+00:00
2022-08-31 08:30:23.560041-06:00,12.600939,1.86,0.77,-1.63,0.45,19.2,866.47,82.25,22.0,0.0,3.75717e-05,0.000488117,0.00110274,33.9943341,-106.894678,1362.21033,-12.4009597,2.36780899,0.0280570842,1.79832,15.9819,23051.1,27.2729,11861.0,0.376576,-1.0,12.0,-1157.0,88.0,,0.0,2022-08-31 07:30:22.115,2022-08-31 14:30:23.560041+00:00
2022-08-31 08:30:23.759486-06:00,12.800384,2.25,0.78,-2.08,0.37,19.16,866.46,83.17,19.0,0.0,-0.000365567,0.000167098,2.3018e-05,33.9943341,-106.894679,1362.21326,-12.391188,2.36938802,0.0307404685,1.79832,15.9819,23051.1,27.2729,11861.0,0.376576,-1.0,12.0,-1157.0,88.0,,0.0,2022-08-31 07:30:22.115,2022-08-31 14:30:23.759486+00:00
2022-08-31 08:30:23.959849-06:00,13.000747,1.91,0.69,-1.7,0.54,19.29,866.47,81.96,16.0,0.0,-0.00017226,-9.14999e-05,-0.000639416,33.9943342,-106.894679,1362.21558,-12.3805961,2.37107696,0.029637953,,,,,,,,,,,,,,2022-08-31 14:30:23.959849+00:00
2022-08-31 08:30:24.159411-06:00,13.200309,2.02,0.55,-1.85,0.61,19.31,866.45,82.28,16.0,0.0,1.63467e-05,0.000195969,-0.000632746,33.9943342,-106.894679,1362.21899,-12.3697438,2.37257049,0.0241811916,,,,,,,,,,,,,,2022-08-31 14:30:24.159411+00:00
2022-08-31 08:30:24.359378-06:00,13.400276,2.06,0.66,-1.85,0.63,19.3,866.47,81.74,20.0,0.0,0.00010191,0.000107315,-0.00083128,33.9943343,-106.894679,1362.22095,-12.3546586,2.3724516,0.0314602798,,,,,,,,,,,,,,2022-08-31 14:30:24.359378+00:00
2022-08-31 08:30:24.559754-06:00,13.600652,2.18,0.57,-2.02,0.59,19.27,866.46,82.52,21.0,0.0,-6.09425e-05,0.000310764,-0.000740518,33.9943343,-106.894678,1362.22632,-12.3435762,2.3700825,0.0249037243,1.79794,15.7294,23108.2,27.276,11911.0,0.488557,-1.0,12.0,-1187.0,88.0,,0.0,2022-08-31 07:30:23.139,2022-08-31 14:30:24.559754+00:00
2022-08-31 08:30:24.759653-06:00,13.800551,2.11,0.55,-1.98,0.47,19.23,866.47,82.63,17.0,0.0,-0.000153316,-3.83032e-05,-0.0013796,33.9943344,-106.894678,1362.22681,-12.3330018,2.37095757,0.0286863155,,,,,,,,,,,,,,2022-08-31 14:30:24.759653+00:00
2022-08-31 08:30:24.959535-06:00,14.000433,2.1,0.51,-2.0,0.42,19.15,866.48,83.03,15.0,0.0,-0.000101539,0.000242041,-0.000431858,33.9943344,-106.894678,1362.2334,-12.3243498,2.37091425,0.0223257278,,,,,,,,,,,,,,2022-08-31 14:30:24.959535+00:00
2022-08-31 08:30:25.159476-06:00,14.200374,2.16,0.4,-2.09,0.34,19.15,866.48,82.53,18.0,0.0,-1.23779e-05,-0.000420216,-0.000643345,33.9943345,-106.894678,1362.23279,-12.3146328,2.37199905,0.0193172694,,,,,,,,,,,,,,2022-08-31 14:30:25.159476+00:00
2022-08-31 08:30:25.359470-06:00,14.400368,1.99,0.19,-1.96,0.29,19.19,866.48,82.98,23.0,0.0,-8.22259e-05,0.000332347,-0.000936178,33.9943345,-106.894678,1362.23279,-12.3092965,2.37110296,0.016322845,,,,,,,,,,,,,,2022-08-31 14:30:25.359470+00:00
2022-08-31 08:30:25.559768-06:00,14.600666,1.76,0.54,-1.59,0.51,19.24,866.46,82.74,19.0,0.0,-2.60671e-05,0.000288532,-0.000668981,33.9943345,-106.894678,1362.23779,-12.2898537,2.37341436,0.0174827499,,,,,,,,,,,,,,2022-08-31 14:30:25.559768+00:00
2022-08-31 08:30:25.759358-06:00,14.800256,2.05,0.53,-1.94,0.44,19.26,866.46,82.57,16.0,0.0,-0.000316938,-0.000211923,-0.000398456,33.9943345,-106.894678,1362.24329,-12.2804289,2.37473266,0.0226948783,1.79821,15.5825,23103.0,27.2797,11901.0,0.605982,-1.0,16.0,-1181.0,88.0,,0.0,2022-08-31 07:30:24.163,2022-08-31 14:30:25.759358+00:00
2022-08-31 08:30:25.960025-06:00,15.000923,2.08,0.66,-1.93,0.4,19.2,866.49,82.85,15.0,0.0,4.43919e-05,0.000260735,-0.000363208,33.9943345,-106.894678,1362.2439,-12.2691693,2.37542352,0.0160757309,,,,,,,,,,,,,,2022-08-31 14:30:25.960025+00:00
2022-08-31 08:30:26.159400-06:00,15.200298,2.09,0.52,-2.0,0.32,19.2,866.46,82.94,20.0,0.0,-1.16202e-05,-5.71127e-05,0.000250091,33.9943345,-106.894678,1362.24731,-12.2616413,2.37716539,0.0269018483,,,,,,,,,,,,,,2022-08-31 14:30:26.159400+00:00
2022-08-31 08:30:26.359824-06:00,15.400722,2.12,0.51,-2.03,0.35,19.2,866.48,83.04,22.0,0.0,0.000280907,0.000318022,-0.000164861,33.9943345,-106.894678,1362.24231,-12.2486645,2.37532503,0.0215795296,,,,,,,,,,,,,,2022-08-31 14:30:26.359824+00:00
2022-08-31 08:30:26.559781-06:00,15.600679,2.09,0.66,-1.95,0.38,19.16,866.47,83.13,17.0,0.0,0.000100049,0.000141897,-0.000521521,33.9943345,-106.894678,1362.2428,-12.243323,2.37462951,0.0233503897,,,,,,,,,,,,,,2022-08-31 14:30:26.559781+00:00
2022-08-31 08:30:26.759416-06:00,15.800314,2.01,0.42,-1.92,0.42,19.22,866.47,82.25,15.0,0.0,-5.40164e-05,-0.000189547,-0.000258988,33.9943346,-106.894678,1362.2417,-12.2342961,2.37327796,0.0223513944,1.79775,15.5569,23120.3,27.2833,11852.0,0.707182,0.201977,14.0,-1169.0,88.0,,0.0,2022-08-31 07:30:25.187,2022-08-31 14:30:26.759416+00:00
2022-08-31 08:30:26.959274-06:00,16.000172,2.2,0.29,-2.16,0.32,19.12,866.47,83.19,18.0,0.0,-0.000528424,-0.000168346,-0.000684357,33.9943346,-106.894678,1362.23853,-12.2252896,2.37251071,0.0173998005,,,,,,,,,,,,,,2022-08-31 14:30:26.959274+00:00
2022-08-31 08:30:27.159667-06:00,16.200565,2.18,0.54,-2.09,0.3,19.16,866.47,83.21,23.0,0.0,-0.000207407,-0.00076056,-0.00160657,33.9943346,-106.894678,1362.23914,-12.217404,2.36936616,0.023002637,,,,,,,,,,,,,,2022-08-31 14:30:27.159667+00:00
2022-08-31 08:30:27.359348-06:00,16.400246,2.21,0.73,-2.05,0.35,19.15,866.47,83.09,20.0,0.0,-8.25745e-05,-0.000209077,-0.000617533,33.9943346,-106.894678,1362.245,-12.209329,2.36651711,0.0168647512,,,,,,,,,,,,,,2022-08-31 14:30:27.359348+00:00
2022-08-31 08:30:27.559045-06:00,16.599943,2.2,0.69,-2.05,0.39,19.17,866.47,83.03,15.0,0.0,-0.000231033,-0.000655678,-0.000726264,33.9943347,-106.894678,1362.24805,-12.195297,2.36361978,0.0264162378,,,,,,,,,,,,,,2022-08-31 14:30:27.559045+00:00
2022-08-31 08:30:27.759264-06:00,16.800162,1.97,0.66,-1.81,0.39,19.19,866.46,83.02,16.0,0.0,-0.000305213,-0.000483418,-0.000452066,33.9943347,-106.894678,1362.24817,-12.194654,2.3642458,0.0233225353,1.80272,15.6122,23079.5,27.2863,11910.0,0.718405,0.207767,11.0,-1178.0,88.0,,0.0,2022-08-31 07:30:26.211,2022-08-31 14:30:27.759264+00:00
2022-08-31 08:30:27.959143-06:00,17.000041,2.16,0.45,-2.09,0.31,19.17,866.48,82.99,20.0,0.0,-0.000668078,-0.000339547,0.000963347,33.9943347,-106.894678,1362.25513,-12.1817066,2.36010076,0.0258828693,,,,,,,,,,,,,,2022-08-31 14:30:27.959143+00:00
2022-08-31 08:30:28.159793-06:00,17.200691,2.04,0.65,-1.9,0.37,19.22,866.45,82.73,22.0,0.0,-0.000697084,0.000257503,0.0017473,33.9943347,-106.894678,1362.26147,-12.1702588,2.36007098,0.019061751,,,,,,,,,,,,,,2022-08-31 14:30:28.159793+00:00
2022-08-31 08:30:28.359821-06:00,17.400719,2.11,0.63,-1.97,0.42,19.25,866.48,82.79,17.0,0.0,-0.000440551,0.000159011,0.00142136,33.9943347,-106.894678,1362.25806,-12.1644592,2.35731935,0.0136528546,,,,,,,,,,,,,,2022-08-31 14:30:28.359821+00:00
2022-08-31 08:30:28.559064-06:00,17.599962,2.3,0.43,-2.23,0.3,19.2,866.49,82.95,15.0,0.0,-0.000616759,0.000198704,0.000934434,33.9943347,-106.894678,1362.25549,-12.1533703,2.35750612,0.0166069382,,,,,,,,,,,,,,2022-08-31 14:30:28.559064+00:00
2022-08-31 08:30:28.759010-06:00,17.799908,2.31,0.13,-2.3,0.18,19.25,866.48,82.67,17.0,0.0,-0.000698616,0.00053805,0.000645676,33.9943347,-106.894678,1362.25391,-12.1435449,2.35858402,0.0113615929,1.7986,15.0552,23004.0,27.2896,11922.0,0.730384,0.219029,9.0,-1193.0,88.0,,0.0,2022-08-31 07:30:27.235,2022-08-31 14:30:28.759010+00:00
2022-08-31 08:30:28.960005-06:00,18.000903,1.9,0.38,-1.82,0.4,19.31,866.47,82.37,23.0,0.0,-0.000590521,0.000413261,0.00056602,33.9943347,-106.894678,1362.25708,-12.13647,2.35801307,0.0160118846,,,,,,,,,,,,,,2022-08-31 14:30:28.960005+00:00
2022-08-31 08:30:29.159559-06:00,18.200457,1.75,0.58,-1.56,0.53,19.37,866.47,82.16,20.0,0.0,-0.000294951,-0.000956531,0.00155817,33.9943348,-106.894678,1362.26318,-12.1311863,2.35887884,0.0155839306,,,,,,,,,,,,,,2022-08-31 14:30:29.159559+00:00
2022-08-31 08:30:29.359648-06:00,18.400546,1.7,0.77,-1.3,0.77,19.44,866.46,81.72,16.0,0.0,-0.00037289,-0.000193597,-6.92381e-05,33.9943348,-106.894678,1362.25989,-12.1219968,2.35986598,0.0167460766,,,,,,,,,,,,,,2022-08-31 14:30:29.359648+00:00
2022-08-31 08:30:29.559914-06:00,18.600812,2.19,0.64,-2.06,0.38,19.27,866.46,82.39,16.0,0.0,-3.67957e-05,0.000300479,9.82275e-05,33.9943348,-106.894678,1362.26453,-12.108384,2.36243065,0.0113979049,1.8009,15.0322,23023.4,27.2936,11874.0,0.702086,0.223898,14.0,-1174.0,88.0,,0.0,2022-08-31 07:30:28.259,2022-08-31 14:30:29.559914+00:00
2022-08-31 08:30:29.759415-06:00,18.800313,2.23,0.55,-2.14,0.32,19.22,866.48,82.77,20.0,0.0,-0.000123625,-0.000878309,-4.56345e-05,33.9943348,-106.894678,1362.26758,-12.1037202,2.3664914,0.0184863876,1.8009,15.0322,23023.4,27.2936,11874.0,0.702086,0.223898,14.0,-1174.0,88.0,,0.0,2022-08-31 07:30:28.259,2022-08-31 14:30:29.759415+00:00
2022-08-31 08:30:29.959829-06:00,19.000727,2.0,0.44,-1.9,0.47,19.36,866.46,82.05,23.0,0.0,-0.000172696,0.000121396,-7.44006e-05,33.9943348,-106.894678,1362.26599,-12.0931947,2.36776323,0.00816877287,,,,,,,,,,,,,,2022-08-31 14:30:29.959829+00:00
2022-08-31 08:30:30.159791-06:00,19.200689,2.09,0.13,-2.04,0.45,19.38,866.48,81.84,18.0,0.0,-0.000124229,-0.000615956,-0.000748428,33.9943348,-106.894678,1362.26196,-12.0820704,2.36997572,0.0160650053,,,,,,,,,,,,,,2022-08-31 14:30:30.159791+00:00
2022-08-31 08:30:30.360029-06:00,19.400927,2.16,-0.01,-2.12,0.37,19.23,866.47,82.71,16.0,0.0,0.00019018,-0.000384156,-0.000815505,33.9943347,-106.894678,1362.25647,-12.0745143,2.37216083,0.0101993401,,,,,,,,,,,,,,2022-08-31 14:30:30.360029+00:00
2022-08-31 08:30:30.560020-06:00,19.600918,2.64,-0.21,-2.64,0.05,19.14,866.48,83.36,17.0,0.0,-5.29302e-05,-0.000172817,-0.000701331,33.9943347,-106.894678,1362.25769,-12.0696011,2.36929766,0.0136141146,,,,,,,,,,,,,,2022-08-31 14:30:30.560020+00:00
2022-08-31 08:30:30.759681-06:00,19.800579,2.36,-0.14,-2.35,0.21,19.15,866.48,83.26,21.0,0.0,-0.000262266,-0.000952299,-0.000259861,33.9943347,-106.894678,1362.25513,-12.0552862,2.36832724,0.00491674903,1.79754,14.7876,23122.8,27.2972,11860.0,0.710439,0.232113,11.0,-1165.0,88.0,,0.0,2022-08-31 07:30:29.283,2022-08-31 14:30:30.759681+00:00
2022-08-31 08:30:30.959475-06:00,20.000373,2.55,-0.24,-2.54,0.08,19.17,866.48,82.99,20.0,0.0,-0.000419434,0.00082479,0.00104498,33.9943347,-106.894678,1362.26294,-12.0462388,2.37055603,-1.1072377e-05,,,,,,,,,,,,,,2022-08-31 14:30:30.959475+00:00
2022-08-31 08:30:31.159205-06:00,20.200103,2.93,-0.41,-2.9,-0.08,19.16,866.48,83.15,16.0,0.0,-7.44926e-05,-0.000262494,0.00170055,33.9943347,-106.894678,1362.26538,-12.0338902,2.37109876,0.000443348646,,,,,,,,,,,,,,2022-08-31 14:30:31.159205+00:00
2022-08-31 08:30:31.359247-06:00,20.400145,3.27,-0.4,-3.24,-0.22,19.18,866.48,82.95,15.0,0.0,-2.4183e-05,0.00129428,0.0013898,33.9943347,-106.894678,1362.271,-12.0230188,2.37168099,-0.0029319921,,,,,,,,,,,,,,2022-08-31 14:30:31.359247+00:00
2022-08-31 08:30:31.559611-06:00,20.600509,2.94,-0.38,-2.91,-0.11,19.25,866.47,82.69,19.0,0.0,0.000139693,-0.000808879,0.00207693,33.9943346,-106.894678,1362.27563,-12.0151172,2.37376237,-0.00208432828,,,,,,,,,,,,,,2022-08-31 14:30:31.559611+00:00
2022-08-31 08:30:31.759542-06:00,20.80044,2.52,-0.15,-2.51,0.11,19.15,866.48,83.22,21.0,0.0,-3.40456e-05,0.000166218,0.000257071,33.9943346,-106.894677,1362.27539,-11.9999599,2.37545274,-0.00769767658,1.79916,15.1814,23155.7,27.3002,11865.0,0.693919,-1.0,15.0,-1168.0,88.0,,0.0,2022-08-31 07:30:30.307,2022-08-31 14:30:31.759542+00:00
2022-08-31 08:30:31.959374-06:00,21.000272,3.14,-0.39,-3.12,-0.14,19.11,866.47,83.49,17.0,0.0,-0.000197856,-0.000375602,0.000666555,33.9943346,-106.894677,1362.28137,-11.9916717,2.37522174,0.00114280271,,,,,,,,,,,,,,2022-08-31 14:30:31.959374+00:00
2022-08-31 08:30:32.159799-06:00,21.200697,3.11,-0.3,-3.09,-0.15,19.13,866.48,83.29,15.0,0.0,0.000135461,-7.75473e-05,0.000310193,33.9943346,-106.894677,1362.28333,-11.9833979,2.37338681,-0.00182093911,,,,,,,,,,,,,,2022-08-31 14:30:32.159799+00:00
2022-08-31 08:30:32.359424-06:00,21.400322,2.83,-0.24,-2.82,-0.02,19.2,866.48,82.92,17.0,0.0,0.00012769,4.06549e-05,-4.43185e-05,33.9943346,-106.894677,1362.28601,-11.9767891,2.37351959,0.00104595276,,,,,,,,,,,,,,2022-08-31 14:30:32.359424+00:00
2022-08-31 08:30:32.559682-06:00,21.60058,2.78,-0.26,-2.77,-0.03,19.25,866.47,82.79,23.0,0.0,7.06785e-07,-0.000231153,-0.000564816,33.9943346,-106.894677,1362.28601,-11.9723257,2.37449631,0.00284397338,1.80195,15.1571,23100.1,27.3036,11865.0,0.615966,-1.0,15.0,-1168.0,88.0,,0.0,2022-08-31 07:30:31.331,2022-08-31 14:30:32.559682+00:00
2022-08-31 08:30:32.759962-06:00,21.80086,2.77,-0.3,-2.75,-0.03,19.27,866.48,82.6,20.0,0.0,-0.000279222,0.000295842,-0.000301933,33.9943345,-106.894677,1362.2937,-11.9671068,2.3753898,0.00263154382,,,,,,,,,,,,,,2022-08-31 14:30:32.759962+00:00
2022-08-31 08:30:32.959458-06:00,22.000356,2.7,-0.25,-2.69,0.0,19.24,866.47,82.76,16.0,0.0,-0.000224512,-0.00018149,0.000751025,33.9943345,-106.894677,1362.30676,-11.9544624,2.37502295,-0.00076516795,,,,,,,,,,,,,,2022-08-31 14:30:32.959458+00:00
2022-08-31 08:30:33.159430-06:00,22.200328,2.79,-0.19,-2.78,-0.13,19.24,866.47,82.74,16.0,0.0,-0.000390368,0.000525759,0.00107088,33.9943345,-106.894677,1362.31238,-11.9454695,2.37615788,0.00341464102,,,,,,,,,,,,,,2022-08-31 14:30:33.159430+00:00
2022-08-31 08:30:33.359782-06:00,22.40068,2.64,-0.06,-2.64,-0.12,19.28,866.47,82.37,20.0,0.0,-0.000167708,-0.000319429,0.00244185,33.9943345,-106.894677,1362.32349,-11.9362844,2.37700952,0.00412351327,,,,,,,,,,,,,,2022-08-31 14:30:33.359782+00:00
2022-08-31 08:30:33.559338-06:00,22.600236,2.35,0.12,-2.35,0.05,19.26,866.47,82.7,24.0,0.0,1.32703e-06,0.000421145,0.0027946,33.9943345,-106.894677,1362.33093,-11.9284086,2.37655724,0.00605082724,,,,,,,,,,,,,,2022-08-31 14:30:33.559338+00:00
2022-08-31 08:30:33.759719-06:00,22.800617,2.4,0.06,-2.4,0.13,19.26,866.47,82.7,18.0,0.0,0.00025965,3.01035e-05,0.00254968,33.9943345,-106.894677,1362.33301,-11.9191497,2.37757414,0.00414979349,1.79963,15.0307,23051.8,27.3072,11849.0,0.589132,-1.0,14.0,-1160.0,88.0,,0.0,2022-08-31 07:30:32.355,2022-08-31 14:30:33.759719+00:00
2022-08-31 08:30:33.959872-06:00,23.00077,2.51,-0.19,-2.5,0.01,19.19,866.47,82.92,16.0,0.0,0.00018135,0.000151885,0.000993249,33.9943345,-106.894677,1362.33057,-11.9099052,2.37748536,0.00290192326,,,,,,,,,,,,,,2022-08-31 14:30:33.959872+00:00
2022-08-31 08:30:34.159542-06:00,23.20044,2.8,-0.33,-2.78,-0.07,19.26,866.47,82.65,17.0,0.0,0.000493766,-3.71857e-05,0.00107908,33.9943345,-106.894677,1362.33203,-11.9013426,2.3758805,0.00403589475,,,,,,,,,,,,,,2022-08-31 14:30:34.159542+00:00
2022-08-31 08:30:34.360017-06:00,23.400915,3.14,-0.36,-3.12,-0.19,19.13,866.48,83.3,22.0,0.0,0.000638662,-0.000605968,0.0012787,33.9943345,-106.894677,1362.33594,-11.8987849,2.3754462,0.00493929399,,,,,,,,,,,,,,2022-08-31 14:30:34.360017+00:00
2022-08-31 08:30:34.559457-06:00,23.600355,2.95,-0.39,-2.93,-0.11,19.13,866.46,83.21,21.0,0.0,0.0002895,0.000265043,0.001355,33.9943345,-106.894677,1362.34143,-11.8846346,2.37141278,2.01970828e-05,,,,,,,,,,,,,,2022-08-31 14:30:34.559457+00:00
2022-08-31 08:30:34.759181-06:00,23.800079,3.01,-0.14,-3.01,-0.08,19.14,866.48,83.08,17.0,0.0,0.000430772,-0.000483309,0.000825755,33.9943345,-106.894677,1362.34351,-11.8740374,2.372175,0.00154295574,1.79909,14.5161,23020.8,27.3107,11896.0,0.580603,-1.0,11.0,-1176.0,88.0,,0.0,2022-08-31 07:30:33.379,2022-08-31 14:30:34.759181+00:00
2022-08-31 08:30:34.959237-06:00,24.000135,2.93,-0.33,-2.91,0.01,19.22,866.48,82.86,16.0,0.0,6.17599e-05,0.000544437,-8.4554e-05,33.9943345,-106.894677,1362.34338,-11.8611447,2.36813954,-0.00240606754,,,,,,,,,,,,,,2022-08-31 14:30:34.959237+00:00
2022-08-31 08:30:35.159028-06:00,24.199926,2.79,-0.24,-2.78,0.04,19.25,866.48,82.62,19.0,0.0,-0.000264295,-0.000273896,-2.27234e-05,33.9943345,-106.894677,1362.34863,-11.8494587,2.36624884,-0.00606894325,,,,,,,,,,,,,,2022-08-31 14:30:35.159028+00:00
2022-08-31 08:30:35.359153-06:00,24.400051,2.77,-0.16,-2.76,0.02,19.29,866.48,82.47,22.0,0.0,-0.000186153,0.000306896,0.000424435,33.9943345,-106.894677,1362.34668,-11.8377173,2.36780079,-0.00479647367,,,,,,,,,,,,,,2022-08-31 14:30:35.359153+00:00
2022-08-31 08:30:35.559707-06:00,24.600605,2.5,-0.09,-2.5,0.04,19.31,866.47,82.39,19.0,0.0,-0.000255936,0.000269678,0.000203266,33.9943344,-106.894677,1362.34875,-11.8304147,2.3661584,-0.0118326091,1.78972,14.2844,23010.4,27.3142,11908.0,0.592576,-1.0,14.0,-1193.0,88.0,,0.0,2022-08-31 07:30:34.403,2022-08-31 14:30:35.559707+00:00
2022-08-31 08:30:35.759839-06:00,24.800737,2.36,-0.02,-2.34,0.24,19.21,866.47,82.88,16.0,0.0,-0.000335935,9.83952e-06,0.000414257,33.9943344,-106.894676,1362.35132,-11.8254132,2.36661893,-0.00663091308,,,,,,,,,,,,,,2022-08-31 14:30:35.759839+00:00
2022-08-31 08:30:35.959406-06:00,25.000304,2.92,-0.29,-2.91,-0.07,19.2,866.48,82.96,17.0,0.0,0.000155927,0.000397362,0.000778059,33.9943344,-106.894676,1362.35364,-11.81885,2.3688271,-0.00830761781,,,,,,,,,,,,,,2022-08-31 14:30:35.959406+00:00
2022-08-31 08:30:36.159211-06:00,25.200109,3.0,-0.3,-2.98,-0.15,19.09,866.47,83.54,21.0,0.0,6.20975e-05,0.000314523,0.000263382,33.9943344,-106.894676,1362.35657,-11.8164531,2.36983982,-0.00557202031,,,,,,,,,,,,,,2022-08-31 14:30:36.159211+00:00
2022-08-31 08:30:36.359460-06:00,25.400358,2.54,-0.09,-2.54,0.0,19.15,866.48,83.2,21.0,0.0,0.000118854,0.000292456,0.00042726,33.9943344,-106.894676,1362.36206,-11.8042311,2.36975583,-0.00717119172,,,,,,,,,,,,,,2022-08-31 14:30:36.359460+00:00
2022-08-31 08:30:36.559437-06:00,25.600335,2.48,-0.1,-2.48,-0.09,19.13,866.47,83.37,17.0,0.0,-7.4497e-05,-0.000130167,-5.89439e-05,33.9943344,-106.894676,1362.36401,-11.7967875,2.36980299,-0.00328780227,,,,,,,,,,,,,,2022-08-31 14:30:36.559437+00:00
2022-08-31 08:30:36.759829-06:00,25.800727,2.44,-0.17,-2.43,0.05,19.14,866.47,83.24,16.0,0.0,-0.000128992,-9.22936e-06,0.00117653,33.9943344,-106.894676,1362.36902,-11.7917093,2.36900822,-0.00411409508,1.79617,14.7582,23001.1,27.3173,11858.0,0.582651,-1.0,15.0,-1158.0,88.0,,0.0,2022-08-31 07:30:35.427,2022-08-31 14:30:36.759829+00:00
2022-08-31 08:30:36.959101-06:00,25.999999,2.39,-0.15,-2.38,0.08,19.13,866.47,83.31,19.0,0.0,-0.000201928,-0.000116389,-0.00015396,33.9943344,-106.894676,1362.36731,-11.7823159,2.36804806,-0.00621437826,,,,,,,,,,,,,,2022-08-31 14:30:36.959101+00:00
2022-08-31 08:30:37.159217-06:00,26.200115,2.19,-0.07,-2.19,0.15,19.09,866.47,83.54,23.0,0.0,8.82355e-05,-1.57553e-05,-0.000584568,33.9943344,-106.894676,1362.36865,-11.7743512,2.36921246,-0.00249992928,,,,,,,,,,,,,,2022-08-31 14:30:37.159217+00:00
2022-08-31 08:30:37.359383-06:00,26.400281,2.13,-0.11,-2.12,0.2,19.12,866.47,83.46,19.0,0.0,7.78406e-06,-0.000313541,-0.000884893,33.9943344,-106.894676,1362.36768,-11.7656895,2.3698518,-0.00719576439,,,,,,,,,,,,,,2022-08-31 14:30:37.359383+00:00
2022-08-31 08:30:37.559154-06:00,26.600052,2.2,-0.14,-2.2,0.11,19.14,866.47,83.27,15.0,0.0,-0.000157324,-0.000666946,-0.000597153,33.9943344,-106.894676,1362.36755,-11.762092,2.36895657,-0.00376933061,,,,,,,,,,,,,,2022-08-31 14:30:37.559154+00:00
2022-08-31 08:30:37.759318-06:00,26.800216,2.3,-0.21,-2.29,0.02,19.25,866.48,82.71,16.0,0.0,-0.000813056,0.000406071,-0.000100525,33.9943344,-106.894676,1362.36975,-11.7488326,2.36980339,-0.00697074167,1.79648,13.7807,22970.6,27.3204,11897.0,0.587571,-1.0,11.0,-1174.0,88.0,,0.0,2022-08-31 07:30:36.451,2022-08-31 14:30:37.759318+00:00
2022-08-31 08:30:37.959590-06:00,27.000488,1.97,0.11,-1.93,0.38,19.25,866.47,82.71,21.0,0.0,-0.000477879,-0.000337164,0.000418891,33.9943344,-106.894676,1362.37622,-11.7440618,2.36892484,-0.0042401601,,,,,,,,,,,,,,2022-08-31 14:30:37.959590+00:00
2022-08-31 08:30:38.159142-06:00,27.20004,2.05,0.06,-2.03,0.29,19.36,866.47,82.04,22.0,0.0,1.33092e-05,0.0001682,0.00148499,33.9943344,-106.894676,1362.38184,-11.7376254,2.36865753,-0.00556948567,,,,,,,,,,,,,,2022-08-31 14:30:38.159142+00:00
2022-08-31 08:30:38.359212-06:00,27.40011,2.2,-0.04,-2.19,0.26,19.18,866.48,82.88,17.0,0.0,1.90685e-05,-5.07529e-05,0.00118324,33.9943344,-106.894676,1362.38245,-11.7297342,2.36905709,-0.00192363207,,,,,,,,,,,,,,2022-08-31 14:30:38.359212+00:00
2022-08-31 08:30:38.559525-06:00,27.600423,2.01,0.13,-1.99,0.28,19.13,866.47,83.37,16.0,0.0,-0.000465016,-0.000430632,0.000923891,33.9943345,-106.894676,1362.38232,-11.7195887,2.37008551,-0.000323847016,,,,,,,,,,,,,,2022-08-31 14:30:38.559525+00:00
2022-08-31 08:30:38.759500-06:00,27.800398,2.12,-0.04,-2.12,0.17,19.05,866.47,83.73,20.0,0.0,-0.000383283,-9.07027e-05,-0.000339835,33.9943345,-106.894676,1362.37708,-11.7107484,2.36849783,-0.00233109554,1.79562,14.5858,22952.0,27.3237,11916.0,0.604129,-1.0,15.0,-1204.0,88.0,,0.0,2022-08-31 07:30:37.475,2022-08-31 14:30:38.759500+00:00
2022-08-31 08:30:38.959838-06:00,28.000736,2.5,-0.15,-2.49,-0.11,19.07,866.46,83.61,23.0,0.0,-0.000113007,-0.00076629,-0.000271215,33.9943346,-106.894676,1362.37622,-11.7016527,2.37031775,0.00124234738,,,,,,,,,,,,,,2022-08-31 14:30:38.959838+00:00
2022-08-31 08:30:39.159734-06:00,28.200632,2.32,-0.12,-2.32,0.04,19.1,866.47,83.47,19.0,0.0,4.51088e-05,0.00028117,0.000659954,33.9943346,-106.894676,1362.37842,-11.6965493,2.36873177,-0.00641794991,,,,,,,,,,,,,,2022-08-31 14:30:39.159734+00:00
2022-08-31 08:30:39.359876-06:00,28.400774,2.42,-0.24,-2.41,0.03,19.1,866.47,83.55,16.0,0.0,8.3737e-05,-0.000222585,0.00162133,33.9943346,-106.894676,1362.37878,-11.6894748,2.36594125,-0.00249792825,,,,,,,,,,,,,,2022-08-31 14:30:39.359876+00:00
2022-08-31 08:30:39.559174-06:00,28.600072,2.42,-0.17,-2.41,-0.0,19.13,866.47,83.33,17.0,0.0,-0.000120138,0.000410999,0.00103412,33.9943346,-106.894676,1362.37561,-11.6827443,2.36792551,-0.0059791903,,,,,,,,,,,,,,2022-08-31 14:30:39.559174+00:00
2022-08-31 08:30:39.759330-06:00,28.800228,1.88,0.39,-1.82,0.27,19.26,866.47,82.57,22.0,0.0,-7.14762e-05,-0.00017404,0.000294567,33.9943346,-106.894676,1362.37878,-11.6760044,2.3679221,-0.00217896375,1.79652,14.0215,22962.7,27.327,11849.0,0.610376,-1.0,14.0,-1171.0,88.0,,0.0,2022-08-31 07:30:38.499,2022-08-31 14:30:39.759330+00:00
2022-08-31 08:30:39.959390-06:00,29.000288,1.88,0.63,-1.74,0.35,19.32,866.46,82.24,23.0,0.0,-0.000390995,-6.69984e-05,0.000923597,33.9943346,-106.894676,1362.37927,-11.6708756,2.36706024,-0.00942131219,,,,,,,,,,,,,,2022-08-31 14:30:39.959390+00:00
2022-08-31 08:30:40.159438-06:00,29.200336,1.83,0.48,-1.72,0.4,19.23,866.47,82.89,17.0,0.0,-0.000573297,-0.000183173,0.000950031,33.9943345,-106.894676,1362.38269,-11.6601557,2.36611877,-0.00425435408,,,,,,,,,,,,,,2022-08-31 14:30:40.159438+00:00
2022-08-31 08:30:40.359553-06:00,29.400451,1.97,0.54,-1.86,0.35,19.27,866.47,82.69,17.0,0.0,-0.000141706,0.000112344,0.00137769,33.9943346,-106.894676,1362.38232,-11.6479446,2.36660236,-0.00797976873,,,,,,,,,,,,,,2022-08-31 14:30:40.359553+00:00
2022-08-31 08:30:40.559860-06:00,29.600758,1.79,0.63,-1.62,0.43,19.35,866.47,82.26,19.0,0.0,-0.000830922,-9.05515e-05,0.00028982,33.9943346,-106.894676,1362.3811,-11.6363078,2.36818539,-0.00818566158,,,,,,,,,,,,,,2022-08-31 14:30:40.559860+00:00
2022-08-31 08:30:40.759832-06:00,29.80073,1.82,0.46,-1.72,0.41,19.27,866.47,82.51,23.0,0.0,-5.27399e-05,-0.00069359,0.00121358,33.9943347,-106.894676,1362.38391,-11.6256131,2.36583209,0.00188043646,1.79734,14.3815,22968.7,27.3304,11900.0,0.616785,-1.0,14.0,-1169.0,88.0,,0.0,2022-08-31 07:30:39.523,2022-08-31 14:30:40.759832+00:00
2022-08-31 08:30:40.959355-06:00,30.000253,2.14,-0.06,-2.14,0.09,19.14,866.46,83.27,21.0,0.0,-0.000527149,-0.000111254,0.00128507,33.9943347,-106.894676,1362.38562,-11.6184201,2.36387339,-0.00562594145,,,,,,,,,,,,,,2022-08-31 14:30:40.959355+00:00
2022-08-31 08:30:41.159260-06:00,30.200158,2.43,-0.21,-2.42,0.03,19.21,866.47,82.98,17.0,0.0,-0.000288523,0.000256241,0.00102448,33.9943347,-106.894676,1362.38489,-11.6118291,2.36174962,0.00514275893,,,,,,,,,,,,,,2022-08-31 14:30:41.159260+00:00
2022-08-31 08:30:41.359323-06:00,30.400221,2.58,-0.15,-2.58,0.09,19.2,866.47,83.12,17.0,0.0,-0.000503144,0.00038299,0.00102166,33.9943347,-106.894676,1362.38281,-11.6039936,2.3657019,0.00239939743,,,,,,,,,,,,,,2022-08-31 14:30:41.359323+00:00
2022-08-31 08:30:41.559894-06:00,30.600792,2.23,0.06,-2.23,0.09,19.18,866.47,83.12,22.0,0.0,-0.00035995,0.000222912,0.000437661,33.9943347,-106.894676,1362.38098,-11.6040807,2.36580804,0.0049083447,,,,,,,,,,,,,,2022-08-31 14:30:41.559894+00:00
2022-08-31 08:30:41.759737-06:00,30.800635,2.14,0.17,-2.13,0.2,19.26,866.48,82.81,23.0,0.0,0.000290367,0.000168318,-0.000159666,33.9943348,-106.894676,1362.37939,-11.5905169,2.36753382,0.00513894362,1.79237,14.0226,23019.3,27.3336,11895.0,0.667742,-1.0,14.0,-1205.0,88.0,,0.0,2022-08-31 07:30:40.649,2022-08-31 14:30:41.759737+00:00
2022-08-31 08:30:41.959911-06:00,31.000809,2.04,0.37,-1.97,0.35,19.36,866.48,82.06,19.0,0.0,-0.000248672,0.000296114,0.00169375,33.9943348,-106.894676,1362.38245,-11.581778,2.36700019,0.00160810934,,,,,,,,,,,,,,2022-08-31 14:30:41.959911+00:00
2022-08-31 08:30:42.159988-06:00,31.200886,2.35,0.05,-2.35,0.05,19.14,866.48,83.32,16.0,0.0,-0.000315408,0.000287173,0.00206246,33.9943348,-106.894676,1362.38586,-11.5757436,2.3665819,0.00365463146,,,,,,,,,,,,,,2022-08-31 14:30:42.159988+00:00
2022-08-31 08:30:42.359648-06:00,31.400546,2.54,-0.23,-2.53,-0.01,19.15,866.46,83.21,20.0,0.0,-0.000443706,0.000261084,0.00284931,33.9943348,-106.894676,1362.38892,-11.5709663,2.36746235,0.000438092602,,,,,,,,,,,,,,2022-08-31 14:30:42.359648+00:00
2022-08-31 08:30:42.559468-06:00,31.600366,2.0,0.04,-1.98,0.27,19.18,866.47,83.12,25.0,0.0,-0.000327982,-0.000282181,0.00236851,33.9943348,-106.894676,1362.39172,-11.5628226,2.36682941,0.00462854707,,,,,,,,,,,,,,2022-08-31 14:30:42.559468+00:00
2022-08-31 08:30:42.759225-06:00,31.800123,2.21,0.0,-2.2,0.13,19.21,866.47,82.91,21.0,0.0,-0.000313555,-0.000334997,0.00256519,33.9943348,-106.894676,1362.3905,-11.5568263,2.36773793,0.00231532741,1.79532,13.9442,23078.7,27.3374,11895.0,0.659121,-1.0,14.0,-1205.0,88.0,,0.0,2022-08-31 07:30:41.673,2022-08-31 14:30:42.759225+00:00
2022-08-31 08:30:42.959500-06:00,32.000398,2.34,-0.1,-2.33,0.14,19.23,866.46,82.8,17.0,0.0,-0.000212271,-0.000201651,0.00232055,33.9943349,-106.894676,1362.39014,-11.5467406,2.3686961,0.000815433873,,,,,,,,,,,,,,2022-08-31 14:30:42.959500+00:00
2022-08-31 08:30:43.159228-06:00,32.200126,2.37,0.05,-2.36,0.16,19.28,866.48,82.69,17.0,0.0,0.000107692,7.05173e-05,0.00179785,33.9943349,-106.894676,1362.38843,-11.5378563,2.36949106,-0.00426382563,,,,,,,,,,,,,,2022-08-31 14:30:43.159228+00:00
2022-08-31 08:30:43.359629-06:00,32.400527,2.86,-0.34,-2.83,0.07,19.26,866.46,82.7,22.0,0.0,-1.03235e-05,-2.95371e-05,0.00132561,33.9943349,-106.894676,1362.3855,-11.5337971,2.37067205,-0.000669865467,,,,,,,,,,,,,,2022-08-31 14:30:43.359629+00:00
2022-08-31 08:30:43.559661-06:00,32.600559,3.09,-0.36,-3.06,-0.06,19.11,866.46,83.49,23.0,0.0,-9.91331e-05,7.58393e-05,0.00137529,33.9943349,-106.894676,1362.39087,-11.5307368,2.37043007,-0.00578991935,1.79989,13.7334,23138.2,27.341,11870.0,0.639445,-1.0,14.0,-1186.0,88.0,,0.0,2022-08-31 07:30:42.697,2022-08-31 14:30:43.559661+00:00
2022-08-31 08:30:43.759693-06:00,32.800591,2.73,-0.22,-2.72,0.09,19.16,866.48,83.06,19.0,0.0,-0.000214459,-9.37211e-05,0.00163833,33.9943349,-106.894676,1362.39294,-11.5191062,2.36945535,-0.00377912233,,,,,,,,,,,,,,2022-08-31 14:30:43.759693+00:00
2022-08-31 08:30:43.959342-06:00,33.00024,2.51,-0.09,-2.51,0.17,19.18,866.48,83.22,17.0,0.0,-9.88562e-05,-0.000102717,0.00174381,33.9943349,-106.894676,1362.39294,-11.519567,2.36756052,0.000371845103,,,,,,,,,,,,,,2022-08-31 14:30:43.959342+00:00
2022-08-31 08:30:44.159064-06:00,33.199962,2.79,-0.36,-2.77,0.03,19.21,866.46,82.9,19.0,0.0,-0.00020249,0.000887369,0.00097906,33.994335,-106.894676,1362.38953,-11.5127106,2.36529731,-0.00640839832,,,,,,,,,,,,,,2022-08-31 14:30:44.159064+00:00
2022-08-31 08:30:44.359316-06:00,33.400214,2.64,-0.14,-2.64,0.04,19.19,866.46,82.91,23.0,0.0,0.000185525,5.96521e-05,0.000757687,33.994335,-106.894676,1362.38721,-11.510586,2.36351101,0.00125395336,,,,,,,,,,,,,,2022-08-31 14:30:44.359316+00:00
2022-08-31 08:30:44.559012-06:00,33.59991,1.84,0.27,-1.79,0.32,19.3,866.47,82.53,21.0,0.0,-0.000300252,0.000312943,0.000432266,33.994335,-106.894676,1362.38403,-11.499813,2.36116873,-0.0139136558,,,,,,,,,,,,,,2022-08-31 14:30:44.559012+00:00
2022-08-31 08:30:44.759948-06:00,33.800846,1.97,0.56,-1.87,0.32,19.33,866.47,82.37,17.0,0.0,-0.000109977,4.24278e-05,-0.000229568,33.994335,-106.894676,1362.38208,-11.4941237,2.36158461,-0.00679766575,,,,,,,,,,,,,,2022-08-31 14:30:44.759948+00:00
2022-08-31 08:30:44.959428-06:00,34.000326,1.89,0.61,-1.75,0.4,19.36,866.47,82.29,16.0,0.0,-9.21906e-05,-0.000386059,-0.000829682,33.994335,-106.894676,1362.38062,-11.4884832,2.36142393,-0.0135125155,,,,,,,,,,,,,,2022-08-31 14:30:44.959428+00:00
2022-08-31 08:30:45.159930-06:00,34.200828,1.9,0.58,-1.74,0.49,19.37,866.47,82.13,21.0,0.0,-0.0002743,-1.54728e-05,-0.000703957,33.994335,-106.894676,1362.38416,-11.4803332,2.36203882,-0.0121073908,,,,,,,,,,,,,,2022-08-31 14:30:45.159930+00:00
2022-08-31 08:30:45.359053-06:00,34.399951,1.86,0.79,-1.58,0.61,19.46,866.46,81.79,24.0,0.0,-0.000188976,-0.00014151,-0.000150158,33.994335,-106.894676,1362.38586,-11.4720314,2.3606797,-0.0157159186,,,,,,,,,,,,,,2022-08-31 14:30:45.359053+00:00
2022-08-31 08:30:45.559111-06:00,34.600009,1.77,0.54,-1.58,0.59,19.4,866.47,81.92,19.0,0.0,-0.000463386,0.000133455,0.000376545,33.994335,-106.894676,1362.38745,-11.4596815,2.35981863,-0.0213116314,,,,,,,,,,,,,,2022-08-31 14:30:45.559111+00:00
2022-08-31 08:30:45.759097-06:00,34.799995,1.77,0.57,-1.57,0.58,19.45,866.46,81.81,16.0,0.0,-1.00948e-05,-0.000414111,-0.000165392,33.994335,-106.894676,1362.38513,-11.4499549,2.35980026,-0.0123412448,1.79306,13.52,23246.2,27.3472,11910.0,0.635037,-1.0,16.0,-1210.0,88.0,,0.0,2022-08-31 07:30:44.745,2022-08-31 14:30:45.759097+00:00
2022-08-31 08:30:45.959333-06:00,35.000231,1.93,0.83,-1.67,0.47,19.42,866.46,81.98,17.0,0.0,0.000137949,0.000485199,-0.000293393,33.9943351,-106.894676,1362.38281,-11.4417444,2.35786908,-0.017945015,,,,,,,,,,,,,,2022-08-31 14:30:45.959333+00:00
2022-08-31 08:30:46.159714-06:00,35.200612,2.34,1.01,-2.09,0.33,19.28,866.46,82.46,23.0,0.0,-0.000361405,-0.00107057,-0.000695904,33.9943351,-106.894676,1362.38574,-11.4332325,2.35926538,-0.0109315844,,,,,,,,,,,,,,2022-08-31 14:30:46.159714+00:00
2022-08-31 08:30:46.359677-06:00,35.400575,2.45,0.44,-2.39,0.32,19.24,866.47,82.8,21.0,0.0,-0.000297542,0.000430797,-0.00069459,33.9943351,-106.894676,1362.38428,-11.426211,2.35924668,-0.0168094693,,,,,,,,,,,,,,2022-08-31 14:30:46.359677+00:00
2022-08-31 08:30:46.559932-06:00,35.60083,2.37,0.96,-2.14,0.38,19.27,866.47,82.69,17.0,0.0,-0.000728381,-0.000226613,-0.00133044,33.9943351,-106.894676,1362.38367,-11.4220982,2.36108995,-0.0054729292,,,,,,,,,,,,,,2022-08-31 14:30:46.559932+00:00
2022-08-31 08:30:46.759730-06:00,35.800628,2.35,0.97,-2.11,0.39,19.31,866.46,82.43,17.0,0.0,-0.00049008,0.000168629,-0.000941783,33.9943351,-106.894676,1362.38293,-11.4205147,2.36391469,-0.0129589234,1.79563,12.9628,23268.5,27.3506,11848.0,0.615415,-1.0,14.0,-1180.0,88.0,,0.0,2022-08-31 07:30:45.769,2022-08-31 14:30:46.759730+00:00
2022-08-31 08:30:46.959410-06:00,36.000308,2.62,1.21,-2.3,0.33,19.24,866.46,82.92,21.0,0.0,-4.1118e-05,0.000331387,-0.00129375,33.9943351,-106.894676,1362.38074,-11.4125038,2.36619861,-0.00741246282,,,,,,,,,,,,,,2022-08-31 14:30:46.959410+00:00
2022-08-31 08:30:47.159842-06:00,36.20074,2.67,1.22,-2.33,0.48,19.28,866.46,82.53,24.0,0.0,4.80319e-05,0.000969906,-0.00134377,33.9943351,-106.894676,1362.37866,-11.4045124,2.36727568,-0.00913036213,,,,,,,,,,,,,,2022-08-31 14:30:47.159842+00:00
2022-08-31 08:30:47.359698-06:00,36.400596,2.33,0.65,-2.18,0.51,19.28,866.46,82.61,19.0,0.0,0.000275666,0.000556586,-0.00115145,33.9943352,-106.894676,1362.37683,-11.3984195,2.36768661,-0.0155298493,,,,,,,,,,,,,,2022-08-31 14:30:47.359698+00:00
2022-08-31 08:30:47.559731-06:00,36.600629,2.68,0.19,-2.65,0.38,19.25,866.48,82.7,16.0,0.0,0.000190484,3.54356e-05,-0.00131263,33.9943352,-106.894676,1362.37378,-11.3934517,2.36873677,-0.0141964683,,,,,,,,,,,,,,2022-08-31 14:30:47.559731+00:00
2022-08-31 08:30:47.760016-06:00,36.800914,2.66,0.07,-2.65,0.27,19.3,866.47,82.53,18.0,0.0,0.000184609,0.000391702,-0.000729053,33.9943352,-106.894676,1362.37012,-11.3863041,2.36546649,-0.0193025152,,,,,,,,,,,,,,2022-08-31 14:30:47.760016+00:00
2022-08-31 08:30:47.959454-06:00,37.000352,2.82,0.61,-2.72,0.42,19.22,866.48,82.93,22.0,0.0,-0.000493468,0.000255286,-0.000677594,33.9943352,-106.894676,1362.36768,-11.3769938,2.36464449,-0.0217915323,,,,,,,,,,,,,,2022-08-31 14:30:47.959454+00:00
2022-08-31 08:30:48.159099-06:00,37.199997,3.1,0.37,-3.06,0.33,19.12,866.48,83.51,21.0,0.0,-0.000191912,0.000694761,-0.00013131,33.9943352,-106.894676,1362.36841,-11.3679135,2.36043918,-0.0213919395,,,,,,,,,,,,,,2022-08-31 14:30:48.159099+00:00
2022-08-31 08:30:48.359610-06:00,37.400508,3.01,0.08,-3.01,-0.03,19.06,866.48,83.68,17.0,0.0,-0.000924952,0.000323772,-0.000224223,33.9943351,-106.894676,1362.36304,-11.3641238,2.36250479,-0.0164281793,,,,,,,,,,,,,,2022-08-31 14:30:48.359610+00:00
2022-08-31 08:30:48.559221-06:00,37.600119,2.93,0.09,-2.93,0.14,19.0,866.48,84.23,16.0,0.0,-0.000515455,0.000798792,-0.000131919,33.9943351,-106.894676,1362.35986,-11.3638098,2.3607008,-0.0189599385,,,,,,,,,,,,,,2022-08-31 14:30:48.559221+00:00
2022-08-31 08:30:48.759530-06:00,37.800428,2.78,0.1,-2.77,0.09,19.08,866.48,83.66,19.0,0.0,-0.000542564,0.00029769,-0.00014896,33.994335,-106.894676,1362.35815,-11.3576366,2.36379015,-0.0232959616,1.7931,13.655,23191.0,27.3575,11900.0,0.504874,-1.0,12.0,-1188.0,88.0,,0.0,2022-08-31 07:30:47.817,2022-08-31 14:30:48.759530+00:00
2022-08-31 08:30:48.959362-06:00,38.00026,2.97,0.55,-2.9,0.34,19.21,866.48,82.98,23.0,0.0,-0.000815246,0.000270657,0.000499341,33.994335,-106.894676,1362.36096,-11.3535093,2.36540767,-0.0175806404,,,,,,,,,,,,,,2022-08-31 14:30:48.959362+00:00
2022-08-31 08:30:49.159666-06:00,38.200564,3.04,0.41,-3.0,0.31,19.11,866.47,83.55,19.0,0.0,-0.000677682,0.0002396,0.00159496,33.994335,-106.894676,1362.36633,-11.3502561,2.3647695,-0.0223885069,,,,,,,,,,,,,,2022-08-31 14:30:49.159666+00:00
2022-08-31 08:30:49.359182-06:00,38.40008,2.8,0.49,-2.73,0.38,19.15,866.48,83.36,16.0,0.0,-0.000391408,0.00036872,0.00184922,33.994335,-106.894676,1362.36255,-11.3446865,2.36047382,-0.0141826745,,,,,,,,,,,,,,2022-08-31 14:30:49.359182+00:00
2022-08-31 08:30:49.559774-06:00,38.600672,2.69,0.5,-2.62,0.4,19.18,866.47,83.14,17.0,0.0,-0.000440807,0.000961959,0.000790282,33.9943351,-106.894676,1362.36304,-11.3383258,2.36005991,-0.0118542736,,,,,,,,,,,,,,2022-08-31 14:30:49.559774+00:00
2022-08-31 08:30:49.759594-06:00,38.800492,2.43,0.21,-2.4,0.33,19.24,866.48,82.88,22.0,0.0,-0.000317786,2.55327e-05,0.000528731,33.9943351,-106.894676,1362.36011,-11.3294307,2.36084245,-0.00909266269,1.79826,12.7972,23087.9,27.3602,11899.0,0.437225,-1.0,15.0,-1191.0,88.0,,0.0,2022-08-31 07:30:48.841,2022-08-31 14:30:49.759594+00:00
2022-08-31 08:30:49.959550-06:00,39.000448,2.34,0.39,-2.28,0.39,19.23,866.48,83.04,22.0,0.0,-0.000717597,0.000538941,0.000497947,33.9943352,-106.894676,1362.35767,-11.3199516,2.35951374,-0.0147615064,,,,,,,,,,,,,,2022-08-31 14:30:49.959550+00:00
2022-08-31 08:30:50.159233-06:00,39.200131,2.2,0.69,-2.04,0.47,19.23,866.48,82.86,18.0,0.0,-0.000728173,0.000223554,0.00126849,33.9943352,-106.894676,1362.35828,-11.3116878,2.36265519,-0.00907593406,,,,,,,,,,,,,,2022-08-31 14:30:50.159233+00:00
2022-08-31 08:30:50.359296-06:00,39.400194,2.55,0.92,-2.35,0.39,19.16,866.46,83.22,16.0,0.0,-0.000449188,-0.000163037,0.00117377,33.9943351,-106.894676,1362.35901,-11.3069898,2.3616978,-0.00916600718,,,,,,,,,,,,,,2022-08-31 14:30:50.359296+00:00
2022-08-31 08:30:50.559993-06:00,39.600891,2.95,0.44,-2.92,0.11,19.16,866.47,83.4,19.0,0.0,-0.00055067,0.000373419,0.00142977,33.9943351,-106.894676,1362.3584,-11.2999422,2.36245189,-0.0122197421,,,,,,,,,,,,,,2022-08-31 14:30:50.559993+00:00
2022-08-31 08:30:50.760019-06:00,39.800917,2.55,-0.19,-2.54,0.15,19.24,866.49,82.82,23.0,0.0,-0.00041374,0.000209005,0.00142088,33.994335,-106.894676,1362.35669,-11.2938504,2.36441153,-0.0102506733,1.79722,12.2634,23050.8,27.3637,11850.0,0.360206,-1.0,16.0,-1169.0,88.0,,0.0,2022-08-31 07:30:49.865,2022-08-31 14:30:50.760019+00:00
2022-08-31 08:30:50.959367-06:00,40.000265,1.99,0.82,-1.71,0.61,19.35,866.46,82.25,19.0,0.0,-0.00100853,5.57996e-05,0.00175879,33.994335,-106.894676,1362.36108,-11.2871574,2.36526728,-0.0167723302,,,,,,,,,,,,,,2022-08-31 14:30:50.959367+00:00
2022-08-31 08:30:51.159794-06:00,40.200692,2.08,1.01,-1.78,0.38,19.21,866.47,82.95,16.0,0.0,-0.000927224,0.000219163,0.00265328,33.994335,-106.894676,1362.36255,-11.2783176,2.3647398,-0.0136059504,,,,,,,,,,,,,,2022-08-31 14:30:51.159794+00:00
2022-08-31 08:30:51.359404-06:00,40.400302,2.1,1.34,-1.58,0.33,19.19,866.45,83.17,17.0,0.0,-0.000233011,-8.8711e-05,0.00180989,33.994335,-106.894676,1362.36255,-11.272447,2.36556912,-0.0196250015,,,,,,,,,,,,,,2022-08-31 14:30:51.359404+00:00
2022-08-31 08:30:51.559382-06:00,40.60028,1.9,1.14,-1.48,0.38,19.23,866.46,82.93,21.0,0.0,0.000227287,-0.000458338,0.00165344,33.994335,-106.894676,1362.36609,-11.2601292,2.36567208,-0.00753009682,,,,,,,,,,,,,,2022-08-31 14:30:51.559382+00:00
2022-08-31 08:30:51.759256-06:00,40.800154,1.98,1.08,-1.62,0.35,19.32,866.45,82.42,23.0,0.0,3.46084e-05,0.000624128,0.00131408,33.994335,-106.894676,1362.3678,-11.2531095,2.36040124,-0.0181939967,1.79284,13.2385,23115.2,27.3672,11850.0,0.435913,-1.0,16.0,-1169.0,88.0,,0.0,2022-08-31 07:30:50.889,2022-08-31 14:30:51.759256+00:00
2022-08-31 08:30:51.959842-06:00,41.00074,1.79,0.83,-1.5,0.52,19.37,866.46,82.22,18.0,0.0,-0.000540036,-0.000199417,0.00130582,33.994335,-106.894676,1362.36438,-11.2496464,2.36263971,-0.0138149915,,,,,,,,,,,,,,2022-08-31 14:30:51.959842+00:00
2022-08-31 08:30:52.159979-06:00,41.200877,1.75,0.67,-1.51,0.58,19.33,866.45,82.35,15.0,0.0,-0.000584708,0.000599945,0.000378963,33.994335,-106.894676,1362.36218,-11.2475916,2.3612804,-0.0284503804,,,,,,,,,,,,,,2022-08-31 14:30:52.159979+00:00
2022-08-31 08:30:52.359839-06:00,41.400737,1.74,0.57,-1.59,0.42,19.32,866.46,82.46,18.0,0.0,-0.000664505,-0.000358333,0.000143632,33.9943349,-106.894676,1362.35681,-11.245836,2.36211455,-0.0210818863,,,,,,,,,,,,,,2022-08-31 14:30:52.359839+00:00
2022-08-31 08:30:52.559676-06:00,41.600574,3.13,0.02,-3.13,-0.0,18.94,866.47,84.4,22.0,0.0,-0.000568948,0.000534413,-0.000182856,33.9943349,-106.894676,1362.35242,-11.2420859,2.36344615,-0.0240031531,,,,,,,,,,,,,,2022-08-31 14:30:52.559676+00:00
2022-08-31 08:30:52.759298-06:00,41.800196,2.11,0.55,-1.95,0.59,19.25,866.47,82.78,21.0,0.0,-0.000374003,0.00146788,-0.000277542,33.9943349,-106.894676,1362.34558,-11.2363147,2.36684259,-0.0261815301,1.79578,13.0252,23193.7,27.3706,11881.0,0.411442,-1.0,14.0,-1164.0,88.0,,0.0,2022-08-31 07:30:51.913,2022-08-31 14:30:52.759298+00:00
2022-08-31 08:30:52.959026-06:00,41.999924,2.48,-0.09,-2.46,0.28,19.17,866.47,83.32,16.0,0.0,-0.000581406,0.000142489,-4.73466e-05,33.9943349,-106.894676,1362.3396,-11.2304023,2.36652161,-0.0244617896,,,,,,,,,,,,,,2022-08-31 14:30:52.959026+00:00
2022-08-31 08:30:53.159532-06:00,42.20043,3.51,-0.23,-3.5,-0.2,18.86,866.47,84.89,16.0,0.0,-0.000186082,0.000454852,-0.000953815,33.9943349,-106.894676,1362.33545,-11.222089,2.37043102,-0.0273085914,,,,,,,,,,,,,,2022-08-31 14:30:53.159532+00:00
2022-08-31 08:30:53.359095-06:00,42.399993,2.95,0.34,-2.92,0.26,19.08,866.49,83.7,20.0,0.0,0.00079318,0.000111271,-0.000640946,33.9943349,-106.894676,1362.33191,-11.2176056,2.37025402,-0.0201982305,,,,,,,,,,,,,,2022-08-31 14:30:53.359095+00:00
2022-08-31 08:30:53.559453-06:00,42.600351,2.95,0.38,-2.92,0.27,19.13,866.47,83.46,23.0,0.0,0.00037159,-0.000257609,-0.00169354,33.9943348,-106.894676,1362.3269,-11.2071506,2.36740964,-0.0303821236,,,,,,,,,,,,,,2022-08-31 14:30:53.559453+00:00
2022-08-31 08:30:53.759542-06:00,42.80044,2.64,0.15,-2.61,0.34,19.19,866.48,83.18,18.0,0.0,0.000236765,0.000633263,-0.00161505,33.9943348,-106.894676,1362.32068,-11.1980916,2.37080941,-0.0201499656,1.79274,12.3152,23211.9,27.3738,11898.0,0.454831,-1.0,16.0,-1188.0,88.0,,0.0,2022-08-31 07:30:52.937,2022-08-31 14:30:53.759542+00:00
2022-08-31 08:30:53.959386-06:00,43.000284,2.61,0.58,-2.51,0.37,19.14,866.48,83.44,15.0,0.0,0.000198152,-0.000624008,-0.000173288,33.9943348,-106.894676,1362.32495,-11.1909658,2.37067666,-0.0214358555,,,,,,,,,,,,,,2022-08-31 14:30:53.959386+00:00
2022-08-31 08:30:54.159224-06:00,43.200122,2.81,0.6,-2.73,0.28,18.99,866.48,84.1,16.0,0.0,-0.000628556,0.00130688,0.000934176,33.9943348,-106.894676,1362.32776,-11.179891,2.36690611,-0.022275622,,,,,,,,,,,,,,2022-08-31 14:30:54.159224+00:00
2022-08-31 08:30:54.359844-06:00,43.400742,2.75,0.39,-2.72,0.21,19.09,866.47,83.62,22.0,0.0,-0.00017455,-0.000506594,0.00151384,33.9943348,-106.894676,1362.32642,-11.1740758,2.36836458,-0.0198447682,,,,,,,,,,,,,,2022-08-31 14:30:54.359844+00:00
2022-08-31 08:30:54.559571-06:00,43.600469,3.13,-0.03,-3.13,0.02,19.11,866.49,83.64,21.0,0.0,-0.000354087,0.000220056,0.000177734,33.9943348,-106.894676,1362.32202,-11.1666095,2.3681125,-0.0267316272,,,,,,,,,,,,,,2022-08-31 14:30:54.559571+00:00
2022-08-31 08:30:54.784577-06:00,43.825475,3.19,-0.32,-3.17,-0.09,19.1,866.47,83.56,17.0,0.0,-0.000409583,0.00022787,-0.00098594,33.9943348,-106.894676,1362.31763,-11.1614675,2.36615415,-0.0215122416,1.79204,11.8513,23184.6,27.3765,11850.0,0.507085,-1.0,14.0,-1166.0,88.0,,0.0,2022-08-31 07:30:53.961,2022-08-31 14:30:54.784577+00:00
2022-08-31 08:30:54.959591-06:00,44.000489,2.16,-0.08,-2.15,0.21,19.1,866.47,83.63,17.0,0.0,-0.000813947,8.66376e-05,-0.00042121,33.9943347,-106.894676,1362.31824,-11.1551543,2.37057904,-0.0212310832,,,,,,,,,,,,,,2022-08-31 14:30:54.959591+00:00
2022-08-31 08:30:55.160002-06:00,44.2009,1.74,0.15,-1.68,0.44,19.24,866.47,82.98,21.0,0.0,-0.000460158,0.000872877,-0.0007199,33.9943347,-106.894676,1362.31165,-11.1465502,2.37237541,-0.0222047588,,,,,,,,,,,,,,2022-08-31 14:30:55.160002+00:00
2022-08-31 08:30:55.359353-06:00,44.400251,1.95,0.65,-1.79,0.42,19.39,866.47,82.22,24.0,0.0,0.000278424,-0.00021491,-0.00210136,33.9943347,-106.894676,1362.3064,-11.139042,2.37297144,-0.0223793021,,,,,,,,,,,,,,2022-08-31 14:30:55.359353+00:00
2022-08-31 08:30:55.559929-06:00,44.600827,1.77,0.74,-1.54,0.47,19.41,866.45,82.01,19.0,0.0,0.000133662,0.00051714,-0.00198859,33.9943347,-106.894676,1362.30713,-11.1294848,2.37466036,-0.024026285,,,,,,,,,,,,,,2022-08-31 14:30:55.559929+00:00
2022-08-31 08:30:55.789525-06:00,44.830423,2.02,0.61,-1.88,0.4,19.23,866.47,83.04,16.0,0.0,0.000559865,0.000511464,-0.00198935,33.9943347,-106.894676,1362.30139,-11.1221901,2.37178524,-0.0318149694,1.79353,11.8238,23212.8,27.3808,11892.0,0.521714,-1.0,12.0,-1162.0,88.0,,0.0,2022-08-31 07:30:54.985,2022-08-31 14:30:55.789525+00:00
2022-08-31 08:30:55.959905-06:00,45.000803,2.02,0.53,-1.9,0.45,19.3,866.47,82.59,17.0,0.0,0.000328769,0.00104268,-0.00209384,33.9943347,-106.894676,1362.30518,-11.1178295,2.37155031,-0.025812353,,,,,,,,,,,,,,2022-08-31 14:30:55.959905+00:00
2022-08-31 08:30:56.159764-06:00,45.200662,1.71,0.46,-1.57,0.5,19.33,866.47,82.5,22.0,0.0,-0.000366839,0.00080337,-0.00101667,33.9943346,-106.894676,1362.30518,-11.1141069,2.37014545,-0.0291734468,,,,,,,,,,,,,,2022-08-31 14:30:56.159764+00:00
2022-08-31 08:30:56.359326-06:00,45.400224,2.4,0.49,-2.33,0.29,19.07,866.47,83.94,21.0,0.0,-0.000214089,0.000805553,-0.00107204,33.9943346,-106.894676,1362.30664,-11.1066074,2.36717739,-0.0305331882,,,,,,,,,,,,,,2022-08-31 14:30:56.359326+00:00
