Timestamp,Seconds,S,Um,Vm,Wm,T,P,H,MD,Sts,Vx,Vy,Vz,Lat,Lon,Alt,Yaw,Roll,Pitch,CH4,C2H6,H2O,T_a,Batt,R,C2C1,Power,Current,SOC,Lat_a,Lon_a,TS,Timestamp_UTC,Rho,Rho_err,Sc,V,U,W,WD,V_err,U_err,Sc_avg,WD_avg,V_avg,U_avg,W_avg,U_err_avg,V_err_avg,Nx,Ny,cross_wind,cross_wind_err,CH4_sub,CH4_res,CH4_adj,CH4_adj_err,BG_Samples_CH4,C2H6_sub,C2H6_res,C2H6_adj,C2H6_adj_err,BG_Samples_C2H6,x_dist,y_dist,s_dist,z_dist,velocity_s,velocity_z,x_src_dist,y_src_dist,s_src_dist,collecting,group,transect_num
2022-08-31 09:16:29.111451-06:00,0.419383,1.79,0.56,-1.63,0.5,19.72,866.44,85.23,20.0,-1.0,,,,,,,,,,1.82477,6.86654,23781.7,35.8022,11573.0,0.1071,-1.0,12.0,-1302.0,76.0,,0.0,2022-08-31 08:16:27.222,2022-08-31 15:16:29.111451+00:00,1.0306197391127783,0.013821089996043902,,,,,,,,,,,,,,,,,,,,,,,,,,,,,,,,,,,,,,False,,
2022-08-31 09:16:30.159711-06:00,1.467643,1.31,-0.09,-1.29,0.23,20.08,866.45,83.63,21.0,-1.0,,,,,,,,,,1.82483,7.26585,23774.0,35.8025,11526.0,0.123794,-1.0,16.0,-1307.0,76.0,,0.0,2022-08-31 08:16:28.246,2022-08-31 15:16:30.159711+00:00,1.0293663221588567,0.013799770334631213,,,,,,,,,,,,,,,,,,,,,,,,,,,,,,,,,,,,,,False,,
2022-08-31 09:16:31.160397-06:00,2.468329,0.87,0.29,-0.73,0.38,20.23,866.43,82.78,26.0,-1.0,,,,,,,,,,1.82719,6.75037,23732.1,35.8025,11573.0,-0.0234125,-1.0,15.0,-1303.0,76.0,,0.0,2022-08-31 08:16:29.270,2022-08-31 15:16:31.160397+00:00,1.0288162769830158,0.013790807401404636,,,,,,,,,,,,,,,,,,,,,,,,,,,,,,,,,,,,,,False,,
2022-08-31 09:16:32.161178-06:00,3.46911,0.74,0.21,-0.59,0.4,20.55,866.44,81.46,21.0,-1.0,,,,,,,,,,1.82085,6.81536,23693.4,35.8025,11581.0,-0.0238444,-1.0,14.0,-1308.0,76.0,,0.0,2022-08-31 08:16:30.294,2022-08-31 15:16:32.161178+00:00,1.0277071943955036,0.013771942261340634,,,,,,,,,,,,,,,,,,,,,,,,,,,,,,,,,,,,,,False,,
2022-08-31 09:16:33.160832-06:00,4.468764,0.78,0.11,-0.74,0.23,20.24,866.44,83.03,21.0,-1.0,,,,,,,,,,1.82028,6.65005,23741.6,35.8031,11537.0,0.0107582,-1.0,14.0,-1286.0,76.0,,0.0,2022-08-31 08:16:31.318,2022-08-31 15:16:33.160832+00:00,1.0287930842699455,0.013790256946569934,,,,,,,,,,,,,,,,,,,,,,,,,,,,,,,,,,,,,,False,,
2022-08-31 09:16:34.160337-06:00,5.468269,0.88,0.36,-0.64,0.48,20.57,866.45,81.46,27.0,-1.0,,,,,,,,,,1.81913,6.66708,23847.5,35.8032,11527.0,0.0684734,-1.0,14.0,-1301.0,76.0,,0.0,2022-08-31 08:16:32.342,2022-08-31 15:16:34.160337+00:00,1.0276490761495354,0.013770803406949902,,,,,,,,,,,,,,,,,,,,,,,,,,,,,,,,,,,,,,False,,
2022-08-31 09:16:35.161077-06:00,6.469009,0.95,0.52,-0.57,0.55,20.46,866.45,81.93,21.0,-1.0,,,,,,,,,,1.81904,6.61417,23904.4,35.8038,11574.0,0.119336,-1.0,16.0,-1321.0,76.0,,0.0,2022-08-31 08:16:33.366,2022-08-31 15:16:35.161077+00:00,1.0280340814231177,0.013777295402054739,,,,,,,,,,,,,,,,,,,,,,,,,,,,,,,,,,,,,,False,,
2022-08-31 09:16:36.168317-06:00,7.476249,1.43,0.74,-1.2,0.24,20.14,866.45,83.63,20.0,-1.0,,,,,,,,,,1.82276,6.79207,23951.8,35.8035,11577.0,0.0500095,-1.0,13.0,-1268.0,76.0,,0.0,2022-08-31 08:16:34.390,2022-08-31 15:16:36.168317+00:00,1.0291557388476988,0.013796216698204515,,,,,,,,,,,,,,,,,,,,,,,,,,,,,,,,,,,,,,False,,
2022-08-31 09:16:37.168200-06:00,8.476132,2.4,-0.87,-2.23,0.19,20.82,866.45,80.53,26.0,-1.0,,,,,,,,,,1.82367,6.92889,23940.1,35.8038,11543.0,-0.0434799,-1.0,16.0,-1312.0,76.0,,0.0,2022-08-31 08:16:35.414,2022-08-31 15:16:37.168200+00:00,1.026775135716711,0.013756072019163597,,,,,,,,,,,,,,,,,,,,,,,,,,,,,,,,,,,,,,False,,
2022-08-31 09:16:38.168694-06:00,9.476626,2.93,-0.32,-2.9,0.22,19.72,866.45,86.17,22.0,-1.0,,,,,,,,,,1.8159,6.09005,24036.8,35.8041,11562.0,0.117715,-1.0,18.0,-1300.0,76.0,,0.0,2022-08-31 08:16:36.438,2022-08-31 15:16:38.168694+00:00,1.0306316339899666,0.013821131360583692,,,,,,,,,,,,,,,,,,,,,,,,,,,,,,,,,,,,,,False,,
2022-08-31 09:16:39.166167-06:00,10.474099,3.43,0.11,-3.42,-0.24,19.37,866.45,88.22,21.0,-1.0,,,,,,,,,,1.82067,6.46656,24012.7,35.8041,11562.0,0.0963045,-1.0,18.0,-1300.0,76.0,,0.0,2022-08-31 08:16:37.462,2022-08-31 15:16:39.166167+00:00,1.0318647841058441,0.013841963677279422,,,,,,,,,,,,,,,,,,,,,,,,,,,,,,,,,,,,,,False,,
2022-08-31 09:16:40.167004-06:00,11.474936,1.96,-0.04,-1.9,0.51,20.07,866.43,84.57,27.0,-1.0,,,,,,,,,,1.82165,6.1119,23842.7,35.8046,11559.0,0.121441,-1.0,13.0,-1302.0,76.0,,0.0,2022-08-31 08:16:38.486,2022-08-31 15:16:40.167004+00:00,1.0293776663981897,0.013800280330265409,,,,,,,,,,,,,,,,,,,,,,,,,,,,,,,,,,,,,,False,,
2022-08-31 09:16:41.166470-06:00,12.474402,3.22,-0.37,-3.2,-0.12,19.6,866.46,87.07,24.0,-1.0,,,,,,,,,,1.82345,5.85911,23800.9,35.8048,11521.0,0.134567,-1.0,15.0,-1322.0,76.0,,0.0,2022-08-31 08:16:39.510,2022-08-31 15:16:41.166470+00:00,1.031065995898629,0.013828308084930341,,,,,,,,,,,,,,,,,,,,,,,,,,,,,,,,,,,,,,False,,
2022-08-31 09:16:42.166384-06:00,13.474316,3.04,-0.18,-3.03,-0.12,19.55,866.45,87.51,20.0,-1.0,,,,,,,,,,1.82528,6.10722,23738.9,35.8053,11566.0,0.0429352,-1.0,17.0,-1327.0,76.0,,0.0,2022-08-31 08:16:40.534,2022-08-31 15:16:42.166384+00:00,1.031230224279609,0.013831241934938922,,,,,,,,,,,,,,,,,,,,,,,,,,,,,,,,,,,,,,False,,
2022-08-31 09:16:43.165845-06:00,14.473777,2.79,-0.34,-2.76,0.09,19.6,866.45,87.41,26.0,-1.0,,,,,,,,,,1.82215,6.64821,23664.4,35.8056,11581.0,0.0515449,-1.0,14.0,-1313.0,76.0,,0.0,2022-08-31 08:16:41.558,2022-08-31 15:16:43.165845+00:00,1.0310540961456585,0.013828266673551474,,,,,,,,,,,,,,,,,,,,,,,,,,,,,,,,,,,,,,False,,
2022-08-31 09:16:44.166862-06:00,15.474794,1.44,-0.1,-1.44,-0.02,19.87,866.45,86.06,25.0,-1.0,,,,,,,,,,1.82145,6.65622,23692.8,35.8062,11560.0,0.0674603,-1.0,13.0,-1291.0,76.0,,0.0,2022-08-31 08:16:42.582,2022-08-31 15:16:44.166862+00:00,1.0301040428866342,0.013812222755382611,,,,,,,,,,,,,,,,,,,,,,,,,,,,,,,,,,,,,,False,,
2022-08-31 09:16:45.166012-06:00,16.473944,0.93,0.45,-0.74,0.32,19.99,866.44,85.55,21.0,-1.0,,,,,,,,,,1.82623,6.3207,23698.3,35.806,11575.0,0.0088131,-1.0,15.0,-1292.0,76.0,,0.0,2022-08-31 08:16:43.606,2022-08-31 15:16:45.166012+00:00,1.029670474837823,0.013805063025657285,,,,,,,,,,,,,,,,,,,,,,,,,,,,,,,,,,,,,,False,,
2022-08-31 09:16:46.167404-06:00,17.475336,1.5,0.59,-1.28,0.52,20.07,866.45,85.08,24.0,-1.0,,,,,,,,,,1.82423,6.34142,23748.7,35.8065,11570.0,0.0676889,-1.0,14.0,-1294.0,76.0,,0.0,2022-08-31 08:16:44.630,2022-08-31 15:16:46.167404+00:00,1.029401427756093,0.013800362788610862,,,,,,,,,,,,,,,,,,,,,,,,,,,,,,,,,,,,,,False,,
2022-08-31 09:16:47.166849-06:00,18.474781,1.6,0.04,-1.58,0.24,19.94,866.44,86.09,25.0,-1.0,,,,,,,,,,1.82191,6.97607,23747.4,35.8068,11517.0,0.142867,-1.0,14.0,-1288.0,76.0,,0.0,2022-08-31 08:16:45.654,2022-08-31 15:16:47.166849+00:00,1.0298461325666497,0.013808028127204592,,,,,,,,,,,,,,,,,,,,,,,,,,,,,,,,,,,,,,False,,
2022-08-31 09:16:48.166962-06:00,19.474894,1.75,0.47,-1.58,0.61,20.14,866.44,85.04,21.0,-1.0,,,,,,,,,,1.82654,6.09618,23773.7,35.8075,11514.0,0.101142,-1.0,15.0,-1295.0,76.0,,0.0,2022-08-31 08:16:46.678,2022-08-31 15:16:48.166962+00:00,1.0291438610043282,0.013796175495823916,,,,,,,,,,,,,,,,,,,,,,,,,,,,,,,,,,,,,,False,,
2022-08-31 09:16:49.167212-06:00,20.475144,2.43,-0.07,-2.43,0.16,20.03,866.44,85.79,24.0,-1.0,,,,,,,,,,1.82099,6.42348,23792.7,35.808,11514.0,0.112463,-1.0,15.0,-1295.0,76.0,,0.0,2022-08-31 08:16:47.702,2022-08-31 15:16:49.167212+00:00,1.029529991793299,0.013802691877838908,,,,,,,,,,,,,,,,,,,,,,,,,,,,,,,,,,,,,,False,,
2022-08-31 09:16:50.166197-06:00,21.474129,2.45,-0.45,-2.4,0.03,20.1,866.45,85.42,26.0,-1.0,,,,,,,,,,1.82052,6.34951,23826.2,35.8085,11579.0,0.234165,-1.0,12.0,-1325.0,76.0,,0.0,2022-08-31 08:16:48.726,2022-08-31 15:16:50.166197+00:00,1.0292961181471152,0.013798585582048868,,,,,,,,,,,,,,,,,,,,,,,,,,,,,,,,,,,,,,False,,
2022-08-31 09:16:51.168476-06:00,22.476408,2.92,-0.3,-2.9,0.12,20.29,866.46,84.43,20.0,-1.0,,,,,,,,,,1.8193,5.77756,23879.0,35.8089,11548.0,0.252767,-1.0,10.0,-1284.0,76.0,,0.0,2022-08-31 08:16:49.750,2022-08-31 15:16:51.168476+00:00,1.0286415291007487,0.013787381900315594,,,,,,,,,,,,,,,,,,,,,,,,,,,,,,,,,,,,,,False,,
2022-08-31 09:16:52.166983-06:00,23.474915,2.21,0.3,-2.11,0.55,20.58,866.45,82.99,22.0,-1.0,,,,,,,,,,1.82232,6.17318,23936.3,35.8099,11566.0,0.233233,-1.0,14.0,-1320.0,76.0,,0.0,2022-08-31 08:16:50.774,2022-08-31 15:16:52.166983+00:00,1.0276140899691606,0.013770213534515954,,,,,,,,,,,,,,,,,,,,,,,,,,,,,,,,,,,,,,False,,
2022-08-31 09:16:53.166224-06:00,24.474156,2.15,-0.23,-2.12,0.29,20.38,866.46,84.21,27.0,-1.0,,,,,,,,,,1.81956,7.01732,24002.4,35.8105,11570.0,0.20565,-1.0,11.0,-1306.0,76.0,,0.0,2022-08-31 08:16:51.798,2022-08-31 15:16:53.166224+00:00,1.0283261346347008,0.013782061880084774,,,,,,,,,,,,,,,,,,,,,,,,,,,,,,,,,,,,,,False,,
2022-08-31 09:16:54.166193-06:00,25.474125,2.46,-0.27,-2.43,0.23,20.34,866.46,84.58,21.0,-1.0,,,,,,,,,,1.81681,5.27951,24018.5,35.811,11510.0,0.361991,-1.0,14.0,-1312.0,76.0,,0.0,2022-08-31 08:16:52.822,2022-08-31 15:16:54.166193+00:00,1.0284662860721787,0.0137844258172858,,,,,,,,,,,,,,,,,,,,,,,,,,,,,,,,,,,,,,False,,
2022-08-31 09:16:55.166303-06:00,26.474235,1.42,0.24,-1.26,0.6,20.58,866.46,83.42,21.0,-1.0,,,,,,,,,,1.81688,6.4115,24056.1,35.8116,11550.0,0.352308,-1.0,14.0,-1286.0,76.0,,0.0,2022-08-31 08:16:53.846,2022-08-31 15:16:55.166303+00:00,1.0276259500198268,0.013770254568261373,,,,,,,,,,,,,,,,,,,,,,,,,,,,,,,,,,,,,,False,,
2022-08-31 09:16:56.167419-06:00,27.475351,1.24,0.66,-0.9,0.54,20.73,866.45,82.74,27.0,-1.0,,,,,,,,,,1.81994,6.40967,24063.3,35.8126,11573.0,0.353603,-1.0,11.0,-1283.0,76.0,,0.0,2022-08-31 08:16:54.870,2022-08-31 15:16:56.167419+00:00,1.0270895829816304,0.013761371619618832,,,,,,,,,,,,,,,,,,,,,,,,,,,,,,,,,,,,,,False,,
2022-08-31 09:16:57.166919-06:00,28.474851,1.26,0.71,-0.99,0.31,21.06,866.46,81.15,22.0,-1.0,,,,,,,,,,1.81493,6.87845,24151.0,35.8133,11537.0,0.167283,-1.0,12.0,-1261.0,76.0,,0.0,2022-08-31 08:16:55.894,2022-08-31 15:16:57.166919+00:00,1.0259493909089552,0.013742000904225381,,,,,,,,,,,,,,,,,,,,,,,,,,,,,,,,,,,,,,False,,
2022-08-31 09:16:58.166374-06:00,29.474306,1.15,0.8,-0.74,0.35,20.66,866.43,83.32,20.0,-1.0,,,,,,,,,,1.81553,5.74254,24279.5,35.8143,11537.0,0.246717,-1.0,12.0,-1261.0,76.0,,0.0,2022-08-31 08:16:56.918,2022-08-31 15:16:58.166374+00:00,1.0273105726193021,0.013765414401902123,,,,,,,,,,,,,,,,,,,,,,,,,,,,,,,,,,,,,,False,,
2022-08-31 09:16:59.167455-06:00,30.475387,1.03,0.47,-0.75,0.52,20.48,866.44,84.35,27.0,-1.0,,,,,,,,,,1.81521,6.10054,24320.3,35.8152,11513.0,0.249997,-1.0,12.0,-1279.0,76.0,,0.0,2022-08-31 08:16:57.942,2022-08-31 15:16:59.167455+00:00,1.0279521949186368,0.013776073503980076,,,,,,,,,,,,,,,,,,,,,,,,,,,,,,,,,,,,,,False,,
2022-08-31 09:17:00.166775-06:00,31.474707,0.77,0.31,-0.48,0.52,20.73,866.44,83.19,23.0,-1.0,,,,,,,,,,1.81798,6.50217,24269.7,35.8158,11571.0,0.179411,-1.0,13.0,-1277.0,76.0,,0.0,2022-08-31 08:16:58.966,2022-08-31 15:17:00.166775+00:00,1.0270777289844812,0.013761330643625598,,,,,,,,,,,,,,,,,,,,,,,,,,,,,,,,,,,,,,False,,
2022-08-31 09:17:01.167414-06:00,32.475346,0.58,0.22,-0.28,0.46,21.38,866.46,79.96,20.0,-1.0,,,,,,,,,,1.81992,5.53976,24254.7,35.8164,11534.0,0.13507,-1.0,11.0,-1272.0,76.0,,0.0,2022-08-31 08:16:59.990,2022-08-31 15:17:01.167414+00:00,1.0248347207392243,0.013723230637744482,,,,,,,,,,,,,,,,,,,,,,,,,,,,,,,,,,,,,,False,,
2022-08-31 09:17:02.166868-06:00,33.4748,0.72,0.43,-0.55,0.19,21.43,866.46,79.77,25.0,-1.0,,,,,,,,,,1.81262,6.16792,24345.5,35.8175,11524.0,0.15234,-1.0,13.0,-1290.0,76.0,,0.0,2022-08-31 08:17:01.014,2022-08-31 15:17:02.166868+00:00,1.0246607722836707,0.013720302500443003,,,,,,,,,,,,,,,,,,,,,,,,,,,,,,,,,,,,,,False,,
2022-08-31 09:17:03.166185-06:00,34.474117,0.77,0.32,-0.45,0.53,21.26,866.45,80.87,22.0,-1.0,,,,,,,,,,1.81043,6.25412,24461.5,35.8183,11557.0,0.150452,-1.0,13.0,-1285.0,76.0,,0.0,2022-08-31 08:17:02.038,2022-08-31 15:17:03.166185+00:00,1.0252406054367773,0.013730222589703384,,,,,,,,,,,,,,,,,,,,,,,,,,,,,,,,,,,,,,False,,
2022-08-31 09:17:04.166602-06:00,35.474534,1.05,0.61,-0.77,0.36,20.67,866.46,83.86,20.0,-1.0,,,,,,,,,,1.80535,6.53668,24532.1,35.8193,11571.0,0.074371,-1.0,12.0,-1277.0,76.0,,0.0,2022-08-31 08:17:03.062,2022-08-31 15:17:04.166602+00:00,1.0273111779297655,0.013764947996854104,,,,,,,,,,,,,,,,,,,,,,,,,,,,,,,,,,,,,,False,,
2022-08-31 09:17:05.167244-06:00,36.475176,1.86,0.81,-1.5,0.75,19.43,866.45,90.63,26.0,-1.0,,,,,,,,,,1.81524,6.81801,24393.3,35.8202,11523.0,0.039017,-1.0,13.0,-1281.0,76.0,,0.0,2022-08-31 08:17:04.086,2022-08-31 15:17:05.167244+00:00,1.031653177410081,0.013838387883291031,,,,,,,,,,,,,,,,,,,,,,,,,,,,,,,,,,,,,,False,,
2022-08-31 09:17:06.167540-06:00,37.475472,2.05,0.37,-1.93,0.57,20.91,866.45,82.21,23.0,-1.0,,,,,,,,,,1.82152,5.94191,24153.8,35.8212,11557.0,-0.00332226,-1.0,17.0,-1281.0,76.0,,0.0,2022-08-31 08:17:05.110,2022-08-31 15:17:06.167540+00:00,1.0264608809312437,0.013750776574170868,,,,,,,,,,,,,,,,,,,,,,,,,,,,,,,,,,,,,,False,,
2022-08-31 09:17:07.165885-06:00,38.473817,1.38,0.14,-1.29,0.45,20.92,866.46,82.29,20.0,-1.0,,,,,,,,,,1.82085,6.16437,24200.4,35.8217,11576.0,-0.0592149,-1.0,16.0,-1276.0,76.0,,0.0,2022-08-31 08:17:06.134,2022-08-31 15:17:07.165885+00:00,1.0264378219448556,0.013750229351481753,,,,,,,,,,,,,,,,,,,,,,,,,,,,,,,,,,,,,,False,,
2022-08-31 09:17:08.165819-06:00,39.473751,1.89,0.64,-1.61,0.75,21.09,866.46,81.52,25.0,-1.0,,,,,,,,,,1.81738,6.23319,24253.6,35.8226,11570.0,-0.0695794,-1.0,12.0,-1289.0,76.0,,0.0,2022-08-31 08:17:07.158,2022-08-31 15:17:08.165819+00:00,1.0258447875860648,0.013740238970316688,,,,,,,,,,,,,,,,,,,,,,,,,,,,,,,,,,,,,,False,,
2022-08-31 09:17:09.166851-06:00,40.474783,1.35,0.45,-1.16,0.53,20.27,866.47,85.75,24.0,-1.0,,,,,,,,,,1.81342,6.53516,24286.0,35.8234,11526.0,-0.0991991,-1.0,13.0,-1295.0,76.0,,0.0,2022-08-31 08:17:08.182,2022-08-31 15:17:09.166851+00:00,1.028723515615861,0.013788605848125185,,,,,,,,,,,,,,,,,,,,,,,,,,,,,,,,,,,,,,False,,
2022-08-31 09:17:10.166901-06:00,41.474833,3.18,0.04,-3.18,0.0,19.05,866.45,92.62,20.0,-1.0,,,,,,,,,,1.81626,6.41486,24056.0,35.8246,11571.0,-0.0970705,-1.0,14.0,-1290.0,76.0,,0.0,2022-08-31 08:17:09.206,2022-08-31 15:17:10.166901+00:00,1.0329948208303954,0.013861066396256715,,,,,,,,,,,,,,,,,,,,,,,,,,,,,,,,,,,,,,False,,
2022-08-31 09:17:11.166912-06:00,42.474844,2.23,0.35,-2.15,0.51,19.22,866.46,91.89,25.0,-1.0,,,,,,,,,,1.82439,6.17099,23768.9,35.8255,11566.0,-0.0740897,-1.0,11.0,-1269.0,76.0,,0.0,2022-08-31 08:17:10.230,2022-08-31 15:17:11.166912+00:00,1.0324060960403725,0.013850952957477996,,,,,,,,,,,,,,,,,,,,,,,,,,,,,,,,,,,,,,False,,
2022-08-31 09:17:12.166860-06:00,43.474792,1.93,0.51,-1.74,0.64,19.65,866.46,89.61,24.0,-1.0,,,,,,,,,,1.82328,5.75802,23616.5,35.8265,11515.0,-0.0946958,-1.0,14.0,-1277.0,76.0,,0.0,2022-08-31 08:17:11.254,2022-08-31 15:17:12.166860+00:00,1.0308899258856685,0.013825334107099001,,,,,,,,,,,,,,,,,,,,,,,,,,,,,,,,,,,,,,False,,
2022-08-31 09:17:13.178919-06:00,44.486851,1.48,0.44,-1.23,0.69,20.26,866.46,85.6,20.0,-1.0,,,,,,,,,,1.82619,6.67029,23606.3,35.8274,11530.0,-0.0635012,-1.0,14.0,-1291.0,76.0,,0.0,2022-08-31 08:17:12.278,2022-08-31 15:17:13.178919+00:00,1.0287467035865299,0.013789156169935554,,,,,,,,,,,,,,,,,,,,,,,,,,,,,,,,,,,,,,False,,
2022-08-31 09:17:14.202753-06:00,45.510685,2.57,0.74,-2.44,0.27,19.24,866.46,91.43,24.0,-1.0,,,,,,,,,,1.828,6.63598,23634.2,35.8286,11581.0,-0.0236646,-1.0,12.0,-1284.0,76.0,,0.0,2022-08-31 08:17:13.302,2022-08-31 15:17:14.202753+00:00,1.0323354776132005,0.013849759239829843,,,,,,,,,,,,,,,,,,,,,,,,,,,,,,,,,,,,,,False,,
2022-08-31 09:17:14.359846-06:00,45.667778,2.64,0.63,-2.53,0.4,19.64,866.45,89.23,21.0,-1.0,,,,,,,,,,1.828,6.63598,23634.2,35.8286,11581.0,-0.0236646,-1.0,12.0,-1284.0,76.0,,0.0,2022-08-31 08:17:13.302,2022-08-31 15:17:14.359846+00:00,1.0309132369501746,0.013825887402594063,,,,,,,,,,,,,,,,,,,,,,,,,,,,,,,,,,,,,,False,,
2022-08-31 09:17:15.243490-06:00,46.551422,1.71,1.11,-1.29,0.17,20.38,866.45,85.27,25.0,-1.0,,,,,,,,,,1.8236,6.28826,23754.1,35.8296,11547.0,-0.0280998,-1.0,12.0,-1263.0,76.0,,0.0,2022-08-31 08:17:14.326,2022-08-31 15:17:15.243490+00:00,1.0283142665030545,0.01378202076963988,,,,,,,,,,,,,,,,,,,,,,,,,,,,,,,,,,,,,,False,,
2022-08-31 09:17:15.359882-06:00,46.667814,1.76,0.9,-1.44,0.46,20.44,866.45,84.85,27.0,-1.0,,,,,,,,,,1.8236,6.28826,23754.1,35.8296,11547.0,-0.0280998,-1.0,12.0,-1263.0,76.0,,0.0,2022-08-31 08:17:14.326,2022-08-31 15:17:15.359882+00:00,1.0281041133779814,0.013778476434572754,,,,,,,,,,,,,,,,,,,,,,,,,,,,,,,,,,,,,,False,,
2022-08-31 09:17:16.268517-06:00,47.576449,1.96,1.34,-1.4,0.3,19.46,866.44,90.34,20.0,-1.0,,,,,,,,,,1.8228,5.86827,23843.7,35.8306,11567.0,-0.0593204,-1.0,16.0,-1300.0,76.0,,0.0,2022-08-31 08:17:15.350,2022-08-31 15:17:16.268517+00:00,1.0315355011584,0.01383655922617966,,,,,,,,,,,,,,,,,,,,,,,,,,,,,,,,,,,,,,False,,
2022-08-31 09:17:16.359829-06:00,47.667761,1.78,0.85,-1.49,0.47,20.07,866.46,87.05,21.0,-1.0,,,,,,,,,,1.8228,5.86827,23843.7,35.8306,11567.0,-0.0593204,-1.0,16.0,-1300.0,76.0,,0.0,2022-08-31 08:17:15.350,2022-08-31 15:17:16.359829+00:00,1.0294133084350445,0.013800404018312592,,,,,,,,,,,,,,,,,,,,,,,,,,,,,,,,,,,,,,False,,
2022-08-31 09:17:17.275113-06:00,48.583045,2.92,0.8,-2.79,0.37,19.71,866.46,89.05,25.0,-1.0,,,,,,,,,,1.8238,6.85564,23830.2,35.8317,11567.0,-0.0468393,-1.0,16.0,-1300.0,76.0,,0.0,2022-08-31 08:17:16.374,2022-08-31 15:17:17.275113+00:00,1.0306787212296789,0.013821767052401405,,,,,,,,,,,,,,,,,,,,,,,,,,,,,,,,,,,,,,False,,
2022-08-31 09:17:17.359249-06:00,48.667181,2.91,0.23,-2.9,0.1,19.21,866.47,91.87,23.0,-1.0,,,,,,,,,,1.8238,6.85564,23830.2,35.8317,11567.0,-0.0468393,-1.0,16.0,-1300.0,76.0,,0.0,2022-08-31 08:17:16.374,2022-08-31 15:17:17.359249+00:00,1.0324533245040564,0.013851591458147898,,,,,,,,,,,,,,,,,,,,,,,,,,,,,,,,,,,,,,False,,
2022-08-31 09:17:18.299246-06:00,49.607178,2.91,0.89,-2.74,0.42,19.45,866.46,90.51,26.0,-1.0,,,,,,,,,,1.82774,5.96535,23743.8,35.833,11580.0,-0.0680078,-1.0,14.0,-1288.0,76.0,,0.0,2022-08-31 08:17:17.398,2022-08-31 15:17:18.299246+00:00,1.0315945669833348,0.013837237839474313,,,,,,,,,,,,,,,,,,,,,,,,,,,,,,,,,,,,,,False,,
2022-08-31 09:17:18.359484-06:00,49.667416,3.29,0.98,-3.13,0.28,19.53,866.45,90.1,27.0,-1.0,,,,,,,,,,1.82774,5.96535,23743.8,35.833,11580.0,-0.0680078,-1.0,14.0,-1288.0,76.0,,0.0,2022-08-31 08:17:17.398,2022-08-31 15:17:18.359484+00:00,1.0313006923829493,0.013832432404504363,,,,,,,,,,,,,,,,,,,,,,,,,,,,,,,,,,,,,,False,,
2022-08-31 09:17:22.167020-06:00,53.474952,2.4,0.47,-2.25,0.7,19.81,866.47,88.29,21.0,-1.0,,,,,,,,,,1.82685,6.84122,23590.4,35.8363,11569.0,0.0389959,-1.0,13.0,-1287.0,76.0,,0.0,2022-08-31 08:17:20.470,2022-08-31 15:17:22.167020+00:00,1.030338796941582,0.013815867454436671,,,,,,,,,,,,,,,,,,,,,,,,,,,,,,,,,,,,,,False,,
2022-08-31 09:17:23.166957-06:00,54.474889,3.67,0.84,-3.57,0.18,19.83,866.45,88.28,23.0,-1.0,,,,,,,,,,1.82456,6.38891,23623.9,35.8368,11568.0,0.0485484,-1.0,11.0,-1283.0,76.0,,0.0,2022-08-31 08:17:21.494,2022-08-31 15:17:23.166957+00:00,1.0302446810247852,0.01381459723991929,,,,,,,,,,,,,,,,,,,,,,,,,,,,,,,,,,,,,,False,,
2022-08-31 09:17:24.167078-06:00,55.47501,3.22,0.77,-3.08,0.54,19.39,866.45,90.84,27.0,-1.0,,,,,,,,,,1.82792,6.4058,23526.3,35.8388,11555.0,0.0676716,-1.0,16.0,-1318.0,76.0,,0.0,2022-08-31 08:17:22.518,2022-08-31 15:17:24.167078+00:00,1.0317942388960195,0.013840771536930531,,,,,,,,,,,,,,,,,,,,,,,,,,,,,,,,,,,,,,False,,
2022-08-31 09:17:25.165925-06:00,56.473857,3.87,0.8,-3.79,0.11,19.61,866.45,89.48,21.0,-1.0,,,,,,,,,,1.8308,6.10189,23415.5,35.84,11568.0,-0.018277,-1.0,13.0,-1320.0,76.0,,0.0,2022-08-31 08:17:23.542,2022-08-31 15:17:25.165925+00:00,1.031018877738221,0.013827671777652997,,,,,,,,,,,,,,,,,,,,,,,,,,,,,,,,,,,,,,False,,
2022-08-31 09:17:26.167173-06:00,57.475105,2.49,1.07,-2.1,0.8,19.88,866.44,88.37,22.0,-1.0,,,,,,,,,,1.83158,6.90875,23431.8,35.8409,11525.0,0.077899,-1.0,13.0,-1314.0,76.0,,0.0,2022-08-31 08:17:24.566,2022-08-31 15:17:26.167173+00:00,1.0300570009690455,0.013811587961437702,,,,,,,,,,,,,,,,,,,,,,,,,,,,,,,,,,,,,,False,,
2022-08-31 09:17:27.166065-06:00,58.473997,2.71,0.57,-2.62,0.4,19.65,866.45,89.53,26.0,-1.0,,,,,,,,,,1.82641,6.23344,23505.7,35.8429,11525.0,0.0717067,-1.0,13.0,-1314.0,76.0,,0.0,2022-08-31 08:17:25.590,2022-08-31 15:17:27.166065+00:00,1.0308780281647594,0.013825292715097418,,,,,,,,,,,,,,,,,,,,,,,,,,,,,,,,,,,,,,False,,
2022-08-31 09:17:28.166155-06:00,59.474087,3.04,-0.19,-3.03,-0.08,18.97,866.46,92.74,21.0,-1.0,,,,,,,,,,1.8274,6.47446,23641.6,35.8439,11530.0,0.14438,-1.0,16.0,-1324.0,76.0,,0.0,2022-08-31 08:17:26.614,2022-08-31 15:17:28.166155+00:00,1.0332896422679847,0.013865892122313594,,,,,,,,,,,,,,,,,,,,,,,,,,,,,,,,,,,,,,False,,
2022-08-31 09:17:29.165971-06:00,60.473903,3.7,0.44,-3.67,0.09,19.04,866.47,92.34,23.0,-1.0,,,,,,,,,,1.82703,6.83781,23728.9,35.8453,11550.0,0.127135,-1.0,17.0,-1308.0,76.0,,0.0,2022-08-31 08:17:27.638,2022-08-31 15:17:29.165971+00:00,1.0330540194804951,0.013861747479953323,,,,,,,,,,,,,,,,,,,,,,,,,,,,,,,,,,,,,,False,,
2022-08-31 09:17:30.166971-06:00,61.474903,3.35,1.0,-3.19,0.29,19.21,866.46,91.53,27.0,-1.0,,,,,,,,,,1.82574,7.52246,23561.0,35.8467,11565.0,0.135192,-1.0,12.0,-1274.0,76.0,,0.0,2022-08-31 08:17:28.662,2022-08-31 15:17:30.166971+00:00,1.0324414088771507,0.013851549894861488,,,,,,,,,,,,,,,,,,,,,,,,,,,,,,,,,,,,,,False,,
2022-08-31 09:17:31.166978-06:00,62.47491,3.51,0.52,-3.47,0.21,19.13,866.47,92.03,21.0,-1.0,,,,,,,,,,1.82961,7.09777,23415.9,35.848,11517.0,0.192475,-1.0,14.0,-1265.0,76.0,,0.0,2022-08-31 08:17:29.686,2022-08-31 15:17:31.166978+00:00,1.0327359174490416,0.013856368874716939,,,,,,,,,,,,,,,,,,,,,,,,,,,,,,,,,,,,,,False,,
2022-08-31 09:17:32.166728-06:00,63.47466,2.75,1.63,-2.1,0.67,19.87,866.45,87.92,23.0,-1.0,,,,,,,,,,1.83222,7.45021,23361.1,35.8495,11561.0,0.257035,-1.0,14.0,-1301.0,76.0,,0.0,2022-08-31 08:17:30.710,2022-08-31 15:17:32.166728+00:00,1.0301040428866342,0.013812222755382611,,,,,,,,,,,,,,,,,,,,,,,,,,,,,,,,,,,,,,False,,
2022-08-31 09:17:33.166064-06:00,64.473996,1.79,1.05,-1.43,0.22,20.1,866.45,86.77,26.0,-1.0,,,,,,,,,,1.83079,6.47846,23465.8,35.8509,11563.0,0.222351,-1.0,11.0,-1298.0,76.0,,0.0,2022-08-31 08:17:31.734,2022-08-31 15:17:33.166064+00:00,1.0292961181471152,0.013798585582048868,,,,,,,,,,,,,,,,,,,,,,,,,,,,,,,,,,,,,,False,,
2022-08-31 09:17:34.166779-06:00,65.474711,2.95,1.22,-2.63,0.53,19.4,866.45,90.57,21.0,-1.0,,,,,,,,,,1.8314,7.26108,23652.0,35.8524,11509.0,0.248347,-1.0,12.0,-1297.0,76.0,,0.0,2022-08-31 08:17:32.758,2022-08-31 15:17:34.166779+00:00,1.031758969908192,0.013840175545148532,,,,,,,,,,,,,,,,,,,,,,,,,,,,,,,,,,,,,,False,,
2022-08-31 09:17:35.166383-06:00,66.474315,1.41,0.72,-1.12,0.45,20.08,866.44,86.87,23.0,-1.0,,,,,,,,,,1.82495,7.27639,23727.4,35.8536,11537.0,0.294055,-1.0,15.0,-1310.0,76.0,,0.0,2022-08-31 08:17:33.782,2022-08-31 15:17:35.166383+00:00,1.029354441885071,0.013799729109136207,,,,,,,,,,,,,,,,,,,,,,,,,,,,,,,,,,,,,,False,,
2022-08-31 09:17:36.166356-06:00,67.474288,2.35,1.05,-1.94,0.82,19.95,866.44,87.83,27.0,-1.0,,,,,,,,,,1.82156,7.30125,23729.8,35.8548,11572.0,0.299342,-1.0,14.0,-1304.0,76.0,,0.0,2022-08-31 08:17:34.806,2022-08-31 15:17:36.166356+00:00,1.0298109962264053,0.013807435003146075,,,,,,,,,,,,,,,,,,,,,,,,,,,,,,,,,,,,,,False,,
2022-08-31 09:17:37.166037-06:00,68.473969,3.21,0.81,-3.07,0.47,19.64,866.46,89.38,22.0,-1.0,,,,,,,,,,1.8195,7.33106,23787.3,35.8561,11572.0,0.184946,-1.0,14.0,-1304.0,76.0,,0.0,2022-08-31 08:17:35.830,2022-08-31 15:17:37.166037+00:00,1.0309251350774402,0.013825928798470149,,,,,,,,,,,,,,,,,,,,,,,,,,,,,,,,,,,,,,False,,
2022-08-31 09:17:38.166136-06:00,69.474068,3.65,1.04,-3.48,0.4,19.06,866.45,92.79,22.0,-1.0,,,,,,,,,,1.82251,6.51377,23712.7,35.8578,11532.0,0.161597,-1.0,12.0,-1298.0,76.0,,0.0,2022-08-31 08:17:36.854,2022-08-31 15:17:38.166136+00:00,1.0329594697191797,0.013860468623847643,,,,,,,,,,,,,,,,,,,,,,,,,,,,,,,,,,,,,,False,,
2022-08-31 09:17:39.166096-06:00,70.474028,3.59,1.04,-3.43,0.23,19.21,866.46,91.14,27.0,-1.0,,,,,,,,,,1.82904,6.45505,23465.0,35.8591,11507.0,0.107943,-1.0,13.0,-1313.0,76.0,,0.0,2022-08-31 08:17:37.878,2022-08-31 15:17:39.166096+00:00,1.0324414088771507,0.013851549894861488,,,,,,,,,,,,,,,,,,,,,,,,,,,,,,,,,,,,,,False,,
2022-08-31 09:17:40.166669-06:00,71.474601,3.17,1.24,-2.88,0.43,19.71,866.43,88.51,21.0,-1.0,,,,,,,,,,1.83084,7.93801,23333.8,35.8608,11567.0,0.186147,-1.0,15.0,-1297.0,76.0,,0.0,2022-08-31 08:17:38.902,2022-08-31 15:17:40.166669+00:00,1.0306430353796259,0.013821642947168613,,,,,,,,,,,,,,,,,,,,,,,,,,,,,,,,,,,,,,False,,
2022-08-31 09:17:41.167261-06:00,72.475193,2.22,0.89,-1.86,0.84,20.26,866.45,85.59,22.0,-1.0,,,,,,,,,,1.83103,7.42429,23322.0,35.8618,11521.0,0.207983,-1.0,12.0,-1269.0,76.0,,0.0,2022-08-31 08:17:39.926,2022-08-31 15:17:41.167261+00:00,1.0287348306010073,0.01378911501338055,,,,,,,,,,,,,,,,,,,,,,,,,,,,,,,,,,,,,,False,,
2022-08-31 09:17:42.166322-06:00,73.474254,2.88,1.73,-2.26,0.47,19.88,866.44,87.58,27.0,-1.0,,,,,,,,,,1.82865,6.59383,23372.3,35.8633,11507.0,0.181107,-1.0,15.0,-1294.0,76.0,,0.0,2022-08-31 08:17:40.950,2022-08-31 15:17:42.166322+00:00,1.0300570009690455,0.013811587961437702,,,,,,,,,,,,,,,,,,,,,,,,,,,,,,,,,,,,,,False,,
2022-08-31 09:17:43.166093-06:00,74.474025,1.83,1.06,-1.38,0.56,20.28,866.44,85.56,20.0,-1.0,,,,,,,,,,1.82605,6.95353,23438.2,35.8648,11528.0,0.111208,-1.0,15.0,-1281.0,76.0,,0.0,2022-08-31 08:17:41.974,2022-08-31 15:17:43.166093+00:00,1.0286528405205992,0.013787890974480297,,,,,,,,,,,,,,,,,,,,,,,,,,,,,,,,,,,,,,False,,
2022-08-31 09:17:44.166283-06:00,75.474215,3.55,0.89,-3.44,0.18,19.18,866.46,91.6,22.0,-1.0,,,,,,,,,,1.83065,6.83701,23456.9,35.8666,11561.0,0.111963,-1.0,13.0,-1285.0,76.0,,0.0,2022-08-31 08:17:42.998,2022-08-31 15:17:44.166283+00:00,1.0325473618832268,0.013853341021331159,,,,,,,,,,,,,,,,,,,,,,,,,,,,,,,,,,,,,,False,,
2022-08-31 09:17:45.166288-06:00,76.47422,2.58,0.71,-2.43,0.52,19.83,866.45,88.05,27.0,-1.0,,,,,,,,,,1.82605,6.54436,23403.3,35.8682,11534.0,0.119235,-1.0,11.0,-1258.0,76.0,,0.0,2022-08-31 08:17:44.022,2022-08-31 15:17:45.166288+00:00,1.0302446810247852,0.01381459723991929,,,,,,,,,,,,,,,,,,,,,,,,,,,,,,,,,,,,,,False,,
2022-08-31 09:17:46.167219-06:00,77.475151,2.81,1.22,-2.42,0.74,19.71,866.45,88.69,21.0,-1.0,,,,,,,,,,1.83147,7.34641,23414.7,35.8692,11510.0,0.125146,-1.0,15.0,-1288.0,76.0,,0.0,2022-08-31 08:17:45.046,2022-08-31 15:17:46.167219+00:00,1.0306668259463279,0.013821725683636842,,,,,,,,,,,,,,,,,,,,,,,,,,,,,,,,,,,,,,False,,
2022-08-31 09:17:47.166022-06:00,78.473954,3.22,0.2,-3.19,0.39,19.83,866.45,88.06,21.0,-1.0,,,,,,,,,,1.82653,6.52069,23434.3,35.8703,11557.0,0.0428009,-1.0,15.0,-1288.0,76.0,,0.0,2022-08-31 08:17:46.070,2022-08-31 15:17:47.166022+00:00,1.0302446810247852,0.01381459723991929,,,,,,,,,,,,,,,,,,,,,,,,,,,,,,,,,,,,,,False,,
2022-08-31 09:17:48.166181-06:00,79.474113,3.42,0.28,-3.39,0.32,19.42,866.46,90.12,26.0,-1.0,,,,,,,,,,1.82732,6.35656,23426.6,35.8717,11570.0,0.0514074,-1.0,14.0,-1291.0,76.0,,0.0,2022-08-31 08:17:47.094,2022-08-31 15:17:48.166181+00:00,1.0317003462396133,0.013839025199571394,,,,,,,,,,,,,,,,,,,,,,,,,,,,,,,,,,,,,,False,,
2022-08-31 09:17:49.165977-06:00,80.473909,2.82,0.95,-2.63,0.41,19.6,866.44,89.3,21.0,-1.0,,,,,,,,,,1.82805,6.74316,23356.6,35.873,11531.0,0.0520769,-1.0,13.0,-1277.0,76.0,,0.0,2022-08-31 08:17:48.118,2022-08-31 15:17:49.165977+00:00,1.031042196392688,0.013828225262526535,,,,,,,,,,,,,,,,,,,,,,,,,,,,,,,,,,,,,,False,,
2022-08-31 09:17:50.166314-06:00,81.474246,2.28,1.12,-1.83,0.76,19.93,866.44,87.51,22.0,-1.0,,,,,,,,,,1.82956,6.95068,23383.8,35.8749,11515.0,0.0614458,-1.0,14.0,-1300.0,76.0,,0.0,2022-08-31 08:17:49.142,2022-08-31 15:17:50.166314+00:00,1.0298812713046246,0.01380862130315106,,,,,,,,,,,,,,,,,,,,,,,,,,,,,,,,,,,,,,False,,
2022-08-31 09:17:51.166787-06:00,82.474719,3.55,-0.22,-3.55,-0.1,19.48,866.47,89.28,26.0,-1.0,,,,,,,,,,1.82767,5.71217,23490.3,35.8763,11563.0,0.0847153,-1.0,15.0,-1303.0,76.0,,0.0,2022-08-31 08:17:50.166,2022-08-31 15:17:51.166787+00:00,1.031500714048477,0.013835492407637427,,,,,,,,,,,,,,,,,,,,,,,,,,,,,,,,,,,,,,False,,
2022-08-31 09:17:52.166408-06:00,83.47434,2.47,0.68,-2.32,0.53,19.76,866.46,87.74,21.0,-1.0,,,,,,,,,,1.82698,6.39659,23523.0,35.878,11567.0,0.0916735,-1.0,14.0,-1282.0,76.0,,0.0,2022-08-31 08:17:51.190,2022-08-31 15:17:52.166408+00:00,1.0305027834465321,0.013818795938081139,,,,,,,,,,,,,,,,,,,,,,,,,,,,,,,,,,,,,,False,,
2022-08-31 09:17:54.165628-06:00,85.47356,2.17,0.4,-2.06,0.56,19.71,866.47,88.06,28.0,-1.0,,,,,,,,,,1.82816,6.53424,23546.6,35.8795,11548.0,0.0606967,-1.0,12.0,-1277.0,76.0,,0.0,2022-08-31 08:17:52.214,2022-08-31 15:17:54.165628+00:00,1.0306906165130298,0.0138218084215196,,,,,,,,,,,,,,,,,,,,,,,,,,,,,,,,,,,,,,False,,
2022-08-31 09:17:55.160061-06:00,86.467993,3.57,-0.28,-3.56,-0.11,19.2,866.47,90.99,21.0,-1.0,,,,,,,,,,1.82652,6.33653,23641.7,35.881,11528.0,0.07515,-1.0,15.0,-1287.0,76.0,,0.0,2022-08-31 08:17:53.238,2022-08-31 15:17:55.160061+00:00,1.032488640164207,0.013852188451808954,,,,,,,,,,,,,,,,,,,,,,,,,,,,,,,,,,,,,,False,,
2022-08-31 09:17:56.166774-06:00,87.474706,3.46,-0.23,-3.45,-0.1,19.45,866.46,89.4,22.0,-1.0,,,,,,,,,,1.82489,6.60442,23622.7,35.8828,11563.0,0.142887,-1.0,12.0,-1276.0,76.0,,0.0,2022-08-31 08:17:54.262,2022-08-31 15:17:56.166774+00:00,1.0315945669833348,0.013837237839474313,,,,,,,,,,,,,,,,,,,,,,,,,,,,,,,,,,,,,,False,,
2022-08-31 09:17:57.165734-06:00,88.473666,3.95,-0.6,-3.9,-0.18,19.44,866.47,89.53,28.0,-1.0,,,,,,,,,,1.82787,7.31765,23433.7,35.8842,11563.0,0.141147,-1.0,12.0,-1276.0,76.0,,0.0,2022-08-31 08:17:55.286,2022-08-31 15:17:57.165734+00:00,1.0316417305854808,0.013837875047765761,,,,,,,,,,,,,,,,,,,,,,,,,,,,,,,,,,,,,,False,,
2022-08-31 09:17:58.166362-06:00,89.474294,3.34,-0.62,-3.28,-0.13,19.37,866.45,90.01,21.0,-1.0,,,,,,,,,,1.83081,5.84401,23360.5,35.8856,11520.0,0.0470266,-1.0,11.0,-1295.0,76.0,,0.0,2022-08-31 08:17:56.310,2022-08-31 15:17:58.166362+00:00,1.0318647841058441,0.013841963677279422,,,,,,,,,,,,,,,,,,,,,,,,,,,,,,,,,,,,,,False,,
2022-08-31 09:17:59.165958-06:00,90.47389,3.01,0.85,-2.85,0.5,19.87,866.45,87.12,22.0,-1.0,,,,,,,,,,1.82892,6.32901,23334.5,35.8875,11509.0,0.0308803,-1.0,14.0,-1303.0,76.0,,0.0,2022-08-31 08:17:57.334,2022-08-31 15:17:59.165958+00:00,1.0301040428866342,0.013812222755382611,,,,,,,,,,,,,,,,,,,,,,,,,,,,,,,,,,,,,,False,,
2022-08-31 09:18:00.166233-06:00,91.474165,3.16,0.39,-3.13,0.22,19.75,866.47,87.87,28.0,-1.0,,,,,,,,,,1.82831,6.84411,23402.2,35.8886,11570.0,0.0312689,-1.0,14.0,-1308.0,76.0,,0.0,2022-08-31 08:17:58.358,2022-08-31 15:18:00.166233+00:00,1.0305498598566263,0.013819431410534662,,,,,,,,,,,,,,,,,,,,,,,,,,,,,,,,,,,,,,False,,
2022-08-31 09:18:01.167207-06:00,92.475139,3.41,-0.41,-3.38,-0.11,19.97,866.45,86.69,22.0,-1.0,,,,,,,,,,1.82408,5.82796,23467.8,35.8904,11564.0,0.135309,-1.0,13.0,-1299.0,76.0,,0.0,2022-08-31 08:17:59.382,2022-08-31 15:18:01.167207+00:00,1.0297526154702563,0.013806290178581723,,,,,,,,,,,,,,,,,,,,,,,,,,,,,,,,,,,,,,False,,
2022-08-31 09:18:02.166935-06:00,93.474867,1.27,0.6,-1.03,0.44,20.87,866.45,82.08,22.0,-1.0,,,,,,,,,,1.82313,6.45338,23541.3,35.892,11517.0,0.146108,-1.0,14.0,-1304.0,76.0,,0.0,2022-08-31 08:18:00.406,2022-08-31 15:18:02.166935+00:00,1.0266005259732043,0.013753129592567317,,,,,,,,,,,,,,,,,,,,,,,,,,,,,,,,,,,,,,False,,
2022-08-31 09:18:03.166944-06:00,94.474876,0.99,0.4,-0.72,0.56,21.01,866.47,81.43,28.0,-1.0,,,,,,,,,,1.8247,5.62042,23707.0,35.8934,11528.0,0.132715,-1.0,17.0,-1302.0,76.0,,0.0,2022-08-31 08:18:01.430,2022-08-31 15:18:03.166944+00:00,1.0261356199075533,0.013744979353535507,,,,,,,,,,,,,,,,,,,,,,,,,,,,,,,,,,,,,,False,,
2022-08-31 09:18:04.166349-06:00,95.474281,2.24,0.8,-2.0,0.61,20.12,866.47,85.93,21.0,-1.0,,,,,,,,,,1.82003,6.21442,23913.4,35.8952,11562.0,0.200007,-1.0,13.0,-1281.0,76.0,,0.0,2022-08-31 08:18:02.454,2022-08-31 15:18:04.166349+00:00,1.0292496810175125,0.013797483457815774,,,,,,,,,,,,,,,,,,,,,,,,,,,,,,,,,,,,,,False,,
2022-08-31 09:18:05.170393-06:00,96.478325,2.97,-0.34,-2.95,0.04,19.72,866.47,88.02,22.0,-1.0,,,,,,,,,,1.82064,6.4121,23985.3,35.8965,11516.0,0.175393,-1.0,14.0,-1293.0,76.0,,0.0,2022-08-31 08:18:03.478,2022-08-31 15:18:05.170393+00:00,1.0306554237443435,0.013821214090724083,,,,,,,,,,,,,,,,,,,,,,,,,,,,,,,,,,,,,,False,,
2022-08-31 09:18:06.167226-06:00,97.475158,1.52,-0.21,-1.51,0.11,20.31,866.45,84.84,28.0,-1.0,,,,,,,,,,1.82103,6.98952,23958.1,35.8982,11516.0,0.154751,-1.0,14.0,-1293.0,76.0,,0.0,2022-08-31 08:18:04.502,2022-08-31 15:18:06.167226+00:00,1.0285595537607903,0.013786158174852315,,,,,,,,,,,,,,,,,,,,,,,,,,,,,,,,,,,,,,False,,
2022-08-31 09:18:07.165977-06:00,98.473909,1.32,-0.12,-1.27,0.34,20.59,866.46,83.4,21.0,-1.0,,,,,,,,,,1.8217,6.4341,23930.6,35.8997,11522.0,0.237246,-1.0,16.0,-1295.0,76.0,,0.0,2022-08-31 08:18:05.526,2022-08-31 15:18:07.165977+00:00,1.0275909658178108,0.013769664743458462,,,,,,,,,,,,,,,,,,,,,,,,,,,,,,,,,,,,,,False,,
2022-08-31 09:18:08.166415-06:00,99.474347,1.85,0.88,-1.47,0.67,20.4,866.46,84.41,22.0,-1.0,,,,,,,,,,1.8188,6.6229,23968.0,35.9012,11564.0,0.335223,-1.0,15.0,-1293.0,76.0,,0.0,2022-08-31 08:18:06.550,2022-08-31 15:18:08.166415+00:00,1.028256073239052,0.013780880221078526,,,,,,,,,,,,,,,,,,,,,,,,,,,,,,,,,,,,,,False,,
2022-08-31 09:18:09.166778-06:00,100.47471,2.1,0.19,-2.08,0.21,20.16,866.47,86.34,27.0,-1.0,,,,,,,,,,1.81671,7.03414,24029.4,35.9029,11573.0,0.223814,-1.0,14.0,-1291.0,76.0,,0.0,2022-08-31 08:18:07.574,2022-08-31 15:18:09.166778+00:00,1.0291093176230128,0.013795114957251858,,,,,,,,,,,,,,,,,,,,,,,,,,,,,,,,,,,,,,False,,
2022-08-31 09:18:10.166252-06:00,101.474184,2.14,0.06,-2.12,0.25,20.23,866.46,85.89,21.0,-1.0,,,,,,,,,,1.81698,6.76142,24089.9,35.9044,11506.0,0.193668,-1.0,15.0,-1293.0,76.0,,0.0,2022-08-31 08:18:08.598,2022-08-31 15:18:10.166252+00:00,1.0288518995818519,0.01379093090462735,,,,,,,,,,,,,,,,,,,,,,,,,,,,,,,,,,,,,,False,,
2022-08-31 09:18:11.167162-06:00,102.475094,2.54,0.13,-2.49,0.45,19.31,866.46,90.97,22.0,-1.0,,,,,,,,,,1.81823,6.5293,24100.5,35.9057,11528.0,0.0993584,-1.0,15.0,-1325.0,76.0,,0.0,2022-08-31 08:18:09.622,2022-08-31 15:18:11.167162+00:00,1.0320883891791142,0.013845582877095745,,,,,,,,,,,,,,,,,,,,,,,,,,,,,,,,,,,,,,False,,
2022-08-31 09:18:12.166839-06:00,103.474771,2.9,1.3,-2.57,0.39,19.68,866.45,88.85,27.0,-1.0,,,,,,,,,,1.82176,6.79274,23924.6,35.9069,11550.0,-0.00413642,-1.0,13.0,-1310.0,76.0,,0.0,2022-08-31 08:18:10.646,2022-08-31 15:18:12.166839+00:00,1.0307724162368663,0.013823508965082026,,,,,,,,,,,,,,,,,,,,,,,,,,,,,,,,,,,,,,False,,
2022-08-31 09:18:13.166546-06:00,104.474478,1.12,0.27,-0.88,0.64,20.62,866.45,83.87,21.0,-1.0,,,,,,,,,,1.82282,6.8009,23818.6,35.9085,11529.0,-0.0174784,-1.0,13.0,-1317.0,76.0,,0.0,2022-08-31 08:18:11.670,2022-08-31 15:18:13.166546+00:00,1.0274741690664178,0.013767854559324506,,,,,,,,,,,,,,,,,,,,,,,,,,,,,,,,,,,,,,False,,
2022-08-31 09:18:14.166320-06:00,105.474252,1.59,0.53,-1.3,0.74,20.39,866.47,85.0,23.0,-1.0,,,,,,,,,,1.82041,6.80497,23851.5,35.91,11549.0,-0.0480722,-1.0,17.0,-1304.0,76.0,,0.0,2022-08-31 08:18:12.694,2022-08-31 15:18:14.166320+00:00,1.0283029704708246,0.013781512131744942,,,,,,,,,,,,,,,,,,,,,,,,,,,,,,,,,,,,,,False,,
2022-08-31 09:18:15.170652-06:00,106.478584,2.4,1.02,-1.98,0.9,19.87,866.48,87.84,26.0,-1.0,,,,,,,,,,1.82107,7.42926,23975.8,35.9118,11570.0,-0.132903,-1.0,15.0,-1284.0,76.0,,0.0,2022-08-31 08:18:13.718,2022-08-31 15:18:15.170652+00:00,1.0301397092508637,0.013812346677090928,,,,,,,,,,,,,,,,,,,,,,,,,,,,,,,,,,,,,,False,,
2022-08-31 09:18:16.167420-06:00,107.475352,2.22,-0.61,-2.13,0.07,19.76,866.46,88.55,21.0,-1.0,,,,,,,,,,1.81939,7.09078,24009.1,35.913,11570.0,-0.170446,-1.0,15.0,-1284.0,76.0,,0.0,2022-08-31 08:18:14.742,2022-08-31 15:18:16.167420+00:00,1.0305027834465321,0.013818795938081139,,,,,,,,,,,,,,,,,,,,,,,,,,,,,,,,,,,,,,False,,
2022-08-31 09:18:17.166552-06:00,108.474484,3.25,0.24,-3.24,0.15,19.18,866.49,91.67,23.0,-1.0,,,,,,,,,,1.82166,7.34373,23901.3,35.9146,11521.0,-0.317434,-1.0,13.0,-1286.0,76.0,,0.0,2022-08-31 08:18:15.766,2022-08-31 15:18:17.166552+00:00,1.032583112432423,0.013853465747319934,,,,,,,,,,,,,,,,,,,,,,,,,,,,,,,,,,,,,,False,,
2022-08-31 09:18:18.166525-06:00,109.474457,2.32,0.3,-2.25,0.46,19.49,866.46,89.93,26.0,-1.0,,,,,,,,,,1.82737,7.51405,23714.8,35.9159,11524.0,-0.236644,-1.0,16.0,-1310.0,76.0,,0.0,2022-08-31 08:18:16.790,2022-08-31 15:18:18.166525+00:00,1.0314535617117404,0.013834855423715667,,,,,,,,,,,,,,,,,,,,,,,,,,,,,,,,,,,,,,False,,
2022-08-31 09:18:19.166886-06:00,110.474818,3.37,-0.35,-3.35,-0.07,19.39,866.48,90.43,20.0,-1.0,,,,,,,,,,1.82424,6.61308,23599.1,35.9172,11549.0,-0.22432,-1.0,13.0,-1282.0,76.0,,0.0,2022-08-31 08:18:17.814,2022-08-31 15:18:19.166886+00:00,1.0318299637816644,0.013840896016675139,,,,,,,,,,,,,,,,,,,,,,,,,,,,,,,,,,,,,,False,,
2022-08-31 09:18:20.166676-06:00,111.474608,2.36,0.11,-2.33,0.33,19.52,866.48,89.87,23.0,-1.0,,,,,,,,,,1.82507,6.71152,23528.6,35.9189,11499.0,-0.235511,-1.0,15.0,-1304.0,76.0,,0.0,2022-08-31 08:18:18.838,2022-08-31 15:18:20.166676+00:00,1.0313716390634096,0.013833152045814994,,,,,,,,,,,,,,,,,,,,,,,,,,,,,,,,,,,,,,False,,
2022-08-31 09:18:21.167498-06:00,112.47543,2.04,0.7,-1.81,0.6,19.31,866.45,91.02,26.0,-1.0,,,,,,,,,,1.8265,6.8408,23431.5,35.9205,11524.0,-0.268469,-1.0,19.0,-1322.0,76.0,,0.0,2022-08-31 08:18:19.862,2022-08-31 15:18:21.167498+00:00,1.0320764776264841,0.013845541353093311,,,,,,,,,,,,,,,,,,,,,,,,,,,,,,,,,,,,,,False,,
2022-08-31 09:18:22.166990-06:00,113.474922,2.33,-0.21,-2.32,0.1,19.67,866.46,88.21,20.0,-1.0,,,,,,,,,,1.83063,7.14198,23347.6,35.9218,11563.0,-0.134065,-1.0,14.0,-1317.0,76.0,,0.0,2022-08-31 08:18:20.886,2022-08-31 15:18:22.166990+00:00,1.0308195147166304,0.013824144880602149,,,,,,,,,,,,,,,,,,,,,,,,,,,,,,,,,,,,,,False,,
2022-08-31 09:18:23.166935-06:00,114.474867,1.84,0.48,-1.7,0.51,19.27,866.46,90.46,24.0,-1.0,,,,,,,,,,1.82953,7.98853,23332.2,35.9233,11558.0,0.0235249,-1.0,15.0,-1306.0,76.0,,0.0,2022-08-31 08:18:21.910,2022-08-31 15:18:23.166935+00:00,1.0322295680846856,0.013847969056052766,,,,,,,,,,,,,,,,,,,,,,,,,,,,,,,,,,,,,,False,,
2022-08-31 09:18:24.167580-06:00,115.475512,3.17,1.45,-2.8,0.3,19.52,866.44,89.17,25.0,-1.0,,,,,,,,,,1.83128,7.28257,23300.4,35.9246,11556.0,0.0998388,-1.0,14.0,-1309.0,76.0,,0.0,2022-08-31 08:18:22.934,2022-08-31 15:18:24.167580+00:00,1.0313240270405555,0.013832986275477466,,,,,,,,,,,,,,,,,,,,,,,,,,,,,,,,,,,,,,False,,
2022-08-31 09:18:25.165633-06:00,116.473565,1.93,0.96,-1.56,0.63,19.42,866.45,89.59,20.0,-1.0,,,,,,,,,,1.82778,7.65251,23304.9,35.9258,11565.0,0.164547,-1.0,14.0,-1292.0,76.0,,0.0,2022-08-31 08:18:23.958,2022-08-31 15:18:25.165633+00:00,1.03168843916547,0.013838983718335555,,,,,,,,,,,,,,,,,,,,,,,,,,,,,,,,,,,,,,False,,
2022-08-31 09:18:26.166888-06:00,117.47482,2.11,-0.1,-2.1,0.23,19.66,866.46,88.18,23.0,-1.0,,,,,,,,,,1.82919,7.20475,23280.1,35.9274,11565.0,0.192444,-1.0,14.0,-1292.0,76.0,,0.0,2022-08-31 08:18:24.982,2022-08-31 15:18:26.166888+00:00,1.0308547190988138,0.013824739467811913,,,,,,,,,,,,,,,,,,,,,,,,,,,,,,,,,,,,,,False,,
2022-08-31 09:18:27.166245-06:00,118.474177,1.84,-0.25,-1.82,0.13,19.72,866.47,87.77,25.0,-1.0,,,,,,,,,,1.82822,7.01422,23293.6,35.9289,11518.0,0.178373,-1.0,16.0,-1280.0,76.0,,0.0,2022-08-31 08:18:26.006,2022-08-31 15:18:27.166245+00:00,1.0306554237443435,0.013821214090724083,,,,,,,,,,,,,,,,,,,,,,,,,,,,,,,,,,,,,,False,,
2022-08-31 09:18:28.166675-06:00,119.474607,1.78,-0.2,-1.76,0.13,19.75,866.46,87.71,20.0,-1.0,,,,,,,,,,1.82606,7.29926,23329.2,35.9297,11565.0,0.317799,-1.0,14.0,-1309.0,76.0,,0.0,2022-08-31 08:18:27.030,2022-08-31 15:18:28.166675+00:00,1.0305379661977594,0.013819390056898403,,,,,,,,,,,,,,,,,,,,,,,,,,,,,,,,,,,,,,False,,
2022-08-31 09:18:29.166824-06:00,120.474756,1.82,0.8,-1.47,0.71,19.75,866.46,87.67,24.0,-1.0,,,,,,,,,,1.82689,7.21855,23415.4,35.9317,11565.0,0.38905,-1.0,12.0,-1287.0,76.0,,0.0,2022-08-31 08:18:28.054,2022-08-31 15:18:29.166824+00:00,1.0305379661977594,0.013819390056898403,,,,,,,,,,,,,,,,,,,,,,,,,,,,,,,,,,,,,,False,,
2022-08-31 09:18:30.166947-06:00,121.474879,1.51,0.88,-1.12,0.49,19.71,866.46,88.0,25.0,-1.0,,,,,,,,,,1.82656,7.06039,23415.6,35.9333,11521.0,0.404627,-1.0,14.0,-1268.0,76.0,,0.0,2022-08-31 08:18:29.078,2022-08-31 15:18:30.166947+00:00,1.0306787212296789,0.013821767052401405,,,,,,,,,,,,,,,,,,,,,,,,,,,,,,,,,,,,,,False,,
2022-08-31 09:18:31.166995-06:00,122.474927,1.59,-0.18,-1.56,0.2,19.81,866.46,87.38,20.0,-1.0,,,,,,,,,,1.82373,6.91074,23382.1,35.9343,11521.0,0.446589,-1.0,16.0,-1278.0,76.0,,0.0,2022-08-31 08:18:30.102,2022-08-31 15:18:31.166995+00:00,1.030326905718609,0.013815826124009042,,,,,,,,,,,,,,,,,,,,,,,,,,,,,,,,,,,,,,False,,
2022-08-31 09:18:32.166393-06:00,123.474325,1.88,-0.31,-1.86,0.11,19.83,866.46,87.14,25.0,-1.0,,,,,,,,,,1.82721,7.45558,23371.9,35.9356,11565.0,0.46585,-1.0,15.0,-1309.0,76.0,,0.0,2022-08-31 08:18:31.126,2022-08-31 15:18:32.166393+00:00,1.0302565714360152,0.013814638562261203,,,,,,,,,,,,,,,,,,,,,,,,,,,,,,,,,,,,,,False,,
2022-08-31 09:18:33.166691-06:00,124.474623,1.43,0.54,-1.22,0.52,19.87,866.46,87.07,24.0,-1.0,,,,,,,,,,1.82655,7.47901,23457.8,35.9366,11560.0,0.585389,-1.0,12.0,-1276.0,76.0,,0.0,2022-08-31 08:18:32.150,2022-08-31 15:18:33.166691+00:00,1.0301159316747106,0.013812264062265517,,,,,,,,,,,,,,,,,,,,,,,,,,,,,,,,,,,,,,False,,
2022-08-31 09:18:34.166404-06:00,125.474336,1.74,0.78,-1.46,0.55,19.97,866.47,86.4,20.0,-1.0,,,,,,,,,,1.82732,8.57604,23538.1,35.9378,11509.0,0.537849,-1.0,14.0,-1293.0,76.0,,0.0,2022-08-31 08:18:33.174,2022-08-31 15:18:34.166404+00:00,1.0297763849345176,0.013806372715471882,,,,,,,,,,,,,,,,,,,,,,,,,,,,,,,,,,,,,,False,,
2022-08-31 09:18:35.166659-06:00,126.474591,2.24,0.96,-1.92,0.63,19.96,866.47,86.65,24.0,-1.0,,,,,,,,,,1.82492,7.43584,23595.7,35.9393,11530.0,0.519126,-1.0,15.0,-1302.0,76.0,,0.0,2022-08-31 08:18:34.198,2022-08-31 15:18:35.166659+00:00,1.0298115176964482,0.013806965747352523,,,,,,,,,,,,,,,,,,,,,,,,,,,,,,,,,,,,,,False,,
2022-08-31 09:18:37.165805-06:00,128.473737,2.52,1.22,-2.02,0.89,20.45,866.45,83.97,20.0,-1.0,,,,,,,,,,1.82476,6.87232,23513.2,35.9406,11573.0,0.512301,-1.0,15.0,-1304.0,76.0,,0.0,2022-08-31 08:18:35.222,2022-08-31 15:18:37.165805+00:00,1.028069096207907,0.013777885892539993,,,,,,,,,,,,,,,,,,,,,,,,,,,,,,,,,,,,,,False,,
2022-08-31 09:18:38.159857-06:00,129.467789,3.01,1.42,-2.64,0.3,19.79,866.45,87.54,24.0,-1.0,,,,,,,,,,1.8256,7.21531,23457.5,35.9419,11541.0,0.500887,-1.0,11.0,-1280.0,76.0,,0.0,2022-08-31 08:18:36.246,2022-08-31 15:18:38.159857+00:00,1.0303853575702926,0.01381697255585344,,,,,,,,,,,,,,,,,,,,,,,,,,,,,,,,,,,,,,False,,
2022-08-31 09:18:39.166260-06:00,130.474192,2.4,0.85,-2.11,0.77,20.91,866.46,81.52,24.0,-1.0,,,,,,,,,,1.82547,7.04789,23534.4,35.9434,11504.0,0.464982,-1.0,14.0,-1286.0,76.0,,0.0,2022-08-31 08:18:37.270,2022-08-31 15:18:39.166260+00:00,1.0264727276723244,0.01375081748177265,,,,,,,,,,,,,,,,,,,,,,,,,,,,,,,,,,,,,,False,,
2022-08-31 09:18:40.166353-06:00,131.474285,2.71,0.97,-2.47,0.56,19.91,866.47,86.85,20.0,-1.0,,,,,,,,,,1.82292,7.15593,23634.0,35.9446,11563.0,0.479119,-1.0,16.0,-1313.0,76.0,,0.0,2022-08-31 08:18:38.294,2022-08-31 15:18:40.166353+00:00,1.029987217470845,0.013809931685029192,,,,,,,,,,,,,,,,,,,,,,,,,,,,,,,,,,,,,,False,,
2022-08-31 09:18:41.167056-06:00,132.474988,2.25,0.82,-2.0,0.63,20.16,866.47,85.5,24.0,-1.0,,,,,,,,,,1.8241,7.11354,23635.8,35.9463,11542.0,0.45151,-1.0,13.0,-1291.0,76.0,,0.0,2022-08-31 08:18:39.318,2022-08-31 15:18:41.167056+00:00,1.0291093176230128,0.013795114957251858,,,,,,,,,,,,,,,,,,,,,,,,,,,,,,,,,,,,,,False,,
2022-08-31 09:18:42.166613-06:00,133.474545,2.34,1.37,-1.78,0.62,20.25,866.46,84.92,25.0,-1.0,,,,,,,,,,1.82309,7.38281,23590.8,35.9471,11499.0,0.361208,-1.0,14.0,-1267.0,76.0,,0.0,2022-08-31 08:18:40.342,2022-08-31 15:18:42.166613+00:00,1.028781766528029,0.0137897476964826,,,,,,,,,,,,,,,,,,,,,,,,,,,,,,,,,,,,,,False,,
2022-08-31 09:18:43.166065-06:00,134.473997,1.54,0.7,-1.22,0.62,20.52,866.46,83.52,21.0,-1.0,,,,,,,,,,1.82312,7.28275,23633.6,35.9477,11556.0,0.322779,-1.0,12.0,-1328.0,76.0,,0.0,2022-08-31 08:18:41.366,2022-08-31 15:18:43.166065+00:00,1.0278359052655148,0.013773794598003795,,,,,,,,,,,,,,,,,,,,,,,,,,,,,,,,,,,,,,False,,
2022-08-31 09:18:44.165778-06:00,135.47371,2.12,0.88,-1.77,0.78,20.31,866.47,84.61,25.0,-1.0,,,,,,,,,,1.8195,6.83054,23724.3,35.9498,11531.0,0.342701,-1.0,11.0,-1289.0,76.0,,0.0,2022-08-31 08:18:42.390,2022-08-31 15:18:44.165778+00:00,1.028583295685974,0.013786240449872748,,,,,,,,,,,,,,,,,,,,,,,,,,,,,,,,,,,,,,False,,
2022-08-31 09:18:45.165803-06:00,136.473735,2.78,1.19,-2.46,0.52,19.82,866.46,87.04,26.0,-1.0,,,,,,,,,,1.82224,7.31285,23684.2,35.951,11531.0,0.288118,-1.0,11.0,-1289.0,76.0,,0.0,2022-08-31 08:18:43.414,2022-08-31 15:18:45.165803+00:00,1.0302917373769456,0.013815232317150351,,,,,,,,,,,,,,,,,,,,,,,,,,,,,,,,,,,,,,False,,
2022-08-31 09:18:46.167083-06:00,137.475015,3.52,1.44,-3.2,0.29,18.94,866.45,91.97,20.0,-1.0,,,,,,,,,,1.82199,6.97743,23623.7,35.9524,11501.0,0.343157,-1.0,15.0,-1274.0,76.0,,0.0,2022-08-31 08:18:44.438,2022-08-31 15:18:46.167083+00:00,1.0333838428109197,0.013867645358623611,,,,,,,,,,,,,,,,,,,,,,,,,,,,,,,,,,,,,,False,,
2022-08-31 09:18:47.166387-06:00,138.474319,2.56,0.9,-2.3,0.67,19.4,866.46,89.45,25.0,-1.0,,,,,,,,,,1.828,6.68554,23361.4,35.9535,11553.0,0.288055,-1.0,14.0,-1328.0,76.0,,0.0,2022-08-31 08:18:45.462,2022-08-31 15:18:47.166387+00:00,1.0317708777963552,0.013840217034155809,,,,,,,,,,,,,,,,,,,,,,,,,,,,,,,,,,,,,,False,,
2022-08-31 09:18:48.166692-06:00,139.474624,2.75,0.99,-2.48,0.66,19.43,866.46,89.38,25.0,-1.0,,,,,,,,,,1.82731,6.52392,23084.4,35.9548,11547.0,0.270329,-1.0,11.0,-1300.0,76.0,,0.0,2022-08-31 08:18:46.486,2022-08-31 15:18:48.166692+00:00,1.0316650840772563,0.013838429360641866,,,,,,,,,,,,,,,,,,,,,,,,,,,,,,,,,,,,,,False,,
2022-08-31 09:18:49.166457-06:00,140.474389,2.84,1.11,-2.56,0.53,19.3,866.45,90.02,19.0,-1.0,,,,,,,,,,1.83195,7.92964,22951.8,35.9564,11496.0,0.348888,-1.0,15.0,-1310.0,76.0,,0.0,2022-08-31 08:18:47.510,2022-08-31 15:18:49.166457+00:00,1.0321117683249839,0.013846137815453715,,,,,,,,,,,,,,,,,,,,,,,,,,,,,,,,,,,,,,False,,
2022-08-31 09:18:50.166383-06:00,141.474315,2.79,1.01,-2.57,0.43,19.43,866.46,89.28,25.0,-1.0,,,,,,,,,,1.83654,6.70204,22846.5,35.9572,11538.0,0.144848,-1.0,14.0,-1317.0,76.0,,0.0,2022-08-31 08:18:48.534,2022-08-31 15:18:50.166383+00:00,1.0316650840772563,0.013838429360641866,,,,,,,,,,,,,,,,,,,,,,,,,,,,,,,,,,,,,,False,,
2022-08-31 09:18:51.167179-06:00,142.475111,2.47,0.61,-2.37,0.35,19.23,866.47,89.71,24.0,-1.0,,,,,,,,,,1.83728,7.37206,22803.3,35.9587,11514.0,0.145301,-1.0,14.0,-1278.0,76.0,,0.0,2022-08-31 08:18:49.558,2022-08-31 15:18:51.167179+00:00,1.032382700430966,0.013850397627966434,,,,,,,,,,,,,,,,,,,,,,,,,,,,,,,,,,,,,,False,,
2022-08-31 09:18:52.167022-06:00,143.474954,2.12,1.08,-1.65,0.77,20.25,866.45,84.06,20.0,-1.0,,,,,,,,,,1.83712,7.04698,22794.5,35.9598,11506.0,0.0924914,-1.0,15.0,-1303.0,76.0,,0.0,2022-08-31 08:18:50.582,2022-08-31 15:18:52.167022+00:00,1.0287698931378375,0.013789706536082021,,,,,,,,,,,,,,,,,,,,,,,,,,,,,,,,,,,,,,False,,
2022-08-31 09:18:53.166782-06:00,144.474714,2.8,1.11,-2.53,0.46,19.4,866.45,88.61,25.0,-1.0,,,,,,,,,,1.83801,6.40475,22814.2,35.9609,11556.0,-0.0597969,-1.0,13.0,-1321.0,76.0,,0.0,2022-08-31 08:18:51.606,2022-08-31 15:18:53.166782+00:00,1.031758969908192,0.013840175545148532,,,,,,,,,,,,,,,,,,,,,,,,,,,,,,,,,,,,,,False,,
2022-08-31 09:18:54.166900-06:00,145.474832,2.5,1.08,-2.16,0.65,19.85,866.46,86.11,23.0,-1.0,,,,,,,,,,1.83704,7.38617,22854.8,35.9624,11537.0,-0.0560672,-1.0,11.0,-1284.0,76.0,,0.0,2022-08-31 08:18:52.630,2022-08-31 15:18:54.166900+00:00,1.0301862467553708,0.013813451208364627,,,,,,,,,,,,,,,,,,,,,,,,,,,,,,,,,,,,,,False,,
2022-08-31 09:18:55.170352-06:00,146.478284,2.18,1.2,-1.6,0.86,19.81,866.45,86.37,20.0,-1.0,,,,,,,,,,1.83499,6.87191,22871.2,35.9637,11537.0,-0.0952356,-1.0,11.0,-1284.0,76.0,,0.0,2022-08-31 08:18:53.654,2022-08-31 15:18:55.170352+00:00,1.0303150144956361,0.013815784793934775,,,,,,,,,,,,,,,,,,,,,,,,,,,,,,,,,,,,,,False,,
2022-08-31 09:18:56.167692-06:00,147.475624,1.63,0.84,-1.32,0.44,20.29,866.45,83.77,25.0,-1.0,,,,,,,,,,1.83983,7.12817,22899.6,35.965,11498.0,-0.0955474,-1.0,12.0,-1285.0,76.0,,0.0,2022-08-31 08:18:54.678,2022-08-31 15:18:56.167692+00:00,1.0286296573290674,0.013787340755294484,,,,,,,,,,,,,,,,,,,,,,,,,,,,,,,,,,,,,,False,,
2022-08-31 09:18:57.166490-06:00,148.474422,2.78,1.23,-2.47,0.33,19.35,866.44,88.8,24.0,-1.0,,,,,,,,,,1.83553,6.81749,22939.0,35.9664,11535.0,-0.127376,-1.0,14.0,-1313.0,76.0,,0.0,2022-08-31 08:18:55.702,2022-08-31 15:18:57.166490+00:00,1.0319234290391772,0.013843114518630377,,,,,,,,,,,,,,,,,,,,,,,,,,,,,,,,,,,,,,False,,
2022-08-31 09:18:58.166712-06:00,149.474644,2.33,1.3,-1.86,0.53,19.36,866.46,88.78,20.0,-1.0,,,,,,,,,,1.83629,7.70552,22964.6,35.9676,11561.0,-0.0645299,-1.0,12.0,-1333.0,76.0,,0.0,2022-08-31 08:18:56.726,2022-08-31 15:18:58.166712+00:00,1.0319119698448727,0.013842601330415767,,,,,,,,,,,,,,,,,,,,,,,,,,,,,,,,,,,,,,False,,
2022-08-31 09:18:59.165368-06:00,150.4733,2.77,0.64,-2.66,0.38,19.36,866.47,88.67,26.0,-1.0,,,,,,,,,,1.83044,6.65376,22896.0,35.9685,11513.0,-0.0693147,-1.0,14.0,-1298.0,76.0,,0.0,2022-08-31 08:18:57.750,2022-08-31 15:18:59.165368+00:00,1.0319238793614094,0.01384264283532623,,,,,,,,,,,,,,,,,,,,,,,,,,,,,,,,,,,,,,False,,
2022-08-31 09:19:00.166433-06:00,151.474365,2.69,1.38,-2.3,0.22,19.25,866.44,89.35,24.0,-1.0,,,,,,,,,,1.83501,7.31517,22811.7,35.9699,11557.0,-0.0536942,-1.0,14.0,-1322.0,76.0,,0.0,2022-08-31 08:18:58.774,2022-08-31 15:19:00.166433+00:00,1.032276344028589,0.013849079365198287,,,,,,,,,,,,,,,,,,,,,,,,,,,,,,,,,,,,,,False,,
2022-08-31 09:19:01.167174-06:00,152.475106,2.92,1.43,-2.54,0.24,19.22,866.44,89.54,21.0,-1.0,,,,,,,,,,1.83398,6.71365,22766.1,35.9712,11561.0,-0.0817005,-1.0,12.0,-1303.0,76.0,,0.0,2022-08-31 08:18:59.798,2022-08-31 15:19:01.167174+00:00,1.032382265601667,0.013850869839760187,,,,,,,,,,,,,,,,,,,,,,,,,,,,,,,,,,,,,,False,,
2022-08-31 09:19:02.166521-06:00,153.474453,3.19,1.33,-2.88,0.32,19.16,866.45,89.68,25.0,-1.0,,,,,,,,,,1.83599,6.8362,22756.5,35.972,11517.0,-0.123169,-1.0,11.0,-1269.0,76.0,,0.0,2022-08-31 08:19:00.822,2022-08-31 15:19:02.166521+00:00,1.0326060916377868,0.01385449378523101,,,,,,,,,,,,,,,,,,,,,,,,,,,,,,,,,,,,,,False,,
2022-08-31 09:19:03.165837-06:00,154.473769,2.85,0.41,-2.8,0.34,19.28,866.46,89.04,23.0,-1.0,,,,,,,,,,1.83415,7.34084,22754.7,35.9734,11515.0,-0.101531,-1.0,14.0,-1279.0,76.0,,0.0,2022-08-31 08:19:01.846,2022-08-31 15:19:03.165837+00:00,1.0321942697374542,0.013847372432818616,,,,,,,,,,,,,,,,,,,,,,,,,,,,,,,,,,,,,,False,,
2022-08-31 09:19:04.165901-06:00,155.473833,3.33,1.49,-2.96,0.29,19.31,866.44,88.93,20.0,-1.0,,,,,,,,,,1.83189,6.18614,22813.7,35.9746,11515.0,-0.100135,-1.0,14.0,-1279.0,76.0,,0.0,2022-08-31 08:19:02.870,2022-08-31 15:19:04.165901+00:00,1.032064566073854,0.013845499829445584,,,,,,,,,,,,,,,,,,,,,,,,,,,,,,,,,,,,,,False,,
2022-08-31 09:19:05.166551-06:00,156.474483,2.72,0.89,-2.54,0.43,19.24,866.45,89.25,26.0,-1.0,,,,,,,,,,1.83282,7.49732,22805.4,35.9756,11565.0,-0.0411631,-1.0,14.0,-1303.0,75.0,,0.0,2022-08-31 08:19:03.894,2022-08-31 15:19:05.166551+00:00,1.03232356320887,0.013849717688582138,,,,,,,,,,,,,,,,,,,,,,,,,,,,,,,,,,,,,,False,,
2022-08-31 09:19:06.166370-06:00,157.474302,2.09,0.67,-1.87,0.65,19.4,866.46,88.37,23.0,-1.0,,,,,,,,,,1.83513,6.42721,22790.1,35.9765,11548.0,-0.0486118,-1.0,12.0,-1273.0,75.0,,0.0,2022-08-31 08:19:04.918,2022-08-31 15:19:06.166370+00:00,1.0317708777963552,0.013840217034155809,,,,,,,,,,,,,,,,,,,,,,,,,,,,,,,,,,,,,,False,,
2022-08-31 09:19:07.166055-06:00,158.473987,2.71,1.55,-2.2,0.31,19.26,866.45,89.05,20.0,-1.0,,,,,,,,,,1.83722,6.93577,22787.6,35.9781,11536.0,-0.0702816,-1.0,15.0,-1297.0,75.0,,0.0,2022-08-31 08:19:05.942,2022-08-31 15:19:07.166055+00:00,1.0322529552568023,0.013848524188167212,,,,,,,,,,,,,,,,,,,,,,,,,,,,,,,,,,,,,,False,,
2022-08-31 09:19:08.166903-06:00,159.474835,2.12,1.4,-1.51,0.52,19.83,866.45,86.11,25.0,-1.0,,,,,,,,,,1.83243,6.87373,22794.9,35.979,11569.0,-0.0579277,-1.0,13.0,-1311.0,75.0,,0.0,2022-08-31 08:19:06.966,2022-08-31 15:19:08.166903+00:00,1.0302446810247852,0.01381459723991929,,,,,,,,,,,,,,,,,,,,,,,,,,,,,,,,,,,,,,False,,
2022-08-31 09:19:09.165993-06:00,160.473925,2.73,0.82,-2.59,0.32,19.43,866.47,88.09,23.0,-1.0,,,,,,,,,,1.83309,6.36381,22838.6,35.9801,11541.0,-0.067072,-1.0,13.0,-1274.0,75.0,,0.0,2022-08-31 08:19:07.990,2022-08-31 15:19:09.165993+00:00,1.0316769907444319,0.013838470838347085,,,,,,,,,,,,,,,,,,,,,,,,,,,,,,,,,,,,,,False,,
2022-08-31 09:19:10.169888-06:00,161.47782,2.05,1.02,-1.67,0.6,19.46,866.46,87.84,20.0,-1.0,,,,,,,,,,1.83137,7.02766,22876.0,35.9812,11499.0,-0.0485875,-1.0,14.0,-1272.0,75.0,,0.0,2022-08-31 08:19:09.014,2022-08-31 15:19:10.169888+00:00,1.0315593120512756,0.013836642157222747,,,,,,,,,,,,,,,,,,,,,,,,,,,,,,,,,,,,,,False,,
2022-08-31 09:19:11.167114-06:00,162.475046,2.17,0.9,-1.85,0.7,19.46,866.46,87.84,26.0,-1.0,,,,,,,,,,1.83655,7.19303,22900.2,35.9823,11540.0,-0.0210127,-1.0,14.0,-1293.0,75.0,,0.0,2022-08-31 08:19:10.038,2022-08-31 15:19:11.167114+00:00,1.0315593120512756,0.013836642157222747,,,,,,,,,,,,,,,,,,,,,,,,,,,,,,,,,,,,,,False,,
2022-08-31 09:19:12.166703-06:00,163.474635,2.61,0.81,-2.46,0.35,19.48,866.47,87.81,23.0,-1.0,,,,,,,,,,1.83153,7.0323,22905.5,35.9832,11565.0,0.0371769,-1.0,14.0,-1303.0,75.0,,0.0,2022-08-31 08:19:11.062,2022-08-31 15:19:12.166703+00:00,1.031500714048477,0.013835492407637427,,,,,,,,,,,,,,,,,,,,,,,,,,,,,,,,,,,,,,False,,
2022-08-31 09:19:13.166733-06:00,164.474665,2.35,1.11,-2.05,0.27,19.31,866.46,88.66,20.0,-1.0,,,,,,,,,,1.83243,7.37746,22957.3,35.9844,11542.0,0.0868464,-1.0,13.0,-1264.0,75.0,,0.0,2022-08-31 08:19:12.086,2022-08-31 15:19:13.166733+00:00,1.0320883891791142,0.013845582877095745,,,,,,,,,,,,,,,,,,,,,,,,,,,,,,,,,,,,,,False,,
2022-08-31 09:19:14.166748-06:00,165.47468,2.28,0.73,-2.12,0.42,19.44,866.44,87.85,28.0,-1.0,,,,,,,,,,1.833,6.83742,22933.0,35.9853,11504.0,0.0604433,-1.0,14.0,-1267.0,75.0,,0.0,2022-08-31 08:19:13.110,2022-08-31 15:19:14.166748+00:00,1.031606011804776,0.013837750627366831,,,,,,,,,,,,,,,,,,,,,,,,,,,,,,,,,,,,,,False,,
2022-08-31 09:19:15.166220-06:00,166.474152,2.47,0.88,-2.26,0.46,19.68,866.47,86.68,22.0,-1.0,,,,,,,,,,1.83166,7.97263,22982.8,35.9865,11542.0,0.101601,-1.0,17.0,-1290.0,75.0,,0.0,2022-08-31 08:19:14.134,2022-08-31 15:19:15.166220+00:00,1.0307962092408767,0.0138235917261976,,,,,,,,,,,,,,,,,,,,,,,,,,,,,,,,,,,,,,False,,
2022-08-31 09:19:16.166839-06:00,167.474771,1.87,0.7,-1.6,0.67,19.75,866.46,86.19,21.0,-1.0,,,,,,,,,,1.82916,7.75926,23060.5,35.9876,11558.0,0.0213848,-1.0,13.0,-1309.0,75.0,,0.0,2022-08-31 08:19:15.158,2022-08-31 15:19:16.166839+00:00,1.0305379661977594,0.013819390056898403,,,,,,,,,,,,,,,,,,,,,,,,,,,,,,,,,,,,,,False,,
2022-08-31 09:19:17.167170-06:00,168.475102,1.31,0.59,-0.99,0.63,20.14,866.46,84.04,26.0,-1.0,,,,,,,,,,1.82827,6.62833,23128.8,35.9885,11528.0,0.0270097,-1.0,14.0,-1290.0,75.0,,0.0,2022-08-31 08:19:16.182,2022-08-31 15:19:17.167170+00:00,1.0291676166910693,0.013796257900937596,,,,,,,,,,,,,,,,,,,,,,,,,,,,,,,,,,,,,,False,,
2022-08-31 09:19:18.166228-06:00,169.47416,1.12,0.59,-0.78,0.54,20.47,866.46,82.28,22.0,-1.0,,,,,,,,,,1.82547,7.59237,23266.4,35.99,11502.0,-0.160266,-1.0,16.0,-1276.0,75.0,,0.0,2022-08-31 08:19:17.206,2022-08-31 15:19:18.166228+00:00,1.0280109335172116,0.01377674603901718,,,,,,,,,,,,,,,,,,,,,,,,,,,,,,,,,,,,,,False,,
2022-08-31 09:19:20.166597-06:00,171.474529,1.91,1.05,-1.53,0.46,19.33,866.46,88.21,26.0,-1.0,,,,,,,,,,1.82658,6.79874,23341.9,35.9912,11557.0,-0.080412,-1.0,14.0,-1317.0,75.0,,0.0,2022-08-31 08:19:18.230,2022-08-31 15:19:20.166597+00:00,1.0320178142072065,0.013844390101528953,,,,,,,,,,,,,,,,,,,,,,,,,,,,,,,,,,,,,,False,,
2022-08-31 09:19:21.159751-06:00,172.467683,2.35,1.31,-1.87,0.54,19.61,866.45,86.77,21.0,-1.0,,,,,,,,,,1.82499,7.23482,23262.1,35.9922,11547.0,-0.0887107,-1.0,13.0,-1299.0,75.0,,0.0,2022-08-31 08:19:19.254,2022-08-31 15:19:21.159751+00:00,1.031018877738221,0.013827671777652997,,,,,,,,,,,,,,,,,,,,,,,,,,,,,,,,,,,,,,False,,
2022-08-31 09:19:22.166827-06:00,173.474759,2.52,1.48,-1.93,0.67,19.96,866.44,84.66,21.0,-1.0,,,,,,,,,,1.829,7.48921,23183.3,35.9933,11501.0,-0.154376,-1.0,14.0,-1295.0,75.0,,0.0,2022-08-31 08:19:20.278,2022-08-31 15:19:22.166827+00:00,1.0297758622836457,0.013806841930968799,,,,,,,,,,,,,,,,,,,,,,,,,,,,,,,,,,,,,,False,,
2022-08-31 09:19:23.165828-06:00,174.47376,2.06,1.24,-1.57,0.53,20.34,866.47,82.86,25.0,-1.0,,,,,,,,,,1.82925,6.93194,23130.1,35.994,11559.0,-0.146386,-1.0,11.0,-1311.0,75.0,,0.0,2022-08-31 08:19:21.302,2022-08-31 15:19:23.165828+00:00,1.0284781558213427,0.013784466943445128,,,,,,,,,,,,,,,,,,,,,,,,,,,,,,,,,,,,,,False,,
2022-08-31 09:19:24.165769-06:00,175.473701,2.17,1.44,-1.53,0.54,20.08,866.46,84.14,21.0,-1.0,,,,,,,,,,1.82872,6.62583,23173.7,35.9949,11559.0,-0.0408042,-1.0,11.0,-1311.0,75.0,,0.0,2022-08-31 08:19:22.326,2022-08-31 15:19:24.165769+00:00,1.0293782024326423,0.01379981156047886,,,,,,,,,,,,,,,,,,,,,,,,,,,,,,,,,,,,,,False,,
2022-08-31 09:19:25.166047-06:00,176.473979,3.06,0.63,-2.98,0.27,19.47,866.47,87.17,21.0,-1.0,,,,,,,,,,1.82614,7.02858,23219.9,35.9963,11511.0,-0.0731327,-1.0,14.0,-1286.0,75.0,,0.0,2022-08-31 08:19:23.350,2022-08-31 15:19:25.166047+00:00,1.0315359645684021,0.013836087989353504,,,,,,,,,,,,,,,,,,,,,,,,,,,,,,,,,,,,,,False,,
2022-08-31 09:19:26.166564-06:00,177.474496,3.2,1.55,-2.78,0.29,19.51,866.46,87.16,26.0,-1.0,,,,,,,,,,1.82844,6.70504,23179.1,35.9973,11505.0,-0.0365431,-1.0,15.0,-1284.0,75.0,,0.0,2022-08-31 08:19:24.374,2022-08-31 15:19:26.166564+00:00,1.031383073530116,0.01383366452901631,,,,,,,,,,,,,,,,,,,,,,,,,,,,,,,,,,,,,,False,,
2022-08-31 09:19:27.167221-06:00,178.475153,2.86,1.45,-2.46,0.27,19.43,866.44,87.48,20.0,-1.0,,,,,,,,,,1.8313,6.80437,23146.6,35.9978,11543.0,-0.0560582,-1.0,14.0,-1318.0,75.0,,0.0,2022-08-31 08:19:25.398,2022-08-31 15:19:27.167221+00:00,1.031641270742906,0.01383834640629458,,,,,,,,,,,,,,,,,,,,,,,,,,,,,,,,,,,,,,False,,
2022-08-31 09:19:28.166331-06:00,179.474263,2.53,1.02,-2.27,0.46,19.62,866.46,86.46,21.0,-1.0,,,,,,,,,,1.83231,7.04316,23088.9,35.9991,11538.0,-0.0373747,-1.0,11.0,-1286.0,75.0,,0.0,2022-08-31 08:19:26.422,2022-08-31 15:19:28.166331+00:00,1.0309955606767214,0.013827118337491628,,,,,,,,,,,,,,,,,,,,,,,,,,,,,,,,,,,,,,False,,
2022-08-31 09:19:29.166344-06:00,180.474276,2.45,0.75,-2.29,0.4,19.71,866.46,85.73,26.0,-1.0,,,,,,,,,,1.83207,6.0684,23067.5,36.0,11498.0,-0.133887,-1.0,13.0,-1304.0,75.0,,0.0,2022-08-31 08:19:27.446,2022-08-31 15:19:29.166344+00:00,1.0306787212296789,0.013821767052401405,,,,,,,,,,,,,,,,,,,,,,,,,,,,,,,,,,,,,,False,,
2022-08-31 09:19:30.166491-06:00,181.474423,2.32,1.15,-1.81,0.88,19.86,866.47,85.0,21.0,-1.0,,,,,,,,,,1.8309,7.37138,23070.5,36.0009,11524.0,-0.145113,-1.0,17.0,-1310.0,75.0,,0.0,2022-08-31 08:19:28.470,2022-08-31 15:19:30.166491+00:00,1.030162977208989,0.013812898920443925,,,,,,,,,,,,,,,,,,,,,,,,,,,,,,,,,,,,,,False,,
2022-08-31 09:19:31.166516-06:00,182.474448,2.33,0.87,-2.04,0.71,19.77,866.46,85.67,20.0,-1.0,,,,,,,,,,1.82981,7.28704,23109.0,36.0015,11519.0,-0.187115,-1.0,13.0,-1304.0,75.0,,0.0,2022-08-31 08:19:29.494,2022-08-31 15:19:31.166516+00:00,1.0304676030975137,0.0138182018712738,,,,,,,,,,,,,,,,,,,,,,,,,,,,,,,,,,,,,,False,,
2022-08-31 09:19:32.166292-06:00,183.474224,2.19,1.22,-1.56,0.93,19.69,866.46,85.93,25.0,-1.0,,,,,,,,,,1.83022,7.77844,23123.1,36.0027,11493.0,-0.177774,-1.0,14.0,-1305.0,75.0,,0.0,2022-08-31 08:19:30.518,2022-08-31 15:19:32.166292+00:00,1.0307491131652906,0.0138229558623876,,,,,,,,,,,,,,,,,,,,,,,,,,,,,,,,,,,,,,False,,
2022-08-31 09:19:33.166265-06:00,184.474197,2.22,1.06,-1.8,0.74,19.67,866.45,86.05,22.0,-1.0,,,,,,,,,,1.83213,7.00047,23137.0,36.0034,11493.0,-0.162354,-1.0,14.0,-1305.0,75.0,,0.0,2022-08-31 08:19:31.542,2022-08-31 15:19:33.166265+00:00,1.0308076178083518,0.013824103496348144,,,,,,,,,,,,,,,,,,,,,,,,,,,,,,,,,,,,,,False,,
2022-08-31 09:19:34.166425-06:00,185.474357,2.44,0.97,-2.12,0.72,19.89,866.47,84.79,20.0,-1.0,,,,,,,,,,1.82917,6.93544,23125.2,36.0046,11544.0,-0.187599,-1.0,16.0,-1343.0,75.0,,0.0,2022-08-31 08:19:32.566,2022-08-31 15:19:34.166425+00:00,1.0300575141687345,0.013811118423419498,,,,,,,,,,,,,,,,,,,,,,,,,,,,,,,,,,,,,,False,,
