Timestamp,Seconds,S,Um,Vm,Wm,T,P,H,MD,Sts,Vx,Vy,Vz,Lat,Lon,Alt,Yaw,Roll,Pitch,CH4,C2H6,H20,T_a,Batt,R,C2C1,Power,Current,SOC,Lat_a,Lon_a,TS,Timestamp_UTC
2022-08-31 09:16:28.692068-06:00,0.0,1.36,0.21,-1.3,0.36,19.72,866.45,85.33,20.0,-1.0,,,,,,,,,,,,,,,,,,,,,,,2022-08-31 15:16:28.692068+00:00
2022-08-31 09:16:28.901860-06:00,0.209792,1.7,0.58,-1.51,0.52,19.83,866.44,84.78,20.0,-1.0,,,,,,,,,,,,,,,,,,,,,,,2022-08-31 15:16:28.901860+00:00
2022-08-31 09:16:29.111451-06:00,0.419383,1.79,0.56,-1.63,0.5,19.72,866.44,85.23,20.0,-1.0,,,,,,,,,,1.82477,6.86654,23781.7,35.8022,11573.0,0.1071,-1.0,12.0,-1302.0,76.0,,0.0,2022-08-31 08:16:27.222,2022-08-31 15:16:29.111451+00:00
2022-08-31 09:16:29.321267-06:00,0.629199,2.13,-0.28,-2.11,0.02,19.74,866.45,85.24,22.0,-1.0,,,,,,,,,,,,,,,,,,,,,,,2022-08-31 15:16:29.321267+00:00
2022-08-31 09:16:29.532084-06:00,0.840016,1.73,0.07,-1.69,0.32,19.75,866.45,85.16,25.0,-1.0,,,,,,,,,,,,,,,,,,,,,,,2022-08-31 15:16:29.532084+00:00
2022-08-31 09:16:29.741498-06:00,1.04943,0.92,-0.21,-0.83,0.34,20.18,866.45,83.0,26.0,-1.0,,,,,,,,,,,,,,,,,,,,,,,2022-08-31 15:16:29.741498+00:00
2022-08-31 09:16:29.951581-06:00,1.259513,1.06,-0.1,-0.99,0.37,20.39,866.46,82.09,24.0,-1.0,,,,,,,,,,,,,,,,,,,,,,,2022-08-31 15:16:29.951581+00:00
2022-08-31 09:16:30.159711-06:00,1.467643,1.31,-0.09,-1.29,0.23,20.08,866.45,83.63,21.0,-1.0,,,,,,,,,,1.82483,7.26585,23774.0,35.8025,11526.0,0.123794,-1.0,16.0,-1307.0,76.0,,0.0,2022-08-31 08:16:28.246,2022-08-31 15:16:30.159711+00:00
2022-08-31 09:16:30.359696-06:00,1.667628,1.62,-0.16,-1.61,0.12,20.02,866.45,83.77,19.0,-1.0,,,,,,,,,,,,,,,,,,,,,,,2022-08-31 15:16:30.359696+00:00
2022-08-31 09:16:30.559272-06:00,1.867204,1.62,-0.35,-1.58,0.1,20.11,866.45,83.39,20.0,-1.0,,,,,,,,,,,,,,,,,,,,,,,2022-08-31 15:16:30.559272+00:00
2022-08-31 09:16:30.759529-06:00,2.067461,1.34,-0.26,-1.31,0.11,20.0,866.44,83.9,21.0,-1.0,,,,,,,,,,,,,,,,,,,,,,,2022-08-31 15:16:30.759529+00:00
2022-08-31 09:16:30.959641-06:00,2.267573,0.88,0.05,-0.81,0.34,20.04,866.45,83.76,23.0,-1.0,,,,,,,,,,,,,,,,,,,,,,,2022-08-31 15:16:30.959641+00:00
2022-08-31 09:16:31.160397-06:00,2.468329,0.87,0.29,-0.73,0.38,20.23,866.43,82.78,26.0,-1.0,,,,,,,,,,1.82719,6.75037,23732.1,35.8025,11573.0,-0.0234125,-1.0,15.0,-1303.0,76.0,,0.0,2022-08-31 08:16:29.270,2022-08-31 15:16:31.160397+00:00
2022-08-31 09:16:31.359999-06:00,2.667931,0.81,-0.05,-0.71,0.4,20.59,866.45,81.02,24.0,-1.0,,,,,,,,,,,,,,,,,,,,,,,2022-08-31 15:16:31.359999+00:00
2022-08-31 09:16:31.559778-06:00,2.86771,0.81,-0.1,-0.72,0.36,20.65,866.45,80.79,22.0,-1.0,,,,,,,,,,,,,,,,,,,,,,,2022-08-31 15:16:31.559778+00:00
2022-08-31 09:16:31.760091-06:00,3.068023,0.58,-0.05,-0.47,0.34,20.69,866.45,80.53,21.0,-1.0,,,,,,,,,,,,,,,,,,,,,,,2022-08-31 15:16:31.760091+00:00
2022-08-31 09:16:31.959641-06:00,3.267573,0.57,0.03,-0.2,0.53,20.68,866.44,80.55,20.0,-1.0,,,,,,,,,,,,,,,,,,,,,,,2022-08-31 15:16:31.959641+00:00
2022-08-31 09:16:32.161178-06:00,3.46911,0.74,0.21,-0.59,0.4,20.55,866.44,81.46,21.0,-1.0,,,,,,,,,,1.82085,6.81536,23693.4,35.8025,11581.0,-0.0238444,-1.0,14.0,-1308.0,76.0,,0.0,2022-08-31 08:16:30.294,2022-08-31 15:16:32.161178+00:00
2022-08-31 09:16:32.359348-06:00,3.66728,0.96,0.39,-0.79,0.4,20.36,866.45,82.25,23.0,-1.0,,,,,,,,,,,,,,,,,,,,,,,2022-08-31 15:16:32.359348+00:00
2022-08-31 09:16:32.559814-06:00,3.867746,1.12,0.5,-0.93,0.36,20.15,866.44,83.53,25.0,-1.0,,,,,,,,,,,,,,,,,,,,,,,2022-08-31 15:16:32.559814+00:00
2022-08-31 09:16:32.759205-06:00,4.067137,0.79,0.46,-0.55,0.33,20.33,866.44,82.51,26.0,-1.0,,,,,,,,,,,,,,,,,,,,,,,2022-08-31 15:16:32.759205+00:00
2022-08-31 09:16:32.959719-06:00,4.267651,0.76,0.01,-0.74,0.18,20.42,866.43,82.1,24.0,-1.0,,,,,,,,,,,,,,,,,,,,,,,2022-08-31 15:16:32.959719+00:00
2022-08-31 09:16:33.160832-06:00,4.468764,0.78,0.11,-0.74,0.23,20.24,866.44,83.03,21.0,-1.0,,,,,,,,,,1.82028,6.65005,23741.6,35.8031,11537.0,0.0107582,-1.0,14.0,-1286.0,76.0,,0.0,2022-08-31 08:16:31.318,2022-08-31 15:16:33.160832+00:00
2022-08-31 09:16:33.359122-06:00,4.667054,0.83,0.34,-0.67,0.34,20.34,866.44,82.47,20.0,-1.0,,,,,,,,,,,,,,,,,,,,,,,2022-08-31 15:16:33.359122+00:00
2022-08-31 09:16:33.559218-06:00,4.86715,0.98,0.36,-0.84,0.35,20.2,866.43,83.15,20.0,-1.0,,,,,,,,,,,,,,,,,,,,,,,2022-08-31 15:16:33.559218+00:00
2022-08-31 09:16:33.759656-06:00,5.067588,0.7,0.36,-0.38,0.46,20.63,866.45,81.06,22.0,-1.0,,,,,,,,,,,,,,,,,,,,,,,2022-08-31 15:16:33.759656+00:00
2022-08-31 09:16:33.959573-06:00,5.267505,0.79,0.39,-0.45,0.51,20.72,866.44,80.7,25.0,-1.0,,,,,,,,,,,,,,,,,,,,,,,2022-08-31 15:16:33.959573+00:00
2022-08-31 09:16:34.160337-06:00,5.468269,0.88,0.36,-0.64,0.48,20.57,866.45,81.46,27.0,-1.0,,,,,,,,,,1.81913,6.66708,23847.5,35.8032,11527.0,0.0684734,-1.0,14.0,-1301.0,76.0,,0.0,2022-08-31 08:16:32.342,2022-08-31 15:16:34.160337+00:00
2022-08-31 09:16:34.359447-06:00,5.667379,0.72,0.25,-0.5,0.45,20.74,866.45,80.62,25.0,-1.0,,,,,,,,,,,,,,,,,,,,,,,2022-08-31 15:16:34.359447+00:00
2022-08-31 09:16:34.559870-06:00,5.867802,0.75,0.45,-0.51,0.3,20.77,866.44,80.32,21.0,-1.0,,,,,,,,,,,,,,,,,,,,,,,2022-08-31 15:16:34.559870+00:00
2022-08-31 09:16:34.759066-06:00,6.066998,0.85,0.5,-0.59,0.35,20.7,866.46,80.81,20.0,-1.0,,,,,,,,,,,,,,,,,,,,,,,2022-08-31 15:16:34.759066+00:00
2022-08-31 09:16:34.959742-06:00,6.267674,0.81,0.29,-0.57,0.5,20.81,866.44,80.33,21.0,-1.0,,,,,,,,,,,,,,,,,,,,,,,2022-08-31 15:16:34.959742+00:00
2022-08-31 09:16:35.161077-06:00,6.469009,0.95,0.52,-0.57,0.55,20.46,866.45,81.93,21.0,-1.0,,,,,,,,,,1.81904,6.61417,23904.4,35.8038,11574.0,0.119336,-1.0,16.0,-1321.0,76.0,,0.0,2022-08-31 08:16:33.366,2022-08-31 15:16:35.161077+00:00
2022-08-31 09:16:35.359180-06:00,6.667112,0.98,0.53,-0.69,0.45,20.47,866.44,82.21,24.0,-1.0,,,,,,,,,,,,,,,,,,,,,,,2022-08-31 15:16:35.359180+00:00
2022-08-31 09:16:35.559223-06:00,6.867155,1.6,0.71,-1.38,0.42,20.36,866.44,82.59,27.0,-1.0,,,,,,,,,,,,,,,,,,,,,,,2022-08-31 15:16:35.559223+00:00
2022-08-31 09:16:35.759855-06:00,7.067787,1.44,0.65,-1.01,0.78,20.64,866.44,81.15,25.0,-1.0,,,,,,,,,,,,,,,,,,,,,,,2022-08-31 15:16:35.759855+00:00
2022-08-31 09:16:35.959844-06:00,7.267776,1.31,0.75,-1.05,0.19,20.53,866.45,81.67,23.0,-1.0,,,,,,,,,,,,,,,,,,,,,,,2022-08-31 15:16:35.959844+00:00
2022-08-31 09:16:36.168317-06:00,7.476249,1.43,0.74,-1.2,0.24,20.14,866.45,83.63,20.0,-1.0,,,,,,,,,,1.82276,6.79207,23951.8,35.8035,11577.0,0.0500095,-1.0,13.0,-1268.0,76.0,,0.0,2022-08-31 08:16:34.390,2022-08-31 15:16:36.168317+00:00
2022-08-31 09:16:36.359233-06:00,7.667165,1.39,0.6,-1.11,0.57,20.19,866.44,83.54,20.0,-1.0,,,,,,,,,,,,,,,,,,,,,,,2022-08-31 15:16:36.359233+00:00
2022-08-31 09:16:36.559287-06:00,7.867219,1.51,0.54,-1.24,0.67,20.17,866.44,83.7,20.0,-1.0,,,,,,,,,,,,,,,,,,,,,,,2022-08-31 15:16:36.559287+00:00
2022-08-31 09:16:36.759481-06:00,8.067413,1.58,-0.04,-1.53,0.38,20.31,866.45,82.99,21.0,-1.0,,,,,,,,,,,,,,,,,,,,,,,2022-08-31 15:16:36.759481+00:00
2022-08-31 09:16:36.959724-06:00,8.267656,2.23,-0.22,-2.21,0.22,20.3,866.44,83.05,25.0,-1.0,,,,,,,,,,,,,,,,,,,,,,,2022-08-31 15:16:36.959724+00:00
2022-08-31 09:16:37.168200-06:00,8.476132,2.4,-0.87,-2.23,0.19,20.82,866.45,80.53,26.0,-1.0,,,,,,,,,,1.82367,6.92889,23940.1,35.8038,11543.0,-0.0434799,-1.0,16.0,-1312.0,76.0,,0.0,2022-08-31 08:16:35.414,2022-08-31 15:16:37.168200+00:00
2022-08-31 09:16:37.359219-06:00,8.667151,1.15,-0.54,-0.78,0.65,21.3,866.43,78.18,24.0,-1.0,,,,,,,,,,,,,,,,,,,,,,,2022-08-31 15:16:37.359219+00:00
2022-08-31 09:16:37.559520-06:00,8.867452,2.2,-0.09,-2.12,0.57,20.48,866.45,82.22,21.0,-1.0,,,,,,,,,,,,,,,,,,,,,,,2022-08-31 15:16:37.559520+00:00
2022-08-31 09:16:37.759756-06:00,9.067688,2.13,0.77,-1.86,0.67,20.1,866.44,84.19,20.0,-1.0,,,,,,,,,,,,,,,,,,,,,,,2022-08-31 15:16:37.759756+00:00
2022-08-31 09:16:37.959158-06:00,9.26709,2.18,0.4,-2.1,0.44,19.88,866.45,85.3,19.0,-1.0,,,,,,,,,,,,,,,,,,,,,,,2022-08-31 15:16:37.959158+00:00
2022-08-31 09:16:38.168694-06:00,9.476626,2.93,-0.32,-2.9,0.22,19.72,866.45,86.17,22.0,-1.0,,,,,,,,,,1.8159,6.09005,24036.8,35.8041,11562.0,0.117715,-1.0,18.0,-1300.0,76.0,,0.0,2022-08-31 08:16:36.438,2022-08-31 15:16:38.168694+00:00
2022-08-31 09:16:38.360110-06:00,9.668042,3.88,-0.49,-3.85,-0.17,19.49,866.46,87.39,24.0,-1.0,,,,,,,,,,,,,,,,,,,,,,,2022-08-31 15:16:38.360110+00:00
2022-08-31 09:16:38.560087-06:00,9.868019,4.33,-0.42,-4.3,-0.17,19.4,866.45,88.05,26.0,-1.0,,,,,,,,,,,,,,,,,,,,,,,2022-08-31 15:16:38.560087+00:00
2022-08-31 09:16:38.759197-06:00,10.067129,4.1,-0.46,-4.07,-0.17,19.37,866.44,88.14,26.0,-1.0,,,,,,,,,,,,,,,,,,,,,,,2022-08-31 15:16:38.759197+00:00
2022-08-31 09:16:38.959770-06:00,10.267702,3.2,-0.04,-3.19,-0.15,19.29,866.44,88.52,23.0,-1.0,,,,,,,,,,,,,,,,,,,,,,,2022-08-31 15:16:38.959770+00:00
2022-08-31 09:16:39.166167-06:00,10.474099,3.43,0.11,-3.42,-0.24,19.37,866.45,88.22,21.0,-1.0,,,,,,,,,,1.82067,6.46656,24012.7,35.8041,11562.0,0.0963045,-1.0,18.0,-1300.0,76.0,,0.0,2022-08-31 08:16:37.462,2022-08-31 15:16:39.166167+00:00
2022-08-31 09:16:39.359406-06:00,10.667338,4.35,-0.15,-4.33,-0.4,19.5,866.45,87.54,20.0,-1.0,,,,,,,,,,,,,,,,,,,,,,,2022-08-31 15:16:39.359406+00:00
2022-08-31 09:16:39.559503-06:00,10.867435,3.85,-0.15,-3.84,-0.29,19.35,866.44,88.24,21.0,-1.0,,,,,,,,,,,,,,,,,,,,,,,2022-08-31 15:16:39.559503+00:00
2022-08-31 09:16:39.759917-06:00,11.067849,3.31,-0.53,-3.23,-0.51,19.53,866.44,87.35,24.0,-1.0,,,,,,,,,,,,,,,,,,,,,,,2022-08-31 15:16:39.759917+00:00
2022-08-31 09:16:39.959402-06:00,11.267334,2.97,-0.91,-2.82,-0.12,19.72,866.43,86.4,27.0,-1.0,,,,,,,,,,,,,,,,,,,,,,,2022-08-31 15:16:39.959402+00:00
2022-08-31 09:16:40.167004-06:00,11.474936,1.96,-0.04,-1.9,0.51,20.07,866.43,84.57,27.0,-1.0,,,,,,,,,,1.82165,6.1119,23842.7,35.8046,11559.0,0.121441,-1.0,13.0,-1302.0,76.0,,0.0,2022-08-31 08:16:38.486,2022-08-31 15:16:40.167004+00:00
2022-08-31 09:16:40.359733-06:00,11.667665,2.09,0.54,-1.9,0.67,20.06,866.44,84.63,24.0,-1.0,,,,,,,,,,,,,,,,,,,,,,,2022-08-31 15:16:40.359733+00:00
2022-08-31 09:16:40.559396-06:00,11.867328,3.07,-0.39,-3.04,0.11,19.9,866.44,85.48,21.0,-1.0,,,,,,,,,,,,,,,,,,,,,,,2022-08-31 15:16:40.559396+00:00
2022-08-31 09:16:40.759852-06:00,12.067784,2.27,0.02,-2.22,0.47,19.91,866.44,85.41,20.0,-1.0,,,,,,,,,,,,,,,,,,,,,,,2022-08-31 15:16:40.759852+00:00
2022-08-31 09:16:40.959784-06:00,12.267716,2.24,-0.22,-2.21,0.25,19.78,866.45,86.12,21.0,-1.0,,,,,,,,,,,,,,,,,,,,,,,2022-08-31 15:16:40.959784+00:00
2022-08-31 09:16:41.166470-06:00,12.474402,3.22,-0.37,-3.2,-0.12,19.6,866.46,87.07,24.0,-1.0,,,,,,,,,,1.82345,5.85911,23800.9,35.8048,11521.0,0.134567,-1.0,15.0,-1322.0,76.0,,0.0,2022-08-31 08:16:39.510,2022-08-31 15:16:41.166470+00:00
2022-08-31 09:16:41.359324-06:00,12.667256,3.47,-0.49,-3.43,-0.15,19.64,866.45,86.96,27.0,-1.0,,,,,,,,,,,,,,,,,,,,,,,2022-08-31 15:16:41.359324+00:00
2022-08-31 09:16:41.559554-06:00,12.867486,3.27,-0.36,-3.25,-0.07,19.78,866.44,86.19,27.0,-1.0,,,,,,,,,,,,,,,,,,,,,,,2022-08-31 15:16:41.559554+00:00
2022-08-31 09:16:41.759204-06:00,13.067136,3.01,-0.03,-3.01,-0.01,19.38,866.45,88.46,23.0,-1.0,,,,,,,,,,,,,,,,,,,,,,,2022-08-31 15:16:41.759204+00:00
2022-08-31 09:16:41.959566-06:00,13.267498,2.91,-0.02,-2.91,0.0,19.18,866.45,89.63,21.0,-1.0,,,,,,,,,,,,,,,,,,,,,,,2022-08-31 15:16:41.959566+00:00
2022-08-31 09:16:42.166384-06:00,13.474316,3.04,-0.18,-3.03,-0.12,19.55,866.45,87.51,20.0,-1.0,,,,,,,,,,1.82528,6.10722,23738.9,35.8053,11566.0,0.0429352,-1.0,17.0,-1327.0,76.0,,0.0,2022-08-31 08:16:40.534,2022-08-31 15:16:42.166384+00:00
2022-08-31 09:16:42.359211-06:00,13.667143,3.07,-0.55,-3.02,-0.08,19.71,866.45,86.64,20.0,-1.0,,,,,,,,,,,,,,,,,,,,,,,2022-08-31 15:16:42.359211+00:00
2022-08-31 09:16:42.559376-06:00,13.867308,3.11,-0.42,-3.07,-0.21,19.86,866.45,85.83,23.0,-1.0,,,,,,,,,,,,,,,,,,,,,,,2022-08-31 15:16:42.559376+00:00
2022-08-31 09:16:42.760015-06:00,14.067947,2.55,-0.27,-2.54,0.06,19.72,866.44,86.59,26.0,-1.0,,,,,,,,,,,,,,,,,,,,,,,2022-08-31 15:16:42.760015+00:00
2022-08-31 09:16:42.959779-06:00,14.267711,2.86,-0.27,-2.85,-0.12,19.92,866.46,85.68,28.0,-1.0,,,,,,,,,,,,,,,,,,,,,,,2022-08-31 15:16:42.959779+00:00
2022-08-31 09:16:43.165845-06:00,14.473777,2.79,-0.34,-2.76,0.09,19.6,866.45,87.41,26.0,-1.0,,,,,,,,,,1.82215,6.64821,23664.4,35.8056,11581.0,0.0515449,-1.0,14.0,-1313.0,76.0,,0.0,2022-08-31 08:16:41.558,2022-08-31 15:16:43.165845+00:00
2022-08-31 09:16:43.360025-06:00,14.667957,2.7,-0.45,-2.67,0.01,19.58,866.46,87.46,22.0,-1.0,,,,,,,,,,,,,,,,,,,,,,,2022-08-31 15:16:43.360025+00:00
2022-08-31 09:16:43.559837-06:00,14.867769,2.12,-0.26,-2.11,-0.05,19.8,866.46,86.5,21.0,-1.0,,,,,,,,,,,,,,,,,,,,,,,2022-08-31 15:16:43.559837+00:00
2022-08-31 09:16:43.759412-06:00,15.067344,2.18,-0.3,-2.16,-0.06,19.7,866.45,86.96,20.0,-1.0,,,,,,,,,,,,,,,,,,,,,,,2022-08-31 15:16:43.759412+00:00
2022-08-31 09:16:43.959825-06:00,15.267757,1.68,0.18,-1.64,0.34,19.6,866.45,87.33,22.0,-1.0,,,,,,,,,,,,,,,,,,,,,,,2022-08-31 15:16:43.959825+00:00
2022-08-31 09:16:44.166862-06:00,15.474794,1.44,-0.1,-1.44,-0.02,19.87,866.45,86.06,25.0,-1.0,,,,,,,,,,1.82145,6.65622,23692.8,35.8062,11560.0,0.0674603,-1.0,13.0,-1291.0,76.0,,0.0,2022-08-31 08:16:42.582,2022-08-31 15:16:44.166862+00:00
2022-08-31 09:16:44.359887-06:00,15.667819,1.49,0.08,-1.47,0.18,19.76,866.45,86.61,27.0,-1.0,,,,,,,,,,,,,,,,,,,,,,,2022-08-31 15:16:44.359887+00:00
2022-08-31 09:16:44.559627-06:00,15.867559,1.53,0.45,-1.41,0.42,19.82,866.46,86.38,26.0,-1.0,,,,,,,,,,,,,,,,,,,,,,,2022-08-31 15:16:44.559627+00:00
2022-08-31 09:16:44.759426-06:00,16.067358,1.39,0.48,-1.25,0.37,19.77,866.45,86.76,23.0,-1.0,,,,,,,,,,,,,,,,,,,,,,,2022-08-31 15:16:44.759426+00:00
2022-08-31 09:16:44.959715-06:00,16.267647,1.11,0.17,-1.0,0.44,19.99,866.44,85.38,21.0,-1.0,,,,,,,,,,,,,,,,,,,,,,,2022-08-31 15:16:44.959715+00:00
2022-08-31 09:16:45.166012-06:00,16.473944,0.93,0.45,-0.74,0.32,19.99,866.44,85.55,21.0,-1.0,,,,,,,,,,1.82623,6.3207,23698.3,35.806,11575.0,0.0088131,-1.0,15.0,-1292.0,76.0,,0.0,2022-08-31 08:16:43.606,2022-08-31 15:16:45.166012+00:00
2022-08-31 09:16:45.359987-06:00,16.667919,1.0,0.34,-0.88,0.33,19.89,866.43,86.04,21.0,-1.0,,,,,,,,,,,,,,,,,,,,,,,2022-08-31 15:16:45.359987+00:00
2022-08-31 09:16:45.559274-06:00,16.867206,1.35,0.6,-1.13,0.44,19.98,866.45,85.52,23.0,-1.0,,,,,,,,,,,,,,,,,,,,,,,2022-08-31 15:16:45.559274+00:00
2022-08-31 09:16:45.759822-06:00,17.067754,1.5,0.2,-1.45,0.33,20.01,866.45,85.47,27.0,-1.0,,,,,,,,,,,,,,,,,,,,,,,2022-08-31 15:16:45.759822+00:00
2022-08-31 09:16:45.959396-06:00,17.267328,1.63,0.42,-1.51,0.47,19.85,866.44,86.3,27.0,-1.0,,,,,,,,,,,,,,,,,,,,,,,2022-08-31 15:16:45.959396+00:00
2022-08-31 09:16:46.167404-06:00,17.475336,1.5,0.59,-1.28,0.52,20.07,866.45,85.08,24.0,-1.0,,,,,,,,,,1.82423,6.34142,23748.7,35.8065,11570.0,0.0676889,-1.0,14.0,-1294.0,76.0,,0.0,2022-08-31 08:16:44.630,2022-08-31 15:16:46.167404+00:00
2022-08-31 09:16:46.359978-06:00,17.66791,1.81,0.21,-1.77,0.3,19.96,866.44,85.8,22.0,-1.0,,,,,,,,,,,,,,,,,,,,,,,2022-08-31 15:16:46.359978+00:00
2022-08-31 09:16:46.559748-06:00,17.86768,2.13,-0.2,-2.12,0.04,19.92,866.44,86.01,21.0,-1.0,,,,,,,,,,,,,,,,,,,,,,,2022-08-31 15:16:46.559748+00:00
2022-08-31 09:16:46.760130-06:00,18.068062,2.22,-0.08,-2.22,-0.11,19.69,866.44,87.25,22.0,-1.0,,,,,,,,,,,,,,,,,,,,,,,2022-08-31 15:16:46.760130+00:00
2022-08-31 09:16:46.959818-06:00,18.26775,2.13,0.08,-2.12,0.25,19.63,866.45,87.57,23.0,-1.0,,,,,,,,,,,,,,,,,,,,,,,2022-08-31 15:16:46.959818+00:00
2022-08-31 09:16:47.166849-06:00,18.474781,1.6,0.04,-1.58,0.24,19.94,866.44,86.09,25.0,-1.0,,,,,,,,,,1.82191,6.97607,23747.4,35.8068,11517.0,0.142867,-1.0,14.0,-1288.0,76.0,,0.0,2022-08-31 08:16:45.654,2022-08-31 15:16:47.166849+00:00
2022-08-31 09:16:47.359255-06:00,18.667187,1.49,0.24,-1.41,0.41,20.09,866.43,85.14,27.0,-1.0,,,,,,,,,,,,,,,,,,,,,,,2022-08-31 15:16:47.359255+00:00
2022-08-31 09:16:47.559399-06:00,18.867331,1.75,0.51,-1.6,0.49,20.01,866.44,85.55,25.0,-1.0,,,,,,,,,,,,,,,,,,,,,,,2022-08-31 15:16:47.559399+00:00
2022-08-31 09:16:47.759132-06:00,19.067064,1.81,0.54,-1.65,0.5,20.11,866.45,85.04,23.0,-1.0,,,,,,,,,,,,,,,,,,,,,,,2022-08-31 15:16:47.759132+00:00
2022-08-31 09:16:47.959261-06:00,19.267193,1.93,0.51,-1.78,0.56,20.04,866.45,85.47,20.0,-1.0,,,,,,,,,,,,,,,,,,,,,,,2022-08-31 15:16:47.959261+00:00
2022-08-31 09:16:48.166962-06:00,19.474894,1.75,0.47,-1.58,0.61,20.14,866.44,85.04,21.0,-1.0,,,,,,,,,,1.82654,6.09618,23773.7,35.8075,11514.0,0.101142,-1.0,15.0,-1295.0,76.0,,0.0,2022-08-31 08:16:46.678,2022-08-31 15:16:48.166962+00:00
2022-08-31 09:16:48.359930-06:00,19.667862,1.9,0.81,-1.58,0.69,20.09,866.46,85.33,22.0,-1.0,,,,,,,,,,,,,,,,,,,,,,,2022-08-31 15:16:48.359930+00:00
2022-08-31 09:16:48.559420-06:00,19.867352,2.18,1.04,-1.8,0.66,20.02,866.45,85.61,24.0,-1.0,,,,,,,,,,,,,,,,,,,,,,,2022-08-31 15:16:48.559420+00:00
2022-08-31 09:16:48.759753-06:00,20.067685,2.53,0.53,-2.39,0.62,20.06,866.45,85.45,26.0,-1.0,,,,,,,,,,,,,,,,,,,,,,,2022-08-31 15:16:48.759753+00:00
2022-08-31 09:16:48.959670-06:00,20.267602,2.01,0.37,-1.88,0.62,20.22,866.44,84.46,27.0,-1.0,,,,,,,,,,,,,,,,,,,,,,,2022-08-31 15:16:48.959670+00:00
2022-08-31 09:16:49.167212-06:00,20.475144,2.43,-0.07,-2.43,0.16,20.03,866.44,85.79,24.0,-1.0,,,,,,,,,,1.82099,6.42348,23792.7,35.808,11514.0,0.112463,-1.0,15.0,-1295.0,76.0,,0.0,2022-08-31 08:16:47.702,2022-08-31 15:16:49.167212+00:00
2022-08-31 09:16:49.359094-06:00,20.667026,2.44,0.07,-2.44,0.07,19.77,866.43,87.03,21.0,-1.0,,,,,,,,,,,,,,,,,,,,,,,2022-08-31 15:16:49.359094+00:00
2022-08-31 09:16:49.559902-06:00,20.867834,2.39,0.42,-2.3,0.5,19.62,866.46,87.81,20.0,-1.0,,,,,,,,,,,,,,,,,,,,,,,2022-08-31 15:16:49.559902+00:00
2022-08-31 09:16:49.759867-06:00,21.067799,2.07,0.35,-1.97,0.52,19.66,866.45,87.7,21.0,-1.0,,,,,,,,,,,,,,,,,,,,,,,2022-08-31 15:16:49.759867+00:00
2022-08-31 09:16:49.960047-06:00,21.267979,2.37,-0.21,-2.36,0.04,19.96,866.45,86.24,23.0,-1.0,,,,,,,,,,,,,,,,,,,,,,,2022-08-31 15:16:49.960047+00:00
2022-08-31 09:16:50.166197-06:00,21.474129,2.45,-0.45,-2.4,0.03,20.1,866.45,85.42,26.0,-1.0,,,,,,,,,,1.82052,6.34951,23826.2,35.8085,11579.0,0.234165,-1.0,12.0,-1325.0,76.0,,0.0,2022-08-31 08:16:48.726,2022-08-31 15:16:50.166197+00:00
2022-08-31 09:16:50.359258-06:00,21.66719,1.98,0.08,-1.96,0.25,19.99,866.44,85.91,26.0,-1.0,,,,,,,,,,,,,,,,,,,,,,,2022-08-31 15:16:50.359258+00:00
2022-08-31 09:16:50.559230-06:00,21.867162,2.91,-0.09,-2.91,0.08,20.01,866.46,85.89,25.0,-1.0,,,,,,,,,,,,,,,,,,,,,,,2022-08-31 15:16:50.559230+00:00
2022-08-31 09:16:50.759210-06:00,22.067142,2.86,-0.03,-2.84,0.37,20.08,866.45,85.62,21.0,-1.0,,,,,,,,,,,,,,,,,,,,,,,2022-08-31 15:16:50.759210+00:00
2022-08-31 09:16:50.959434-06:00,22.267366,2.49,-0.04,-2.46,0.43,20.4,866.45,83.85,20.0,-1.0,,,,,,,,,,,,,,,,,,,,,,,2022-08-31 15:16:50.959434+00:00
2022-08-31 09:16:51.168476-06:00,22.476408,2.92,-0.3,-2.9,0.12,20.29,866.46,84.43,20.0,-1.0,,,,,,,,,,1.8193,5.77756,23879.0,35.8089,11548.0,0.252767,-1.0,10.0,-1284.0,76.0,,0.0,2022-08-31 08:16:49.750,2022-08-31 15:16:51.168476+00:00
2022-08-31 09:16:51.359735-06:00,22.667667,2.98,-0.38,-2.96,-0.05,20.18,866.46,84.98,21.0,-1.0,,,,,,,,,,,,,,,,,,,,,,,2022-08-31 15:16:51.359735+00:00
2022-08-31 09:16:51.559467-06:00,22.867399,1.94,0.09,-1.9,0.37,20.32,866.46,84.33,24.0,-1.0,,,,,,,,,,,,,,,,,,,,,,,2022-08-31 15:16:51.559467+00:00
2022-08-31 09:16:51.759358-06:00,23.06729,2.1,-0.0,-2.05,0.42,20.22,866.43,85.05,27.0,-1.0,,,,,,,,,,,,,,,,,,,,,,,2022-08-31 15:16:51.759358+00:00
2022-08-31 09:16:51.959491-06:00,23.267423,2.55,-0.07,-2.53,0.3,20.22,866.45,85.06,24.0,-1.0,,,,,,,,,,,,,,,,,,,,,,,2022-08-31 15:16:51.959491+00:00
2022-08-31 09:16:52.166983-06:00,23.474915,2.21,0.3,-2.11,0.55,20.58,866.45,82.99,22.0,-1.0,,,,,,,,,,1.82232,6.17318,23936.3,35.8099,11566.0,0.233233,-1.0,14.0,-1320.0,76.0,,0.0,2022-08-31 08:16:50.774,2022-08-31 15:16:52.166983+00:00
2022-08-31 09:16:52.359110-06:00,23.667042,2.25,0.84,-2.03,0.49,20.53,866.46,83.45,20.0,-1.0,,,,,,,,,,,,,,,,,,,,,,,2022-08-31 15:16:52.359110+00:00
2022-08-31 09:16:52.559625-06:00,23.867557,2.2,0.83,-1.98,0.48,20.83,866.45,81.74,20.0,-1.0,,,,,,,,,,,,,,,,,,,,,,,2022-08-31 15:16:52.559625+00:00
2022-08-31 09:16:52.759357-06:00,24.067289,2.11,0.76,-1.91,0.48,20.41,866.47,84.04,21.0,-1.0,,,,,,,,,,,,,,,,,,,,,,,2022-08-31 15:16:52.759357+00:00
2022-08-31 09:16:52.959639-06:00,24.267571,2.2,0.32,-2.12,0.47,20.14,866.46,85.55,24.0,-1.0,,,,,,,,,,,,,,,,,,,,,,,2022-08-31 15:16:52.959639+00:00
2022-08-31 09:16:53.166224-06:00,24.474156,2.15,-0.23,-2.12,0.29,20.38,866.46,84.21,27.0,-1.0,,,,,,,,,,1.81956,7.01732,24002.4,35.8105,11570.0,0.20565,-1.0,11.0,-1306.0,76.0,,0.0,2022-08-31 08:16:51.798,2022-08-31 15:16:53.166224+00:00
2022-08-31 09:16:53.359522-06:00,24.667454,2.45,-0.3,-2.43,0.12,20.0,866.46,86.23,26.0,-1.0,,,,,,,,,,,,,,,,,,,,,,,2022-08-31 15:16:53.359522+00:00
2022-08-31 09:16:53.559984-06:00,24.867916,2.69,-0.36,-2.66,0.02,19.97,866.45,86.47,24.0,-1.0,,,,,,,,,,,,,,,,,,,,,,,2022-08-31 15:16:53.559984+00:00
2022-08-31 09:16:53.759693-06:00,25.067625,2.69,-0.29,-2.67,0.22,20.23,866.46,85.08,21.0,-1.0,,,,,,,,,,,,,,,,,,,,,,,2022-08-31 15:16:53.759693+00:00
2022-08-31 09:16:53.959470-06:00,25.267402,2.09,-0.22,-2.05,0.39,20.43,866.47,84.02,20.0,-1.0,,,,,,,,,,,,,,,,,,,,,,,2022-08-31 15:16:53.959470+00:00
2022-08-31 09:16:54.166193-06:00,25.474125,2.46,-0.27,-2.43,0.23,20.34,866.46,84.58,21.0,-1.0,,,,,,,,,,1.81681,5.27951,24018.5,35.811,11510.0,0.361991,-1.0,14.0,-1312.0,76.0,,0.0,2022-08-31 08:16:52.822,2022-08-31 15:16:54.166193+00:00
2022-08-31 09:16:54.359510-06:00,25.667442,1.42,0.39,-1.2,0.65,20.74,866.45,82.5,23.0,-1.0,,,,,,,,,,,,,,,,,,,,,,,2022-08-31 15:16:54.359510+00:00
2022-08-31 09:16:54.559596-06:00,25.867528,1.35,0.74,-1.01,0.51,20.68,866.45,82.65,26.0,-1.0,,,,,,,,,,,,,,,,,,,,,,,2022-08-31 15:16:54.559596+00:00
2022-08-31 09:16:54.759383-06:00,26.067315,1.02,0.12,-0.89,0.47,20.97,866.45,81.44,27.0,-1.0,,,,,,,,,,,,,,,,,,,,,,,2022-08-31 15:16:54.759383+00:00
2022-08-31 09:16:54.960131-06:00,26.268063,1.26,-0.08,-1.16,0.5,20.57,866.45,83.36,24.0,-1.0,,,,,,,,,,,,,,,,,,,,,,,2022-08-31 15:16:54.960131+00:00
2022-08-31 09:16:55.166303-06:00,26.474235,1.42,0.24,-1.26,0.6,20.58,866.46,83.42,21.0,-1.0,,,,,,,,,,1.81688,6.4115,24056.1,35.8116,11550.0,0.352308,-1.0,14.0,-1286.0,76.0,,0.0,2022-08-31 08:16:53.846,2022-08-31 15:16:55.166303+00:00
2022-08-31 09:16:55.359837-06:00,26.667769,1.35,0.5,-1.08,0.62,20.78,866.44,82.49,20.0,-1.0,,,,,,,,,,,,,,,,,,,,,,,2022-08-31 15:16:55.359837+00:00
2022-08-31 09:16:55.559636-06:00,26.867568,1.56,0.65,-1.26,0.66,20.94,866.44,81.59,20.0,-1.0,,,,,,,,,,,,,,,,,,,,,,,2022-08-31 15:16:55.559636+00:00
2022-08-31 09:16:55.759971-06:00,27.067903,1.33,0.26,-1.18,0.56,20.95,866.44,81.64,22.0,-1.0,,,,,,,,,,,,,,,,,,,,,,,2022-08-31 15:16:55.759971+00:00
2022-08-31 09:16:55.959794-06:00,27.267726,1.26,0.57,-0.81,0.77,20.77,866.45,82.46,25.0,-1.0,,,,,,,,,,,,,,,,,,,,,,,2022-08-31 15:16:55.959794+00:00
2022-08-31 09:16:56.167419-06:00,27.475351,1.24,0.66,-0.9,0.54,20.73,866.45,82.74,27.0,-1.0,,,,,,,,,,1.81994,6.40967,24063.3,35.8126,11573.0,0.353603,-1.0,11.0,-1283.0,76.0,,0.0,2022-08-31 08:16:54.870,2022-08-31 15:16:56.167419+00:00
2022-08-31 09:16:56.359798-06:00,27.66773,1.07,0.43,-0.91,0.37,20.79,866.45,82.45,24.0,-1.0,,,,,,,,,,,,,,,,,,,,,,,2022-08-31 15:16:56.359798+00:00
2022-08-31 09:16:56.559969-06:00,27.867901,0.98,0.51,-0.84,0.1,20.88,866.45,81.88,21.0,-1.0,,,,,,,,,,,,,,,,,,,,,,,2022-08-31 15:16:56.559969+00:00
2022-08-31 09:16:56.759579-06:00,28.067511,1.23,0.62,-1.06,0.15,20.67,866.45,83.03,20.0,-1.0,,,,,,,,,,,,,,,,,,,,,,,2022-08-31 15:16:56.759579+00:00
2022-08-31 09:16:56.959910-06:00,28.267842,1.14,0.62,-0.83,0.48,21.0,866.44,81.61,20.0,-1.0,,,,,,,,,,,,,,,,,,,,,,,2022-08-31 15:16:56.959910+00:00
2022-08-31 09:16:57.166919-06:00,28.474851,1.26,0.71,-0.99,0.31,21.06,866.46,81.15,22.0,-1.0,,,,,,,,,,1.81493,6.87845,24151.0,35.8133,11537.0,0.167283,-1.0,12.0,-1261.0,76.0,,0.0,2022-08-31 08:16:55.894,2022-08-31 15:16:57.166919+00:00
2022-08-31 09:16:57.359307-06:00,28.667239,1.2,0.68,-0.89,0.44,20.86,866.44,82.13,24.0,-1.0,,,,,,,,,,,,,,,,,,,,,,,2022-08-31 15:16:57.359307+00:00
2022-08-31 09:16:57.560178-06:00,28.86811,0.95,0.71,-0.58,0.24,20.89,866.45,81.99,26.0,-1.0,,,,,,,,,,,,,,,,,,,,,,,2022-08-31 15:16:57.560178+00:00
2022-08-31 09:16:57.759177-06:00,29.067109,0.65,0.39,-0.44,0.29,20.95,866.45,81.78,25.0,-1.0,,,,,,,,,,,,,,,,,,,,,,,2022-08-31 15:16:57.759177+00:00
2022-08-31 09:16:57.959116-06:00,29.267048,1.05,0.75,-0.69,0.24,20.79,866.45,82.63,22.0,-1.0,,,,,,,,,,,,,,,,,,,,,,,2022-08-31 15:16:57.959116+00:00
2022-08-31 09:16:58.166374-06:00,29.474306,1.15,0.8,-0.74,0.35,20.66,866.43,83.32,20.0,-1.0,,,,,,,,,,1.81553,5.74254,24279.5,35.8143,11537.0,0.246717,-1.0,12.0,-1261.0,76.0,,0.0,2022-08-31 08:16:56.918,2022-08-31 15:16:58.166374+00:00
2022-08-31 09:16:58.359515-06:00,29.667447,0.98,0.64,-0.65,0.38,20.88,866.45,82.14,20.0,-1.0,,,,,,,,,,,,,,,,,,,,,,,2022-08-31 15:16:58.359515+00:00
2022-08-31 09:16:58.559243-06:00,29.867175,1.2,0.63,-0.9,0.5,20.62,866.45,83.62,21.0,-1.0,,,,,,,,,,,,,,,,,,,,,,,2022-08-31 15:16:58.559243+00:00
2022-08-31 09:16:58.759666-06:00,30.067598,1.47,0.72,-1.18,0.53,20.0,866.45,86.7,23.0,-1.0,,,,,,,,,,,,,,,,,,,,,,,2022-08-31 15:16:58.759666+00:00
2022-08-31 09:16:58.959373-06:00,30.267305,1.11,0.49,-0.88,0.47,20.29,866.46,85.25,26.0,-1.0,,,,,,,,,,,,,,,,,,,,,,,2022-08-31 15:16:58.959373+00:00
2022-08-31 09:16:59.167455-06:00,30.475387,1.03,0.47,-0.75,0.52,20.48,866.44,84.35,27.0,-1.0,,,,,,,,,,1.81521,6.10054,24320.3,35.8152,11513.0,0.249997,-1.0,12.0,-1279.0,76.0,,0.0,2022-08-31 08:16:57.942,2022-08-31 15:16:59.167455+00:00
2022-08-31 09:16:59.359858-06:00,30.66779,1.06,0.53,-0.79,0.47,20.42,866.46,84.67,24.0,-1.0,,,,,,,,,,,,,,,,,,,,,,,2022-08-31 15:16:59.359858+00:00
2022-08-31 09:16:59.559815-06:00,30.867747,0.84,0.52,-0.55,0.36,20.88,866.46,82.28,21.0,-1.0,,,,,,,,,,,,,,,,,,,,,,,2022-08-31 15:16:59.559815+00:00
2022-08-31 09:16:59.759479-06:00,31.067411,0.81,0.49,-0.64,0.1,21.01,866.46,81.69,20.0,-1.0,,,,,,,,,,,,,,,,,,,,,,,2022-08-31 15:16:59.759479+00:00
2022-08-31 09:16:59.960051-06:00,31.267983,1.0,0.4,-0.85,0.35,20.48,866.45,84.41,21.0,-1.0,,,,,,,,,,,,,,,,,,,,,,,2022-08-31 15:16:59.960051+00:00
2022-08-31 09:17:00.166775-06:00,31.474707,0.77,0.31,-0.48,0.52,20.73,866.44,83.19,23.0,-1.0,,,,,,,,,,1.81798,6.50217,24269.7,35.8158,11571.0,0.179411,-1.0,13.0,-1277.0,76.0,,0.0,2022-08-31 08:16:58.966,2022-08-31 15:17:00.166775+00:00
2022-08-31 09:17:00.359651-06:00,31.667583,0.73,0.02,-0.62,0.37,20.74,866.45,83.22,25.0,-1.0,,,,,,,,,,,,,,,,,,,,,,,2022-08-31 15:17:00.359651+00:00
2022-08-31 09:17:00.559999-06:00,31.867931,0.67,0.13,-0.48,0.45,20.88,866.44,82.27,26.0,-1.0,,,,,,,,,,,,,,,,,,,,,,,2022-08-31 15:17:00.559999+00:00
2022-08-31 09:17:00.759857-06:00,32.067789,0.82,0.38,-0.57,0.46,20.84,866.47,82.48,25.0,-1.0,,,,,,,,,,,,,,,,,,,,,,,2022-08-31 15:17:00.759857+00:00
2022-08-31 09:17:00.959492-06:00,32.267424,0.68,0.24,-0.48,0.41,21.01,866.45,81.85,21.0,-1.0,,,,,,,,,,,,,,,,,,,,,,,2022-08-31 15:17:00.959492+00:00
2022-08-31 09:17:01.167414-06:00,32.475346,0.58,0.22,-0.28,0.46,21.38,866.46,79.96,20.0,-1.0,,,,,,,,,,1.81992,5.53976,24254.7,35.8164,11534.0,0.13507,-1.0,11.0,-1272.0,76.0,,0.0,2022-08-31 08:16:59.990,2022-08-31 15:17:01.167414+00:00
2022-08-31 09:17:01.359512-06:00,32.667444,0.52,0.22,-0.15,0.44,21.44,866.46,79.8,20.0,-1.0,,,,,,,,,,,,,,,,,,,,,,,2022-08-31 15:17:01.359512+00:00
2022-08-31 09:17:01.559634-06:00,32.867566,0.59,0.22,-0.32,0.44,21.43,866.45,79.8,21.0,-1.0,,,,,,,,,,,,,,,,,,,,,,,2022-08-31 15:17:01.559634+00:00
2022-08-31 09:17:01.759128-06:00,33.06706,0.8,0.5,-0.6,0.18,21.25,866.44,80.66,24.0,-1.0,,,,,,,,,,,,,,,,,,,,,,,2022-08-31 15:17:01.759128+00:00
2022-08-31 09:17:01.960030-06:00,33.267962,0.85,0.58,-0.6,0.15,21.33,866.45,80.37,26.0,-1.0,,,,,,,,,,,,,,,,,,,,,,,2022-08-31 15:17:01.960030+00:00
2022-08-31 09:17:02.166868-06:00,33.4748,0.72,0.43,-0.55,0.19,21.43,866.46,79.77,25.0,-1.0,,,,,,,,,,1.81262,6.16792,24345.5,35.8175,11524.0,0.15234,-1.0,13.0,-1290.0,76.0,,0.0,2022-08-31 08:17:01.014,2022-08-31 15:17:02.166868+00:00
2022-08-31 09:17:02.359412-06:00,33.667344,0.67,0.35,-0.43,0.38,21.36,866.46,80.3,22.0,-1.0,,,,,,,,,,,,,,,,,,,,,,,2022-08-31 15:17:02.359412+00:00
2022-08-31 09:17:02.559410-06:00,33.867342,0.55,0.14,-0.35,0.4,21.29,866.45,80.55,20.0,-1.0,,,,,,,,,,,,,,,,,,,,,,,2022-08-31 15:17:02.559410+00:00
2022-08-31 09:17:02.759270-06:00,34.067202,0.71,0.33,-0.47,0.43,21.17,866.45,81.25,20.0,-1.0,,,,,,,,,,,,,,,,,,,,,,,2022-08-31 15:17:02.759270+00:00
2022-08-31 09:17:02.959505-06:00,34.267437,0.6,0.35,-0.3,0.38,21.24,866.45,80.87,21.0,-1.0,,,,,,,,,,,,,,,,,,,,,,,2022-08-31 15:17:02.959505+00:00
2022-08-31 09:17:03.166185-06:00,34.474117,0.77,0.32,-0.45,0.53,21.26,866.45,80.87,22.0,-1.0,,,,,,,,,,1.81043,6.25412,24461.5,35.8183,11557.0,0.150452,-1.0,13.0,-1285.0,76.0,,0.0,2022-08-31 08:17:02.038,2022-08-31 15:17:03.166185+00:00
2022-08-31 09:17:03.359881-06:00,34.667813,0.8,0.21,-0.54,0.56,21.56,866.45,79.24,25.0,-1.0,,,,,,,,,,,,,,,,,,,,,,,2022-08-31 15:17:03.359881+00:00
2022-08-31 09:17:03.559990-06:00,34.867922,0.93,0.32,-0.7,0.53,21.46,866.46,79.87,27.0,-1.0,,,,,,,,,,,,,,,,,,,,,,,2022-08-31 15:17:03.559990+00:00
2022-08-31 09:17:03.760128-06:00,35.06806,0.86,0.3,-0.65,0.46,21.46,866.46,79.79,24.0,-1.0,,,,,,,,,,,,,,,,,,,,,,,2022-08-31 15:17:03.760128+00:00
2022-08-31 09:17:03.959216-06:00,35.267148,0.94,0.5,-0.6,0.52,21.09,866.45,81.71,21.0,-1.0,,,,,,,,,,,,,,,,,,,,,,,2022-08-31 15:17:03.959216+00:00
2022-08-31 09:17:04.166602-06:00,35.474534,1.05,0.61,-0.77,0.36,20.67,866.46,83.86,20.0,-1.0,,,,,,,,,,1.80535,6.53668,24532.1,35.8193,11571.0,0.074371,-1.0,12.0,-1277.0,76.0,,0.0,2022-08-31 08:17:03.062,2022-08-31 15:17:04.166602+00:00
2022-08-31 09:17:04.359878-06:00,35.66781,1.42,0.57,-1.16,0.57,20.72,866.45,83.68,20.0,-1.0,,,,,,,,,,,,,,,,,,,,,,,2022-08-31 15:17:04.359878+00:00
2022-08-31 09:17:04.560092-06:00,35.868024,1.48,0.71,-1.23,0.43,20.68,866.46,83.77,22.0,-1.0,,,,,,,,,,,,,,,,,,,,,,,2022-08-31 15:17:04.560092+00:00
2022-08-31 09:17:04.759584-06:00,36.067516,1.82,0.68,-1.48,0.8,19.89,866.46,87.56,24.0,-1.0,,,,,,,,,,,,,,,,,,,,,,,2022-08-31 15:17:04.759584+00:00
2022-08-31 09:17:04.959443-06:00,36.267375,1.81,0.79,-1.42,0.78,19.63,866.44,89.51,27.0,-1.0,,,,,,,,,,,,,,,,,,,,,,,2022-08-31 15:17:04.959443+00:00
2022-08-31 09:17:05.167244-06:00,36.475176,1.86,0.81,-1.5,0.75,19.43,866.45,90.63,26.0,-1.0,,,,,,,,,,1.81524,6.81801,24393.3,35.8202,11523.0,0.039017,-1.0,13.0,-1281.0,76.0,,0.0,2022-08-31 08:17:04.086,2022-08-31 15:17:05.167244+00:00
2022-08-31 09:17:05.359653-06:00,36.667585,1.97,0.76,-1.65,0.76,19.83,866.45,88.49,23.0,-1.0,,,,,,,,,,,,,,,,,,,,,,,2022-08-31 15:17:05.359653+00:00
2022-08-31 09:17:05.559415-06:00,36.867347,1.88,0.78,-1.52,0.78,19.92,866.45,87.91,21.0,-1.0,,,,,,,,,,,,,,,,,,,,,,,2022-08-31 15:17:05.559415+00:00
2022-08-31 09:17:05.760070-06:00,37.068002,1.91,0.81,-1.61,0.64,20.71,866.46,83.7,20.0,-1.0,,,,,,,,,,,,,,,,,,,,,,,2022-08-31 15:17:05.760070+00:00
2022-08-31 09:17:05.959235-06:00,37.267167,1.9,0.75,-1.59,0.72,21.14,866.46,81.04,21.0,-1.0,,,,,,,,,,,,,,,,,,,,,,,2022-08-31 15:17:05.959235+00:00
2022-08-31 09:17:06.167540-06:00,37.475472,2.05,0.37,-1.93,0.57,20.91,866.45,82.21,23.0,-1.0,,,,,,,,,,1.82152,5.94191,24153.8,35.8212,11557.0,-0.00332226,-1.0,17.0,-1281.0,76.0,,0.0,2022-08-31 08:17:05.110,2022-08-31 15:17:06.167540+00:00
2022-08-31 09:17:06.359593-06:00,37.667525,1.87,0.28,-1.76,0.57,20.92,866.46,82.14,25.0,-1.0,,,,,,,,,,,,,,,,,,,,,,,2022-08-31 15:17:06.359593+00:00
2022-08-31 09:17:06.559763-06:00,37.867695,1.45,-0.04,-1.38,0.42,21.04,866.45,81.6,26.0,-1.0,,,,,,,,,,,,,,,,,,,,,,,2022-08-31 15:17:06.559763+00:00
2022-08-31 09:17:06.759468-06:00,38.0674,1.69,-0.24,-1.67,0.17,20.99,866.45,81.86,24.0,-1.0,,,,,,,,,,,,,,,,,,,,,,,2022-08-31 15:17:06.759468+00:00
2022-08-31 09:17:06.959163-06:00,38.267095,1.44,0.16,-1.37,0.43,20.91,866.45,82.29,21.0,-1.0,,,,,,,,,,,,,,,,,,,,,,,2022-08-31 15:17:06.959163+00:00
2022-08-31 09:17:07.165885-06:00,38.473817,1.38,0.14,-1.29,0.45,20.92,866.46,82.29,20.0,-1.0,,,,,,,,,,1.82085,6.16437,24200.4,35.8217,11576.0,-0.0592149,-1.0,16.0,-1276.0,76.0,,0.0,2022-08-31 08:17:06.134,2022-08-31 15:17:07.165885+00:00
2022-08-31 09:17:07.359889-06:00,38.667821,1.81,0.88,-1.43,0.66,20.72,866.45,83.34,21.0,-1.0,,,,,,,,,,,,,,,,,,,,,,,2022-08-31 15:17:07.359889+00:00
2022-08-31 09:17:07.559597-06:00,38.867529,1.75,0.91,-1.29,0.76,20.56,866.46,84.22,22.0,-1.0,,,,,,,,,,,,,,,,,,,,,,,2022-08-31 15:17:07.559597+00:00
2022-08-31 09:17:07.759897-06:00,39.067829,1.64,0.83,-1.36,0.39,20.78,866.46,82.92,26.0,-1.0,,,,,,,,,,,,,,,,,,,,,,,2022-08-31 15:17:07.759897+00:00
2022-08-31 09:17:07.959670-06:00,39.267602,1.79,0.63,-1.53,0.66,21.07,866.46,81.53,27.0,-1.0,,,,,,,,,,,,,,,,,,,,,,,2022-08-31 15:17:07.959670+00:00
2022-08-31 09:17:08.165819-06:00,39.473751,1.89,0.64,-1.61,0.75,21.09,866.46,81.52,25.0,-1.0,,,,,,,,,,1.81738,6.23319,24253.6,35.8226,11570.0,-0.0695794,-1.0,12.0,-1289.0,76.0,,0.0,2022-08-31 08:17:07.158,2022-08-31 15:17:08.165819+00:00
2022-08-31 09:17:08.359842-06:00,39.667774,2.05,0.61,-1.86,0.6,20.63,866.46,83.78,22.0,-1.0,,,,,,,,,,,,,,,,,,,,,,,2022-08-31 15:17:08.359842+00:00
2022-08-31 09:17:08.559229-06:00,39.867161,1.83,0.67,-1.61,0.56,20.65,866.46,83.8,20.0,-1.0,,,,,,,,,,,,,,,,,,,,,,,2022-08-31 15:17:08.559229+00:00
2022-08-31 09:17:08.759552-06:00,40.067484,2.41,0.82,-2.22,0.46,19.49,866.46,89.86,20.0,-1.0,,,,,,,,,,,,,,,,,,,,,,,2022-08-31 15:17:08.759552+00:00
2022-08-31 09:17:08.959278-06:00,40.26721,2.42,0.84,-2.24,0.39,19.41,866.45,90.44,21.0,-1.0,,,,,,,,,,,,,,,,,,,,,,,2022-08-31 15:17:08.959278+00:00
2022-08-31 09:17:09.166851-06:00,40.474783,1.35,0.45,-1.16,0.53,20.27,866.47,85.75,24.0,-1.0,,,,,,,,,,1.81342,6.53516,24286.0,35.8234,11526.0,-0.0991991,-1.0,13.0,-1295.0,76.0,,0.0,2022-08-31 08:17:08.182,2022-08-31 15:17:09.166851+00:00
2022-08-31 09:17:09.359192-06:00,40.667124,1.85,0.71,-1.63,0.51,19.48,866.46,90.15,26.0,-1.0,,,,,,,,,,,,,,,,,,,,,,,2022-08-31 15:17:09.359192+00:00
2022-08-31 09:17:09.559902-06:00,40.867834,1.86,0.85,-1.56,0.53,19.22,866.45,91.63,26.0,-1.0,,,,,,,,,,,,,,,,,,,,,,,2022-08-31 15:17:09.559902+00:00
2022-08-31 09:17:09.759133-06:00,41.067065,2.36,0.01,-2.35,0.24,19.2,866.44,91.74,23.0,-1.0,,,,,,,,,,,,,,,,,,,,,,,2022-08-31 15:17:09.759133+00:00
2022-08-31 09:17:09.959313-06:00,41.267245,3.49,-0.27,-3.48,-0.12,19.18,866.45,91.99,21.0,-1.0,,,,,,,,,,,,,,,,,,,,,,,2022-08-31 15:17:09.959313+00:00
2022-08-31 09:17:10.166901-06:00,41.474833,3.18,0.04,-3.18,0.0,19.05,866.45,92.62,20.0,-1.0,,,,,,,,,,1.81626,6.41486,24056.0,35.8246,11571.0,-0.0970705,-1.0,14.0,-1290.0,76.0,,0.0,2022-08-31 08:17:09.206,2022-08-31 15:17:10.166901+00:00
2022-08-31 09:17:10.359291-06:00,41.667223,2.62,0.47,-2.57,0.27,19.25,866.45,91.61,20.0,-1.0,,,,,,,,,,,,,,,,,,,,,,,2022-08-31 15:17:10.359291+00:00
2022-08-31 09:17:10.560064-06:00,41.867996,3.13,0.11,-3.13,0.02,19.24,866.46,91.67,23.0,-1.0,,,,,,,,,,,,,,,,,,,,,,,2022-08-31 15:17:10.560064+00:00
2022-08-31 09:17:10.760058-06:00,42.06799,3.23,-0.33,-3.21,-0.07,19.29,866.45,91.51,25.0,-1.0,,,,,,,,,,,,,,,,,,,,,,,2022-08-31 15:17:10.760058+00:00
2022-08-31 09:17:10.959187-06:00,42.267119,2.88,0.0,-2.88,0.08,19.19,866.45,91.96,27.0,-1.0,,,,,,,,,,,,,,,,,,,,,,,2022-08-31 15:17:10.959187+00:00
2022-08-31 09:17:11.166912-06:00,42.474844,2.23,0.35,-2.15,0.51,19.22,866.46,91.89,25.0,-1.0,,,,,,,,,,1.82439,6.17099,23768.9,35.8255,11566.0,-0.0740897,-1.0,11.0,-1269.0,76.0,,0.0,2022-08-31 08:17:10.230,2022-08-31 15:17:11.166912+00:00
2022-08-31 09:17:11.360036-06:00,42.667968,2.1,0.05,-2.01,0.59,19.6,866.45,89.63,22.0,-1.0,,,,,,,,,,,,,,,,,,,,,,,2022-08-31 15:17:11.360036+00:00
2022-08-31 09:17:11.560051-06:00,42.867983,2.23,-0.26,-2.21,0.22,19.62,866.44,89.63,20.0,-1.0,,,,,,,,,,,,,,,,,,,,,,,2022-08-31 15:17:11.560051+00:00
2022-08-31 09:17:11.759335-06:00,43.067267,2.09,0.24,-2.01,0.5,19.54,866.46,90.1,20.0,-1.0,,,,,,,,,,,,,,,,,,,,,,,2022-08-31 15:17:11.759335+00:00
2022-08-31 09:17:11.959630-06:00,43.267562,2.01,0.22,-1.91,0.58,19.67,866.46,89.33,21.0,-1.0,,,,,,,,,,,,,,,,,,,,,,,2022-08-31 15:17:11.959630+00:00
2022-08-31 09:17:12.166860-06:00,43.474792,1.93,0.51,-1.74,0.64,19.65,866.46,89.61,24.0,-1.0,,,,,,,,,,1.82328,5.75802,23616.5,35.8265,11515.0,-0.0946958,-1.0,14.0,-1277.0,76.0,,0.0,2022-08-31 08:17:11.254,2022-08-31 15:17:12.166860+00:00
2022-08-31 09:17:12.360027-06:00,43.667959,1.93,0.0,-1.89,0.4,19.74,866.45,89.08,25.0,-1.0,,,,,,,,,,,,,,,,,,,,,,,2022-08-31 15:17:12.360027+00:00
2022-08-31 09:17:12.559683-06:00,43.867615,1.78,0.14,-1.74,0.34,19.76,866.46,88.94,24.0,-1.0,,,,,,,,,,,,,,,,,,,,,,,2022-08-31 15:17:12.559683+00:00
2022-08-31 09:17:12.759195-06:00,44.067127,1.67,0.85,-1.29,0.63,19.8,866.45,88.74,23.0,-1.0,,,,,,,,,,,,,,,,,,,,,,,2022-08-31 15:17:12.759195+00:00
2022-08-31 09:17:12.959333-06:00,44.267265,1.59,0.65,-1.3,0.65,19.91,866.44,88.21,20.0,-1.0,,,,,,,,,,,,,,,,,,,,,,,2022-08-31 15:17:12.959333+00:00
2022-08-31 09:17:13.178919-06:00,44.486851,1.48,0.44,-1.23,0.69,20.26,866.46,85.6,20.0,-1.0,,,,,,,,,,1.82619,6.67029,23606.3,35.8274,11530.0,-0.0635012,-1.0,14.0,-1291.0,76.0,,0.0,2022-08-31 08:17:12.278,2022-08-31 15:17:13.178919+00:00
2022-08-31 09:17:13.359910-06:00,44.667842,1.8,0.68,-1.48,0.75,20.07,866.46,87.31,20.0,-1.0,,,,,,,,,,,,,,,,,,,,,,,2022-08-31 15:17:13.359910+00:00
2022-08-31 09:17:13.559556-06:00,44.867488,2.06,0.15,-1.99,0.53,19.8,866.45,88.3,23.0,-1.0,,,,,,,,,,,,,,,,,,,,,,,2022-08-31 15:17:13.559556+00:00
2022-08-31 09:17:13.759697-06:00,45.067629,2.48,0.34,-2.42,0.46,19.73,866.46,88.57,25.0,-1.0,,,,,,,,,,,,,,,,,,,,,,,2022-08-31 15:17:13.759697+00:00
2022-08-31 09:17:13.959682-06:00,45.267614,2.61,1.15,-2.3,0.46,19.61,866.44,89.26,27.0,-1.0,,,,,,,,,,,,,,,,,,,,,,,2022-08-31 15:17:13.959682+00:00
2022-08-31 09:17:14.202753-06:00,45.510685,2.57,0.74,-2.44,0.27,19.24,866.46,91.43,24.0,-1.0,,,,,,,,,,1.828,6.63598,23634.2,35.8286,11581.0,-0.0236646,-1.0,12.0,-1284.0,76.0,,0.0,2022-08-31 08:17:13.302,2022-08-31 15:17:14.202753+00:00
2022-08-31 09:17:14.359846-06:00,45.667778,2.64,0.63,-2.53,0.4,19.64,866.45,89.23,21.0,-1.0,,,,,,,,,,1.828,6.63598,23634.2,35.8286,11581.0,-0.0236646,-1.0,12.0,-1284.0,76.0,,0.0,2022-08-31 08:17:13.302,2022-08-31 15:17:14.359846+00:00
2022-08-31 09:17:14.559926-06:00,45.867858,1.71,0.58,-1.47,0.67,20.06,866.43,86.97,20.0,-1.0,,,,,,,,,,,,,,,,,,,,,,,2022-08-31 15:17:14.559926+00:00
2022-08-31 09:17:14.759732-06:00,46.067664,1.4,0.65,-1.01,0.71,20.44,866.45,84.93,20.0,-1.0,,,,,,,,,,,,,,,,,,,,,,,2022-08-31 15:17:14.759732+00:00
2022-08-31 09:17:14.959362-06:00,46.267294,1.22,0.5,-1.03,0.43,20.46,866.44,84.56,22.0,-1.0,,,,,,,,,,,,,,,,,,,,,,,2022-08-31 15:17:14.959362+00:00
2022-08-31 09:17:15.243490-06:00,46.551422,1.71,1.11,-1.29,0.17,20.38,866.45,85.27,25.0,-1.0,,,,,,,,,,1.8236,6.28826,23754.1,35.8296,11547.0,-0.0280998,-1.0,12.0,-1263.0,76.0,,0.0,2022-08-31 08:17:14.326,2022-08-31 15:17:15.243490+00:00
2022-08-31 09:17:15.359882-06:00,46.667814,1.76,0.9,-1.44,0.46,20.44,866.45,84.85,27.0,-1.0,,,,,,,,,,1.8236,6.28826,23754.1,35.8296,11547.0,-0.0280998,-1.0,12.0,-1263.0,76.0,,0.0,2022-08-31 08:17:14.326,2022-08-31 15:17:15.359882+00:00
2022-08-31 09:17:15.560069-06:00,46.868001,2.31,1.12,-1.93,0.59,20.17,866.45,86.35,26.0,-1.0,,,,,,,,,,,,,,,,,,,,,,,2022-08-31 15:17:15.560069+00:00
2022-08-31 09:17:15.759650-06:00,47.067582,2.48,0.27,-2.47,0.12,19.05,866.46,92.68,24.0,-1.0,,,,,,,,,,,,,,,,,,,,,,,2022-08-31 15:17:15.759650+00:00
2022-08-31 09:17:15.959248-06:00,47.26718,2.22,1.31,-1.74,0.45,19.36,866.44,90.81,21.0,-1.0,,,,,,,,,,,,,,,,,,,,,,,2022-08-31 15:17:15.959248+00:00
2022-08-31 09:17:16.268517-06:00,47.576449,1.96,1.34,-1.4,0.3,19.46,866.44,90.34,20.0,-1.0,,,,,,,,,,1.8228,5.86827,23843.7,35.8306,11567.0,-0.0593204,-1.0,16.0,-1300.0,76.0,,0.0,2022-08-31 08:17:15.350,2022-08-31 15:17:16.268517+00:00
2022-08-31 09:17:16.359829-06:00,47.667761,1.78,0.85,-1.49,0.47,20.07,866.46,87.05,21.0,-1.0,,,,,,,,,,1.8228,5.86827,23843.7,35.8306,11567.0,-0.0593204,-1.0,16.0,-1300.0,76.0,,0.0,2022-08-31 08:17:15.350,2022-08-31 15:17:16.359829+00:00
2022-08-31 09:17:16.559441-06:00,47.867373,2.22,0.89,-1.94,0.6,19.98,866.47,87.39,23.0,-1.0,,,,,,,,,,,,,,,,,,,,,,,2022-08-31 15:17:16.559441+00:00
2022-08-31 09:17:16.759160-06:00,48.067092,3.49,1.24,-3.26,0.25,19.79,866.44,88.58,26.0,-1.0,,,,,,,,,,,,,,,,,,,,,,,2022-08-31 15:17:16.759160+00:00
2022-08-31 09:17:16.959513-06:00,48.267445,3.34,0.46,-3.28,0.37,19.9,866.46,87.97,27.0,-1.0,,,,,,,,,,,,,,,,,,,,,,,2022-08-31 15:17:16.959513+00:00
2022-08-31 09:17:17.275113-06:00,48.583045,2.92,0.8,-2.79,0.37,19.71,866.46,89.05,25.0,-1.0,,,,,,,,,,1.8238,6.85564,23830.2,35.8317,11567.0,-0.0468393,-1.0,16.0,-1300.0,76.0,,0.0,2022-08-31 08:17:16.374,2022-08-31 15:17:17.275113+00:00
2022-08-31 09:17:17.359249-06:00,48.667181,2.91,0.23,-2.9,0.1,19.21,866.47,91.87,23.0,-1.0,,,,,,,,,,1.8238,6.85564,23830.2,35.8317,11567.0,-0.0468393,-1.0,16.0,-1300.0,76.0,,0.0,2022-08-31 08:17:16.374,2022-08-31 15:17:17.359249+00:00
2022-08-31 09:17:17.559123-06:00,48.867055,2.37,0.52,-2.27,0.43,19.27,866.46,91.48,21.0,-1.0,,,,,,,,,,,,,,,,,,,,,,,2022-08-31 15:17:17.559123+00:00
2022-08-31 09:17:17.759630-06:00,49.067562,2.15,0.89,-1.8,0.75,19.59,866.46,89.72,21.0,-1.0,,,,,,,,,,,,,,,,,,,,,,,2022-08-31 15:17:17.759630+00:00
2022-08-31 09:17:17.959934-06:00,49.267866,2.21,1.02,-1.77,0.85,19.83,866.44,88.38,22.0,-1.0,,,,,,,,,,,,,,,,,,,,,,,2022-08-31 15:17:17.959934+00:00
2022-08-31 09:17:18.299246-06:00,49.607178,2.91,0.89,-2.74,0.42,19.45,866.46,90.51,26.0,-1.0,,,,,,,,,,1.82774,5.96535,23743.8,35.833,11580.0,-0.0680078,-1.0,14.0,-1288.0,76.0,,0.0,2022-08-31 08:17:17.398,2022-08-31 15:17:18.299246+00:00
2022-08-31 09:17:18.359484-06:00,49.667416,3.29,0.98,-3.13,0.28,19.53,866.45,90.1,27.0,-1.0,,,,,,,,,,1.82774,5.96535,23743.8,35.833,11580.0,-0.0680078,-1.0,14.0,-1288.0,76.0,,0.0,2022-08-31 08:17:17.398,2022-08-31 15:17:18.359484+00:00
2022-08-31 09:17:18.560084-06:00,49.868016,3.04,0.99,-2.85,0.4,19.69,866.45,89.41,27.0,-1.0,,,,,,,,,,,,,,,,,,,,,,,2022-08-31 15:17:18.560084+00:00
2022-08-31 09:17:18.759539-06:00,50.067471,3.4,1.38,-3.1,0.26,19.69,866.44,89.38,23.0,-1.0,,,,,,,,,,,,,,,,,,,,,,,2022-08-31 15:17:18.759539+00:00
2022-08-31 09:17:18.959910-06:00,50.267842,2.95,0.9,-2.7,0.77,19.52,866.44,90.36,21.0,-1.0,,,,,,,,,,,,,,,,,,,,,,,2022-08-31 15:17:18.959910+00:00
2022-08-31 09:17:19.322901-06:00,50.630833,2.69,1.01,-2.39,0.73,19.48,866.44,90.48,20.0,-1.0,,,,,,,,,,,,,,,,,,,,,,,2022-08-31 15:17:19.322901+00:00
2022-08-31 09:17:19.360201-06:00,50.668133,2.92,0.97,-2.73,0.35,19.43,866.45,90.79,21.0,-1.0,,,,,,,,,,,,,,,,,,,,,,,2022-08-31 15:17:19.360201+00:00
2022-08-31 09:17:19.559704-06:00,50.867636,3.85,1.07,-3.68,0.37,19.37,866.43,91.18,24.0,-1.0,,,,,,,,,,,,,,,,,,,,,,,2022-08-31 15:17:19.559704+00:00
2022-08-31 09:17:19.759251-06:00,51.067183,3.81,1.33,-3.55,0.42,19.11,866.44,92.6,26.0,-1.0,,,,,,,,,,,,,,,,,,,,,,,2022-08-31 15:17:19.759251+00:00
2022-08-31 09:17:19.959924-06:00,51.267856,3.23,0.95,-3.05,0.53,19.33,866.44,91.39,27.0,-1.0,,,,,,,,,,,,,,,,,,,,,,,2022-08-31 15:17:19.959924+00:00
2022-08-31 09:17:20.346617-06:00,51.654549,3.45,0.42,-3.42,0.22,19.57,866.43,90.07,24.0,-1.0,,,,,,,,,,,,,,,,,,,,,,,2022-08-31 15:17:20.346617+00:00
2022-08-31 09:17:20.384282-06:00,51.692214,3.39,0.08,-3.38,0.14,19.6,866.44,89.88,22.0,-1.0,,,,,,,,,,,,,,,,,,,,,,,2022-08-31 15:17:20.384282+00:00
2022-08-31 09:17:20.559426-06:00,51.867358,3.13,0.23,-3.11,0.13,19.48,866.46,90.66,21.0,-1.0,,,,,,,,,,,,,,,,,,,,,,,2022-08-31 15:17:20.559426+00:00
2022-08-31 09:17:20.759757-06:00,52.067689,2.77,0.34,-2.72,0.36,19.4,866.45,91.1,21.0,-1.0,,,,,,,,,,,,,,,,,,,,,,,2022-08-31 15:17:20.759757+00:00
2022-08-31 09:17:20.959594-06:00,52.267526,2.6,0.64,-2.49,0.42,19.68,866.45,88.82,23.0,-1.0,,,,,,,,,,,,,,,,,,,,,,,2022-08-31 15:17:20.959594+00:00
2022-08-31 09:17:21.357390-06:00,52.665322,2.71,0.21,-2.68,0.37,19.72,866.45,89.42,27.0,-1.0,,,,,,,,,,,,,,,,,,,,,,,2022-08-31 15:17:21.357390+00:00
2022-08-31 09:17:21.380915-06:00,52.688847,2.84,0.03,-2.83,0.25,19.53,866.46,90.37,28.0,-1.0,,,,,,,,,,,,,,,,,,,,,,,2022-08-31 15:17:21.380915+00:00
2022-08-31 09:17:21.559206-06:00,52.867138,2.8,0.49,-2.72,0.46,19.68,866.46,88.81,26.0,-1.0,,,,,,,,,,,,,,,,,,,,,,,2022-08-31 15:17:21.559206+00:00
2022-08-31 09:17:21.759575-06:00,53.067507,2.91,0.1,-2.88,0.42,19.83,866.45,88.21,22.0,-1.0,,,,,,,,,,,,,,,,,,,,,,,2022-08-31 15:17:21.759575+00:00
2022-08-31 09:17:21.959553-06:00,53.267485,3.02,-0.02,-3.0,0.31,19.79,866.47,88.31,21.0,-1.0,,,,,,,,,,,,,,,,,,,,,,,2022-08-31 15:17:21.959553+00:00
2022-08-31 09:17:22.167020-06:00,53.474952,2.4,0.47,-2.25,0.7,19.81,866.47,88.29,21.0,-1.0,,,,,,,,,,1.82685,6.84122,23590.4,35.8363,11569.0,0.0389959,-1.0,13.0,-1287.0,76.0,,0.0,2022-08-31 08:17:20.470,2022-08-31 15:17:22.167020+00:00
2022-08-31 09:17:22.359588-06:00,53.66752,3.01,0.61,-2.89,0.54,19.63,866.46,89.27,22.0,-1.0,,,,,,,,,,,,,,,,,,,,,,,2022-08-31 15:17:22.359588+00:00
2022-08-31 09:17:22.559254-06:00,53.867186,3.63,0.97,-3.48,0.37,19.37,866.45,90.81,25.0,-1.0,,,,,,,,,,,,,,,,,,,,,,,2022-08-31 15:17:22.559254+00:00
2022-08-31 09:17:22.759467-06:00,54.067399,3.72,0.78,-3.62,0.23,19.17,866.46,91.75,28.0,-1.0,,,,,,,,,,,,,,,,,,,,,,,2022-08-31 15:17:22.759467+00:00
2022-08-31 09:17:22.959937-06:00,54.267869,3.72,0.99,-3.57,0.37,19.12,866.44,92.14,27.0,-1.0,,,,,,,,,,,,,,,,,,,,,,,2022-08-31 15:17:22.959937+00:00
2022-08-31 09:17:23.166957-06:00,54.474889,3.67,0.84,-3.57,0.18,19.83,866.45,88.28,23.0,-1.0,,,,,,,,,,1.82456,6.38891,23623.9,35.8368,11568.0,0.0485484,-1.0,11.0,-1283.0,76.0,,0.0,2022-08-31 08:17:21.494,2022-08-31 15:17:23.166957+00:00
2022-08-31 09:17:23.359651-06:00,54.667583,3.34,0.69,-3.25,0.32,19.61,866.46,89.39,21.0,-1.0,,,,,,,,,,,,,,,,,,,,,,,2022-08-31 15:17:23.359651+00:00
2022-08-31 09:17:23.559131-06:00,54.867063,3.38,0.5,-3.33,0.28,19.55,866.45,89.73,21.0,-1.0,,,,,,,,,,,,,,,,,,,,,,,2022-08-31 15:17:23.559131+00:00
2022-08-31 09:17:23.759618-06:00,55.06755,3.32,1.02,-3.1,0.64,19.18,866.45,91.8,22.0,-1.0,,,,,,,,,,,,,,,,,,,,,,,2022-08-31 15:17:23.759618+00:00
2022-08-31 09:17:23.959591-06:00,55.267523,3.5,0.84,-3.37,0.41,19.12,866.46,92.37,24.0,-1.0,,,,,,,,,,,,,,,,,,,,,,,2022-08-31 15:17:23.959591+00:00
2022-08-31 09:17:24.167078-06:00,55.47501,3.22,0.77,-3.08,0.54,19.39,866.45,90.84,27.0,-1.0,,,,,,,,,,1.82792,6.4058,23526.3,35.8388,11555.0,0.0676716,-1.0,16.0,-1318.0,76.0,,0.0,2022-08-31 08:17:22.518,2022-08-31 15:17:24.167078+00:00
2022-08-31 09:17:24.359887-06:00,55.667819,3.24,0.91,-3.07,0.5,19.49,866.45,90.17,28.0,-1.0,,,,,,,,,,,,,,,,,,,,,,,2022-08-31 15:17:24.359887+00:00
2022-08-31 09:17:24.560039-06:00,55.867971,2.97,0.89,-2.75,0.66,19.35,866.45,91.05,25.0,-1.0,,,,,,,,,,,,,,,,,,,,,,,2022-08-31 15:17:24.560039+00:00
2022-08-31 09:17:24.759220-06:00,56.067152,2.93,1.08,-2.67,0.56,19.91,866.43,88.03,22.0,-1.0,,,,,,,,,,,,,,,,,,,,,,,2022-08-31 15:17:24.759220+00:00
2022-08-31 09:17:24.959481-06:00,56.267413,3.57,0.98,-3.42,0.31,19.75,866.44,88.61,21.0,-1.0,,,,,,,,,,,,,,,,,,,,,,,2022-08-31 15:17:24.959481+00:00
2022-08-31 09:17:25.165925-06:00,56.473857,3.87,0.8,-3.79,0.11,19.61,866.45,89.48,21.0,-1.0,,,,,,,,,,1.8308,6.10189,23415.5,35.84,11568.0,-0.018277,-1.0,13.0,-1320.0,76.0,,0.0,2022-08-31 08:17:23.542,2022-08-31 15:17:25.165925+00:00
2022-08-31 09:17:25.359602-06:00,56.667534,3.15,0.97,-2.99,0.23,19.56,866.44,89.95,22.0,-1.0,,,,,,,,,,,,,,,,,,,,,,,2022-08-31 15:17:25.359602+00:00
2022-08-31 09:17:25.559726-06:00,56.867658,3.01,1.37,-2.67,0.25,19.55,866.43,90.01,25.0,-1.0,,,,,,,,,,,,,,,,,,,,,,,2022-08-31 15:17:25.559726+00:00
2022-08-31 09:17:25.759445-06:00,57.067377,2.95,1.15,-2.69,0.4,19.38,866.43,91.06,27.0,-1.0,,,,,,,,,,,,,,,,,,,,,,,2022-08-31 15:17:25.759445+00:00
2022-08-31 09:17:25.959832-06:00,57.267764,2.94,0.85,-2.74,0.62,19.87,866.43,88.32,26.0,-1.0,,,,,,,,,,,,,,,,,,,,,,,2022-08-31 15:17:25.959832+00:00
2022-08-31 09:17:26.167173-06:00,57.475105,2.49,1.07,-2.1,0.8,19.88,866.44,88.37,22.0,-1.0,,,,,,,,,,1.83158,6.90875,23431.8,35.8409,11525.0,0.077899,-1.0,13.0,-1314.0,76.0,,0.0,2022-08-31 08:17:24.566,2022-08-31 15:17:26.167173+00:00
2022-08-31 09:17:26.359644-06:00,57.667576,2.64,0.84,-2.43,0.6,19.99,866.44,87.6,20.0,-1.0,,,,,,,,,,,,,,,,,,,,,,,2022-08-31 15:17:26.359644+00:00
2022-08-31 09:17:26.559417-06:00,57.867349,3.07,0.08,-3.05,0.34,20.0,866.45,87.62,20.0,-1.0,,,,,,,,,,,,,,,,,,,,,,,2022-08-31 15:17:26.559417+00:00
2022-08-31 09:17:26.759418-06:00,58.06735,3.01,0.34,-2.97,0.3,20.13,866.44,86.82,21.0,-1.0,,,,,,,,,,,,,,,,,,,,,,,2022-08-31 15:17:26.759418+00:00
2022-08-31 09:17:26.959592-06:00,58.267524,3.23,-0.03,-3.23,-0.02,19.93,866.45,88.01,24.0,-1.0,,,,,,,,,,,,,,,,,,,,,,,2022-08-31 15:17:26.959592+00:00
2022-08-31 09:17:27.166065-06:00,58.473997,2.71,0.57,-2.62,0.4,19.65,866.45,89.53,26.0,-1.0,,,,,,,,,,1.82641,6.23344,23505.7,35.8429,11525.0,0.0717067,-1.0,13.0,-1314.0,76.0,,0.0,2022-08-31 08:17:25.590,2022-08-31 15:17:27.166065+00:00
2022-08-31 09:17:27.359658-06:00,58.66759,2.58,0.58,-2.46,0.53,19.74,866.46,89.23,27.0,-1.0,,,,,,,,,,,,,,,,,,,,,,,2022-08-31 15:17:27.359658+00:00
2022-08-31 09:17:27.559181-06:00,58.867113,2.62,-0.03,-2.6,0.3,19.92,866.45,88.05,24.0,-1.0,,,,,,,,,,,,,,,,,,,,,,,2022-08-31 15:17:27.559181+00:00
2022-08-31 09:17:27.759865-06:00,59.067797,2.91,-0.12,-2.91,-0.11,19.89,866.44,87.57,21.0,-1.0,,,,,,,,,,,,,,,,,,,,,,,2022-08-31 15:17:27.759865+00:00
2022-08-31 09:17:27.959532-06:00,59.267464,3.1,0.15,-3.1,0.08,19.44,866.46,89.78,20.0,-1.0,,,,,,,,,,,,,,,,,,,,,,,2022-08-31 15:17:27.959532+00:00
2022-08-31 09:17:28.166155-06:00,59.474087,3.04,-0.19,-3.03,-0.08,18.97,866.46,92.74,21.0,-1.0,,,,,,,,,,1.8274,6.47446,23641.6,35.8439,11530.0,0.14438,-1.0,16.0,-1324.0,76.0,,0.0,2022-08-31 08:17:26.614,2022-08-31 15:17:28.166155+00:00
2022-08-31 09:17:28.359998-06:00,59.66793,3.06,-0.21,-3.05,0.09,19.86,866.47,87.76,23.0,-1.0,,,,,,,,,,,,,,,,,,,,,,,2022-08-31 15:17:28.359998+00:00
2022-08-31 09:17:28.560102-06:00,59.868034,3.11,0.02,-3.08,0.37,19.67,866.46,88.9,26.0,-1.0,,,,,,,,,,,,,,,,,,,,,,,2022-08-31 15:17:28.560102+00:00
2022-08-31 09:17:28.759702-06:00,60.067634,2.99,0.42,-2.93,0.43,19.43,866.47,90.05,27.0,-1.0,,,,,,,,,,,,,,,,,,,,,,,2022-08-31 15:17:28.759702+00:00
2022-08-31 09:17:28.960031-06:00,60.267963,3.64,0.66,-3.57,0.14,19.08,866.46,92.11,26.0,-1.0,,,,,,,,,,,,,,,,,,,,,,,2022-08-31 15:17:28.960031+00:00
2022-08-31 09:17:29.165971-06:00,60.473903,3.7,0.44,-3.67,0.09,19.04,866.47,92.34,23.0,-1.0,,,,,,,,,,1.82703,6.83781,23728.9,35.8453,11550.0,0.127135,-1.0,17.0,-1308.0,76.0,,0.0,2022-08-31 08:17:27.638,2022-08-31 15:17:29.165971+00:00
2022-08-31 09:17:29.359586-06:00,60.667518,3.73,0.59,-3.68,0.12,19.06,866.46,92.31,21.0,-1.0,,,,,,,,,,,,,,,,,,,,,,,2022-08-31 15:17:29.359586+00:00
2022-08-31 09:17:29.559598-06:00,60.86753,3.32,0.5,-3.28,0.2,19.23,866.46,91.34,20.0,-1.0,,,,,,,,,,,,,,,,,,,,,,,2022-08-31 15:17:29.559598+00:00
2022-08-31 09:17:29.759859-06:00,61.067791,3.44,0.23,-3.43,0.27,19.32,866.46,90.66,22.0,-1.0,,,,,,,,,,,,,,,,,,,,,,,2022-08-31 15:17:29.759859+00:00
2022-08-31 09:17:29.960083-06:00,61.268015,3.18,0.56,-3.11,0.36,19.47,866.46,90.1,25.0,-1.0,,,,,,,,,,,,,,,,,,,,,,,2022-08-31 15:17:29.960083+00:00
2022-08-31 09:17:30.166971-06:00,61.474903,3.35,1.0,-3.19,0.29,19.21,866.46,91.53,27.0,-1.0,,,,,,,,,,1.82574,7.52246,23561.0,35.8467,11565.0,0.135192,-1.0,12.0,-1274.0,76.0,,0.0,2022-08-31 08:17:28.662,2022-08-31 15:17:30.166971+00:00
2022-08-31 09:17:30.359768-06:00,61.6677,3.08,0.8,-2.95,0.34,19.41,866.48,90.33,26.0,-1.0,,,,,,,,,,,,,,,,,,,,,,,2022-08-31 15:17:30.359768+00:00
2022-08-31 09:17:30.559730-06:00,61.867662,3.62,0.76,-3.53,0.21,19.22,866.45,91.41,24.0,-1.0,,,,,,,,,,,,,,,,,,,,,,,2022-08-31 15:17:30.559730+00:00
2022-08-31 09:17:30.760062-06:00,62.067994,3.82,0.64,-3.76,0.07,19.34,866.46,90.65,21.0,-1.0,,,,,,,,,,,,,,,,,,,,,,,2022-08-31 15:17:30.760062+00:00
2022-08-31 09:17:30.959873-06:00,62.267805,3.06,1.01,-2.88,0.22,19.65,866.45,89.08,20.0,-1.0,,,,,,,,,,,,,,,,,,,,,,,2022-08-31 15:17:30.959873+00:00
2022-08-31 09:17:31.166978-06:00,62.47491,3.51,0.52,-3.47,0.21,19.13,866.47,92.03,21.0,-1.0,,,,,,,,,,1.82961,7.09777,23415.9,35.848,11517.0,0.192475,-1.0,14.0,-1265.0,76.0,,0.0,2022-08-31 08:17:29.686,2022-08-31 15:17:31.166978+00:00
2022-08-31 09:17:31.359957-06:00,62.667889,3.02,0.7,-2.93,0.18,19.25,866.45,91.33,23.0,-1.0,,,,,,,,,,,,,,,,,,,,,,,2022-08-31 15:17:31.359957+00:00
2022-08-31 09:17:31.559290-06:00,62.867222,2.73,1.08,-2.49,0.3,19.39,866.45,90.44,26.0,-1.0,,,,,,,,,,,,,,,,,,,,,,,2022-08-31 15:17:31.559290+00:00
2022-08-31 09:17:31.759161-06:00,63.067093,2.72,1.42,-2.28,0.41,19.8,866.44,88.34,27.0,-1.0,,,,,,,,,,,,,,,,,,,,,,,2022-08-31 15:17:31.759161+00:00
2022-08-31 09:17:31.959503-06:00,63.267435,2.52,1.21,-2.08,0.76,19.81,866.44,88.1,27.0,-1.0,,,,,,,,,,,,,,,,,,,,,,,2022-08-31 15:17:31.959503+00:00
2022-08-31 09:17:32.166728-06:00,63.47466,2.75,1.63,-2.1,0.67,19.87,866.45,87.92,23.0,-1.0,,,,,,,,,,1.83222,7.45021,23361.1,35.8495,11561.0,0.257035,-1.0,14.0,-1301.0,76.0,,0.0,2022-08-31 08:17:30.710,2022-08-31 15:17:32.166728+00:00
2022-08-31 09:17:32.359036-06:00,63.666968,2.71,1.56,-2.14,0.53,19.76,866.43,88.47,21.0,-1.0,,,,,,,,,,,,,,,,,,,,,,,2022-08-31 15:17:32.359036+00:00
2022-08-31 09:17:32.559693-06:00,63.867625,2.76,1.43,-2.27,0.64,19.81,866.44,88.35,20.0,-1.0,,,,,,,,,,,,,,,,,,,,,,,2022-08-31 15:17:32.559693+00:00
2022-08-31 09:17:32.759260-06:00,64.067192,2.46,1.43,-1.95,0.43,19.83,866.44,88.27,21.0,-1.0,,,,,,,,,,,,,,,,,,,,,,,2022-08-31 15:17:32.759260+00:00
2022-08-31 09:17:32.959370-06:00,64.267302,1.97,1.05,-1.63,0.29,20.13,866.43,86.63,24.0,-1.0,,,,,,,,,,,,,,,,,,,,,,,2022-08-31 15:17:32.959370+00:00
2022-08-31 09:17:33.166064-06:00,64.473996,1.79,1.05,-1.43,0.22,20.1,866.45,86.77,26.0,-1.0,,,,,,,,,,1.83079,6.47846,23465.8,35.8509,11563.0,0.222351,-1.0,11.0,-1298.0,76.0,,0.0,2022-08-31 08:17:31.734,2022-08-31 15:17:33.166064+00:00
2022-08-31 09:17:33.360002-06:00,64.667934,1.72,0.75,-1.32,0.8,20.45,866.45,84.94,26.0,-1.0,,,,,,,,,,,,,,,,,,,,,,,2022-08-31 15:17:33.360002+00:00
2022-08-31 09:17:33.559572-06:00,64.867504,2.11,0.95,-1.79,0.6,20.39,866.45,85.16,23.0,-1.0,,,,,,,,,,,,,,,,,,,,,,,2022-08-31 15:17:33.559572+00:00
2022-08-31 09:17:33.759993-06:00,65.067925,2.66,0.99,-2.36,0.7,20.15,866.44,86.5,21.0,-1.0,,,,,,,,,,,,,,,,,,,,,,,2022-08-31 15:17:33.759993+00:00
2022-08-31 09:17:33.959200-06:00,65.267132,2.49,0.66,-2.36,0.45,19.64,866.45,89.27,20.0,-1.0,,,,,,,,,,,,,,,,,,,,,,,2022-08-31 15:17:33.959200+00:00
2022-08-31 09:17:34.166779-06:00,65.474711,2.95,1.22,-2.63,0.53,19.4,866.45,90.57,21.0,-1.0,,,,,,,,,,1.8314,7.26108,23652.0,35.8524,11509.0,0.248347,-1.0,12.0,-1297.0,76.0,,0.0,2022-08-31 08:17:32.758,2022-08-31 15:17:34.166779+00:00
2022-08-31 09:17:34.359427-06:00,65.667359,2.53,0.81,-2.34,0.52,19.64,866.44,89.22,23.0,-1.0,,,,,,,,,,,,,,,,,,,,,,,2022-08-31 15:17:34.359427+00:00
2022-08-31 09:17:34.560068-06:00,65.868,1.82,0.66,-1.51,0.77,19.83,866.44,88.22,26.0,-1.0,,,,,,,,,,,,,,,,,,,,,,,2022-08-31 15:17:34.560068+00:00
2022-08-31 09:17:34.759725-06:00,66.067657,2.25,0.45,-2.17,0.35,19.24,866.44,91.53,27.0,-1.0,,,,,,,,,,,,,,,,,,,,,,,2022-08-31 15:17:34.759725+00:00
2022-08-31 09:17:34.959260-06:00,66.267192,1.72,0.68,-1.48,0.57,19.64,866.44,89.42,25.0,-1.0,,,,,,,,,,,,,,,,,,,,,,,2022-08-31 15:17:34.959260+00:00
2022-08-31 09:17:35.166383-06:00,66.474315,1.41,0.72,-1.12,0.45,20.08,866.44,86.87,23.0,-1.0,,,,,,,,,,1.82495,7.27639,23727.4,35.8536,11537.0,0.294055,-1.0,15.0,-1310.0,76.0,,0.0,2022-08-31 08:17:33.782,2022-08-31 15:17:35.166383+00:00
2022-08-31 09:17:35.359854-06:00,66.667786,2.49,1.27,-2.06,0.6,19.94,866.45,87.8,21.0,-1.0,,,,,,,,,,,,,,,,,,,,,,,2022-08-31 15:17:35.359854+00:00
2022-08-31 09:17:35.559581-06:00,66.867513,2.32,0.93,-1.96,0.83,20.2,866.43,86.4,21.0,-1.0,,,,,,,,,,,,,,,,,,,,,,,2022-08-31 15:17:35.559581+00:00
2022-08-31 09:17:35.759242-06:00,67.067174,2.26,0.89,-1.92,0.8,20.09,866.45,87.04,22.0,-1.0,,,,,,,,,,,,,,,,,,,,,,,2022-08-31 15:17:35.759242+00:00
2022-08-31 09:17:35.959159-06:00,67.267091,2.67,1.15,-2.26,0.84,19.99,866.44,87.45,26.0,-1.0,,,,,,,,,,,,,,,,,,,,,,,2022-08-31 15:17:35.959159+00:00
2022-08-31 09:17:36.166356-06:00,67.474288,2.35,1.05,-1.94,0.82,19.95,866.44,87.83,27.0,-1.0,,,,,,,,,,1.82156,7.30125,23729.8,35.8548,11572.0,0.299342,-1.0,14.0,-1304.0,76.0,,0.0,2022-08-31 08:17:34.806,2022-08-31 15:17:36.166356+00:00
2022-08-31 09:17:36.359872-06:00,67.667804,2.62,-0.0,-2.61,0.27,20.14,866.45,86.72,26.0,-1.0,,,,,,,,,,,,,,,,,,,,,,,2022-08-31 15:17:36.359872+00:00
2022-08-31 09:17:36.559743-06:00,67.867675,2.8,0.8,-2.63,0.53,19.76,866.46,88.83,23.0,-1.0,,,,,,,,,,,,,,,,,,,,,,,2022-08-31 15:17:36.559743+00:00
2022-08-31 09:17:36.759732-06:00,68.067664,3.41,1.26,-3.14,0.43,19.59,866.43,89.68,21.0,-1.0,,,,,,,,,,,,,,,,,,,,,,,2022-08-31 15:17:36.759732+00:00
2022-08-31 09:17:36.959978-06:00,68.26791,2.84,0.75,-2.68,0.54,19.88,866.44,88.06,21.0,-1.0,,,,,,,,,,,,,,,,,,,,,,,2022-08-31 15:17:36.959978+00:00
2022-08-31 09:17:37.166037-06:00,68.473969,3.21,0.81,-3.07,0.47,19.64,866.46,89.38,22.0,-1.0,,,,,,,,,,1.8195,7.33106,23787.3,35.8561,11572.0,0.184946,-1.0,14.0,-1304.0,76.0,,0.0,2022-08-31 08:17:35.830,2022-08-31 15:17:37.166037+00:00
2022-08-31 09:17:37.359222-06:00,68.667154,3.08,0.64,-2.97,0.51,19.63,866.46,89.34,23.0,-1.0,,,,,,,,,,,,,,,,,,,,,,,2022-08-31 15:17:37.359222+00:00
2022-08-31 09:17:37.559197-06:00,68.867129,3.01,0.94,-2.77,0.72,19.68,866.44,89.35,26.0,-1.0,,,,,,,,,,,,,,,,,,,,,,,2022-08-31 15:17:37.559197+00:00
2022-08-31 09:17:37.759807-06:00,69.067739,3.32,1.06,-3.08,0.68,19.32,866.45,91.33,27.0,-1.0,,,,,,,,,,,,,,,,,,,,,,,2022-08-31 15:17:37.759807+00:00
2022-08-31 09:17:37.959845-06:00,69.267777,3.3,0.95,-3.13,0.46,19.42,866.46,90.71,25.0,-1.0,,,,,,,,,,,,,,,,,,,,,,,2022-08-31 15:17:37.959845+00:00
2022-08-31 09:17:38.166136-06:00,69.474068,3.65,1.04,-3.48,0.4,19.06,866.45,92.79,22.0,-1.0,,,,,,,,,,1.82251,6.51377,23712.7,35.8578,11532.0,0.161597,-1.0,12.0,-1298.0,76.0,,0.0,2022-08-31 08:17:36.854,2022-08-31 15:17:38.166136+00:00
2022-08-31 09:17:38.359405-06:00,69.667337,3.61,1.09,-3.42,0.4,19.08,866.45,92.67,20.0,-1.0,,,,,,,,,,,,,,,,,,,,,,,2022-08-31 15:17:38.359405+00:00
2022-08-31 09:17:38.559578-06:00,69.86751,3.72,1.2,-3.51,0.29,19.08,866.45,91.79,20.0,-1.0,,,,,,,,,,,,,,,,,,,,,,,2022-08-31 15:17:38.559578+00:00
2022-08-31 09:17:38.759148-06:00,70.06708,3.75,1.02,-3.6,0.2,19.03,866.46,93.12,22.0,-1.0,,,,,,,,,,,,,,,,,,,,,,,2022-08-31 15:17:38.759148+00:00
2022-08-31 09:17:38.959472-06:00,70.267404,3.49,0.81,-3.4,0.15,19.24,866.45,90.93,25.0,-1.0,,,,,,,,,,,,,,,,,,,,,,,2022-08-31 15:17:38.959472+00:00
2022-08-31 09:17:39.166096-06:00,70.474028,3.59,1.04,-3.43,0.23,19.21,866.46,91.14,27.0,-1.0,,,,,,,,,,1.82904,6.45505,23465.0,35.8591,11507.0,0.107943,-1.0,13.0,-1313.0,76.0,,0.0,2022-08-31 08:17:37.878,2022-08-31 15:17:39.166096+00:00
2022-08-31 09:17:39.359228-06:00,70.66716,3.7,0.97,-3.57,0.15,19.03,866.44,92.36,25.0,-1.0,,,,,,,,,,,,,,,,,,,,,,,2022-08-31 15:17:39.359228+00:00
2022-08-31 09:17:39.559399-06:00,70.867331,3.24,1.12,-3.02,0.32,19.21,866.45,91.99,23.0,-1.0,,,,,,,,,,,,,,,,,,,,,,,2022-08-31 15:17:39.559399+00:00
2022-08-31 09:17:39.760000-06:00,71.067932,3.49,1.29,-3.22,0.4,19.35,866.44,90.51,21.0,-1.0,,,,,,,,,,,,,,,,,,,,,,,2022-08-31 15:17:39.760000+00:00
2022-08-31 09:17:39.960043-06:00,71.267975,3.04,1.06,-2.8,0.55,19.67,866.43,88.69,20.0,-1.0,,,,,,,,,,,,,,,,,,,,,,,2022-08-31 15:17:39.960043+00:00
2022-08-31 09:17:40.166669-06:00,71.474601,3.17,1.24,-2.88,0.43,19.71,866.43,88.51,21.0,-1.0,,,,,,,,,,1.83084,7.93801,23333.8,35.8608,11567.0,0.186147,-1.0,15.0,-1297.0,76.0,,0.0,2022-08-31 08:17:38.902,2022-08-31 15:17:40.166669+00:00
2022-08-31 09:17:40.359371-06:00,71.667303,3.08,1.13,-2.8,0.58,19.71,866.44,88.56,24.0,-1.0,,,,,,,,,,,,,,,,,,,,,,,2022-08-31 15:17:40.359371+00:00
2022-08-31 09:17:40.559992-06:00,71.867924,3.05,0.83,-2.88,0.57,19.74,866.44,88.38,26.0,-1.0,,,,,,,,,,,,,,,,,,,,,,,2022-08-31 15:17:40.559992+00:00
2022-08-31 09:17:40.759503-06:00,72.067435,2.66,0.97,-2.37,0.73,20.18,866.44,85.92,27.0,-1.0,,,,,,,,,,,,,,,,,,,,,,,2022-08-31 15:17:40.759503+00:00
