Timestamp,Seconds,S,Um,Vm,Wm,T,P,H,MD,Sts,Vx,Vy,Vz,Lat,Lon,Alt,Yaw,Roll,Pitch,CH4,C2H6,H2O,T_a,Batt,R,C2C1,Power,Current,SOC,Lat_a,Lon_a,TS,Timestamp_UTC,Rho,Rho_err,Sc,V,U,W,WD,V_err,U_err,Sc_avg,WD_avg,V_avg,U_avg,W_avg,U_err_avg,V_err_avg,Nx,Ny,cross_wind,cross_wind_err,CH4_sub,CH4_res,CH4_adj,CH4_adj_err,BG_Samples_CH4,C2H6_sub,C2H6_res,C2H6_adj,C2H6_adj_err,BG_Samples_C2H6,x_dist,y_dist,s_dist,z_dist,velocity_s,velocity_z,x_src_dist,y_src_dist,s_src_dist,collecting,group,transect_num
2023-04-19 07:10:06.062895-07:00,0.393194,3.47,1.48,3.1,-0.45,16.74,887.16,52.38,18.0,0.0,-0.000172314,-0.000358939,0.00120992,32.6911158,-103.075253,1156.2120599999998,-25.5272825,0.530636213,1.04603755,2.17984,57.6695,15647.8,23.3845,11888.0,-0.296743,-1.0,13.0,-1200.0,81.0,,0.0,,2023-04-19 14:10:06.062895+00:00,1.0661138064487086,0.014089443047273808,3.4348121143065944,3.4348120676371696,-0.0005662167505583948,-0.44879008000000004,179.9905549913172,0.28097949274015044,0.20221573183698713,3.216160746066773,192.35976647014786,3.1045385968840784,0.657878847338015,-0.31211456000000004,0.18854194328968557,0.2779101999142919,0.9015002463310241,-0.43277858757695353,-0.7504998861064378,0.16182824311680233,,,,,,,,,,,1.9372990297247317,-0.374809261806336,1.973223128109996,0.03026999999997315,1.973223128109996,0.03026999999997315,-11.156168471151545,-23.050741004357032,25.60852896608203,False,,
2023-04-19 07:10:07.063132-07:00,1.393431,2.57,0.86,2.4,-0.32,16.97,887.16,51.2,18.0,0.0,6.89828e-05,-0.00108666,0.000204555,32.6911157,-103.075253,1156.19155,-25.4485843,0.536543226,1.03887533,2.17982,56.5598,15659.3,23.3933,11826.0,-0.302561,-1.0,14.0,-1175.0,81.0,,0.0,,2023-04-19 14:10:07.063132+00:00,1.0652686176458575,0.014075232487372621,2.5483431947140684,2.5355871722677947,-0.2546580646209984,-0.319795445,174.26481230605742,0.27706676116100065,0.16597040619985418,2.606907865503815,187.2226545232117,2.4111384889206464,0.4779575672036621,-0.16324964798000002,0.1618861964851808,0.2752288156806191,0.9979911196309355,0.06335396702489796,0.6297525959492017,0.16124021408223393,,,,,,,,,,,1.9261651212982998,-0.37480926102110723,1.9622930608482725,0.0097600000001421,-0.010930067261723408,-0.020509999999831052,-11.167302379577977,-23.0507410035718,25.613381331848288,False,,
2023-04-19 07:10:08.063401-07:00,2.3937,3.12,1.27,2.82,-0.41,16.8,887.17,51.81,23.0,0.0,7.93245e-05,-0.000680574,0.00323999,32.6911155,-103.075253,1156.20437,-25.3803301,0.537200056,1.03711755,2.18068,56.6228,15645.4,23.4009,11895.0,-0.223925,-1.0,14.0,-1181.0,81.0,,0.0,,2023-04-19 14:10:08.063401+00:00,1.0659052078085818,0.014085776394006102,3.092099907405176,3.0914937979789734,-0.06122037595965316,-0.40676000999999995,178.86552877484507,0.27921922160257395,0.18821116307271987,2.8542246112812317,179.4696394020669,2.830839531453772,-0.07910309698136835,-0.165492758,0.17825733172404035,0.27828581851681106,0.9932758663378122,0.11577155674373851,0.24915950226394595,0.1759076871171387,,,,,,,,,,,1.903897320728834,-0.3748092626139856,1.940439896317243,0.022580000000061773,-0.02185316453102959,0.012819999999919673,-11.189570180147443,-23.05074100516468,25.623097816298976,False,,
2023-04-19 07:10:09.063828-07:00,3.394127,3.42,1.93,2.82,-0.22,16.6,887.13,52.48,23.0,0.0,-0.000224074,-8.56494e-05,0.00256411,32.6911153,-103.075253,1156.22256,-25.311894,0.538982574,1.03195522,2.17741,57.2258,15656.8,23.4099,11864.0,-0.265911,-1.0,11.0,-1194.0,81.0,,0.0,,2023-04-19 14:10:09.063828+00:00,1.0665928572678849,0.014097977212173856,3.417086545209514,3.3743397865648164,0.538805588554537,-0.21743589,189.07225020090652,0.2791646956895138,0.20011743105581767,3.3852538997198875,182.1982397170234,3.351479998881147,0.1221523034589,-0.346696354,0.19928346181879603,0.28019076703031776,0.35704307469496677,-0.9340879202796514,-3.0869633480057006,0.2457885465505504,,,,,,,,,,,1.8816295209455665,-0.374809264522375,1.9185962678129147,0.04077000000006592,-0.021843628504328194,0.018190000000004147,-11.211837979930712,-23.05074100707307,25.632829962050167,False,,
2023-04-19 07:10:10.063687-07:00,4.393986,2.0,-0.17,1.99,-0.03,17.28,887.2,50.2,18.0,0.0,-0.000351638,-0.000272468,-0.00180468,32.6911152,-103.075253,1156.1969199999999,-25.246482,0.536311878,1.05642993,2.17783,57.4003,15620.1,23.4181,11834.0,-0.353157,-1.0,14.0,-1170.0,81.0,,0.0,,2023-04-19 14:10:10.063687+00:00,1.0641795474370583,0.014056297367948459,1.9971890046006202,1.7271381445305578,-1.0028747428294114,-0.03180468,149.8581099189301,0.27499746498626804,0.13819554952636384,2.5756279876444608,166.09200730425727,2.4717779699331004,-0.5866559999537383,-0.2128475388,0.16542739973991277,0.2776216106948586,0.6124994048738366,-0.7904710488241781,-2.313195375190846,0.18423768247648,,,,,,,,,,,1.8704956104673578,-0.3748092634357363,1.9076781208408542,0.0151299999999992,-0.010918146972060505,-0.02564000000006672,-11.22297189040892,-23.05074100598643,25.637701905162505,False,,
2023-04-19 07:10:11.064365-07:00,5.394664,3.87,0.93,3.74,-0.36,16.51,887.11,52.73,19.0,0.0,-0.000511445,-0.000455801,0.00238436,32.691115,-103.075253,1156.1299099999999,-25.1754121,0.533390589,1.04508564,2.17933,56.9402,15595.3,23.4266,11896.0,-0.396804,-1.0,13.0,-1180.0,81.0,,0.0,,2023-04-19 14:10:11.064365+00:00,1.0669002039909041,0.014103465899041111,3.853546515819452,3.7798940202824927,-0.7498146070975774,-0.35761564,168.77993903667868,0.2852064134922742,0.2177819484878899,3.7216718895156773,164.43780960631847,3.579637568785279,-0.9735956017647533,-0.17717614908,0.20947446801436942,0.28469779406991363,0.6653281000257388,-0.746551082857791,-3.3201428151306396,0.1837805716298875,,,,,,,,,,,1.8482277866385521,-0.3748092603382522,1.8858493929627969,-0.05187999999998283,-0.02182872787805734,-0.06700999999998203,-11.245239714237727,-23.050741002888948,25.647457515569357,False,,
2023-04-19 07:10:12.064520-07:00,6.394819,2.84,1.9,2.11,-0.19,16.59,887.15,52.51,26.0,0.0,0.000722681,-0.00144156,0.00880438,32.6911147,-103.075254,1156.1635999999999,-25.1055365,0.540299627,1.06105177,2.17918,56.6523,15582.4,23.4346,11850.0,-0.426943,-1.0,12.0,-1190.0,81.0,,0.0,,2023-04-19 14:10:12.064520+00:00,1.0666537160859184,0.014098683168310379,2.838214669507206,2.715367266564635,0.8259800953262751,-0.18119562,196.9190921941152,0.27534337517766044,0.17382846952824083,2.859100875807986,175.5825316650522,2.744904881827254,-0.19307922101138403,-0.24827875800000002,0.17553808226942477,0.27782701507063734,0.8939551466561964,0.448156441175287,1.0575426398688779,0.1509726829961817,,,,,,,,,,,1.8148260892440646,-0.4685115785773717,1.8743257010087566,-0.018190000000004147,-0.011523691954040238,0.03368999999997868,-11.278641411632213,-23.144443321128065,25.746320295084782,False,,
2023-04-19 07:10:13.064534-07:00,7.394833,2.07,0.27,2.05,-0.09,16.8,887.17,51.8,20.0,0.0,0.000147017,-0.0010913,0.00680832,32.6911144,-103.075254,1156.1982699999999,-25.0429574,0.539865866,1.05291136,2.18132,57.7858,15553.8,23.4425,11854.0,-0.406822,-1.0,14.0,-1162.0,81.0,,0.0,,2023-04-19 14:10:13.064534+00:00,1.0659052078085818,0.014085776394006102,2.0666191802084213,1.970479948242236,-0.6229956738056865,-0.08319167999999999,162.4548983244344,0.27500577385972597,0.1467563811364992,2.7286935317585352,172.85589864967886,2.603270872783468,-0.3557715378276357,-0.128246488,0.1701445925443111,0.27749600159354093,0.9910473008433586,0.13351122608639876,-0.005020536220638971,0.16718491321494103,,,,,,,,,,,1.7814243910622043,-0.4685115826979783,1.8420032476066674,0.016480000000001382,-0.03232245340208917,0.03467000000000553,-11.312043109814073,-23.144443325248673,25.76097001578046,False,,
2023-04-19 07:10:14.064431-07:00,8.39473,1.1,-0.65,0.85,0.25,17.65,887.18,49.11,18.0,0.0,-0.00035538,-0.000356823,0.00537024,32.6911141,-103.075254,1156.1957,-24.9829002,0.53922805,1.06924291,2.1766,57.1233,15539.1,23.4513,11896.0,-0.42452,-1.0,11.0,-1198.0,81.0,,0.0,,2023-04-19 14:10:14.064431+00:00,1.062801577224142,0.014033474217199842,1.070196361784354,0.4955859294661041,-0.9485329932541543,0.25537024,117.58599720822909,0.27120048058677354,0.11175183601023363,1.9802201943160433,169.6498440378604,1.7953852496079823,-0.3364123446861115,0.051738624,0.14786704346843932,0.27491674872919125,0.7085380013856266,-0.7056726582435101,-1.5053152120074027,0.15573226802215917,,,,,,,,,,,1.7480226837293784,-0.46851158408356824,1.8097199803430786,0.013910000000123546,-0.03228326726358888,-0.0025699999998778367,-11.3454448171469,-23.144443326634264,25.775654695830923,False,,
2023-04-19 07:10:15.064577-07:00,9.394876,2.68,1.64,2.12,0.01,17.01,887.19,51.11,22.0,0.0,0.000115818,-0.000647739,0.000811897,32.6911139,-103.075254,1156.17385,-24.916119,0.536114666,1.05572236,2.17663,57.6455,15548.7,23.4594,11836.0,-0.466317,-1.0,11.0,-1193.0,81.0,,0.0,,2023-04-19 14:10:15.064577+00:00,1.0651577829799512,0.01407289357386431,2.6796925598911034,2.6129515806161274,0.59433681771485,0.010811897000000001,192.8143612312586,0.27516589866837604,0.17032583565292791,2.763920706317279,190.15402031129872,2.682787504991332,0.3502091211415011,-0.0694221806,0.1754400803299485,0.27688834959704417,0.9843880169856062,0.17601202235968394,0.8169445166055692,0.1702211833086972,,,,,,,,,,,1.725754872700047,-0.46851158352839817,1.7882206196519048,-0.00793999999996231,-0.021499360691173752,-0.021850000000085856,-11.36771262817623,-23.14444332607909,25.785463875425712,False,,
2023-04-19 07:10:16.064084-07:00,10.394383,3.8,0.88,3.69,-0.22,16.1,887.1,54.16,26.0,0.0,-0.000275299,-0.00302466,0.0165682,32.6911136,-103.075255,1156.2257299999999,-24.8464084,0.538222308,1.04874425,2.17618,58.7622,15573.4,23.4675,11866.0,-0.498473,-1.0,16.0,-1180.0,81.0,,0.0,,2023-04-19 14:10:16.064084+00:00,1.0684004474859916,0.014128877986525245,3.7905712773791262,3.715184227409806,-0.7522212209829124,-0.2034318,168.5539383124856,0.28475441923853884,0.21577581864525672,4.2114543222352285,173.956267740771,4.153083442452392,-0.4422223238015084,-0.258414798,0.2349895381835041,0.28699590826141164,0.9958834066636957,-0.09064347925754036,-0.8168518072009497,0.23307073630550185,,,,,,,,,,,1.6923531792543147,-0.5622139071723906,1.7832957580699373,0.04394000000002052,-0.004924861581967477,0.05187999999998283,-11.401114321621963,-23.238145649723087,25.884296803514623,False,,
2023-04-19 07:10:17.063777-07:00,11.394076,3.38,1.11,3.18,0.23,16.28,887.1,53.62,18.0,0.0,0.000609102,-0.00364537,0.025151,32.6911133,-103.075255,1156.3191199999999,-24.7845384,0.540557996,1.05804811,2.17419,58.3176,15557.3,23.4761,11896.0,-0.526725,-1.0,13.0,-1206.0,81.0,,0.0,,2023-04-19 14:10:17.063777+00:00,1.0677359963905717,0.014117690939673022,3.3644725869913357,3.348766734802175,-0.32471086292046103,0.255151,174.4616681219078,0.2810425804777183,0.20037248151890857,3.7672503309036145,170.84977392579893,3.6260855647070884,-0.6869641841703044,-0.037286520000000004,0.21225516922458967,0.2843967919802068,0.9863262565862723,0.16480447678540458,-0.07997567791087878,0.20663463496707815,,,,,,,,,,,1.6589514960601401,-0.5622139172922046,1.7516291145893936,0.13733000000001994,-0.03166664348054371,0.09338999999999942,-11.434516004816137,-23.2381456598429,25.899026429046938,False,,
2023-04-19 07:10:18.063963-07:00,12.394262,3.32,2.58,2.07,0.34,16.35,887.09,53.35,18.0,0.0,-0.00342648,0.00170763,0.0187228,32.6911131,-103.075255,1156.35464,-24.7077468,0.54196882,1.04971259,2.1768,58.6814,15518.2,23.4842,11830.0,-0.599034,-1.0,14.0,-1181.0,81.0,,0.0,,2023-04-19 14:10:18.063963+00:00,1.0674657885410739,0.01411330183826933,3.3077617122441825,2.9606165476791477,1.475139723076079,0.3587228,206.48497518323427,0.27469028275087953,0.18441790755747067,3.3705055073953156,200.05165608258886,3.156672225407848,1.0118778296144586,0.22292717600000006,0.19462956155646052,0.27760572257496463,0.4460409248398992,0.8950125660391408,3.2766002315529863,0.22572151138708169,,,,,,,,,,,1.636683700332357,-0.5622139216821089,1.730554254759669,0.17285000000015316,-0.021074859829724568,0.03552000000013322,-11.45678380054392,-23.238145664232803,25.90886545112517,False,,
2023-04-19 07:10:19.064589-07:00,13.394888,4.09,3.27,2.3,0.85,16.54,887.13,52.77,25.0,0.0,-0.00091102,0.00113191,0.0105675,32.6911128,-103.075255,1156.34133,-24.6523353,0.540544924,1.10412957,2.17572,58.7177,15496.5,23.492,11879.0,-0.584193,-1.0,14.0,-1165.0,81.0,,0.0,,2023-04-19 14:10:19.064589+00:00,1.0668137677978862,0.014101693671503247,3.99838155147586,3.4554529496984783,2.011690817099534,0.8605674999999999,210.2070491473158,0.2757271660025995,0.2049471516582036,4.189647657390024,206.81688042887282,3.719685813687292,1.8995077219264282,0.600278482,0.21643008986350284,0.2773502046549983,0.7790216062041855,0.6269970789940341,3.8119896964898587,0.17070452866646302,,,,,,,,,,,1.6032819881233555,-0.5622139223982838,1.6989990076451613,0.15954000000010637,-0.031555247114507745,-0.013310000000046784,-11.490185512752923,-23.23814566494898,25.923652849528445,False,,
2023-04-19 07:10:20.064825-07:00,14.395124,3.5,0.87,3.38,-0.23,16.9,887.11,51.61,21.0,0.0,-0.00130154,0.000924918,0.0143032,32.6911126,-103.075256,1156.3912599999999,-24.6013319,0.538624664,1.09353272,2.17203,58.7158,15501.1,23.5011,11884.0,-0.635551,-1.0,12.0,-1191.0,81.0,,0.0,,2023-04-19 14:10:20.064825+00:00,1.0654656545009664,0.014079338279331676,3.4913122326103885,3.4362929355039205,-0.617375061839061,-0.21569680000000002,169.81472420430663,0.28234839106375115,0.20426298291795678,3.810459860505145,177.47058225756123,3.6719524595307065,-0.1205813344126021,0.10739472000000001,0.21465567413295453,0.282744550240009,0.5792652207495983,0.8151391317007908,2.923303566211646,0.20120417455647427,,,,,,,,,,,1.5810141948711625,-0.6559162486064573,1.7116752056304603,0.20947000000001026,0.012676197985298954,0.049929999999903885,-11.512453306005115,-23.33184799115715,26.017527011716776,False,,
2023-04-19 07:10:21.064628-07:00,15.394927,2.56,-0.43,2.52,-0.11,16.69,887.19,52.23,17.0,0.0,-0.00173479,-0.00231324,0.00611569,32.6911124,-103.075256,1156.35293,-24.5260563,0.535191781,1.05423302,2.17381,58.9618,15515.7,23.509,11891.0,-0.694618,-1.0,12.0,-1170.0,81.0,,0.0,,2023-04-19 14:10:21.064628+00:00,1.066333778324119,0.014092666063638964,2.555487058488731,2.1118176613104493,-1.4390066961208523,-0.10388431000000001,145.7292205555919,0.27676163282319927,0.15317191180755738,2.464136740076394,171.34732648108312,2.1064209847693673,-0.39425619952644547,0.081613922,0.15348311062876885,0.2749222236390867,0.8000232402057075,-0.5999690118087441,-1.5792014389016136,0.13944005383570748,,,,,,,,,,,1.5587463804126458,-0.6559162461347425,1.6911287356061977,0.1711400000001504,-0.020546470024262575,-0.038329999999859865,-11.534721120463631,-23.33184798868544,26.027387919151522,False,,
2023-04-19 07:10:22.064107-07:00,16.394406,1.31,-0.73,0.96,0.52,17.55,887.18,49.39,20.0,0.0,0.000340679,-0.000623203,0.00761059,32.6911122,-103.075256,1156.35989,-24.478014,0.538457972,1.05355639,2.17406,58.6079,15523.2,23.5151,11891.0,-0.745047,-1.0,12.0,-1170.0,81.0,,0.0,,2023-04-19 14:10:22.064107+00:00,1.0631671780419005,0.014039611988847785,1.2054313717910339,0.5706211718540848,-1.0618174373826628,0.52761059,118.25360426595529,0.2706188170722038,0.11466283565805287,2.4937584132362254,140.68824053232544,2.0226274299516467,-1.3580548138236972,0.11875580999999999,0.157196999166038,0.2779880100062878,0.8774512276247926,0.47966586613990425,-0.22144152550527718,0.13688996759469438,,,,,,,,,,,1.5364785764218258,-0.6559162483197535,1.6706263916905841,0.17810000000008586,-0.020502343915613563,0.006959999999935462,-11.556988924454451,-23.331847990870447,26.03726413563929,False,,
2023-04-19 07:10:23.063870-07:00,17.394169,2.87,1.45,2.47,0.11,17.0,887.15,51.28,25.0,0.0,0.000840803,-0.00135135,0.00275725,32.691112,-103.075257,1156.37563,-24.4109887,0.537217173,1.05160861,2.17395,59.0838,15542.3,23.5191,11873.0,-0.814089,-1.0,11.0,-1210.0,81.0,,0.0,,2023-04-19 14:10:23.063870+00:00,1.0651464680294123,0.014073337905773045,2.862901990016442,2.8470962234092894,0.3004178741164838,0.11275725,186.02340662939628,0.27636764902561817,0.18076900578768032,3.1024380958187296,172.7227752002178,2.9645928547002462,-0.5071376819630198,-0.17579232760000002,0.18640043837884765,0.2797594660870282,0.8490670314554617,0.5282851276492743,1.1355564285099007,0.1554144350148814,,,,,,,,,,,1.5142107744664788,-0.7496185735480726,1.689604177113273,0.19384000000013657,0.01897778542268891,0.015740000000050713,-11.579256726409799,-23.425550316098768,26.131123090066023,False,,
2023-04-19 07:10:24.063981-07:00,18.39428,4.25,0.04,4.19,-0.77,16.67,887.13,52.36,19.0,0.0,0.000835498,-0.00326872,0.0042593,32.6911119,-103.075257,1156.36428,-24.3559085,0.534085359,1.03989512,2.17461,59.6053,15547.5,23.5272,11828.0,-0.818004,-1.0,12.0,-1175.0,81.0,,0.0,,2023-04-19 14:10:24.063981+00:00,1.0663352439216398,0.014093643855931948,4.186863141653614,3.830322834546012,-1.6906951085553457,-0.7657407,156.18345427196135,0.2889067586896988,0.221777029739927,3.0955805303995527,171.62094840099914,2.8928679997712035,-0.7155336001374406,-0.3353139512,0.18484412765453337,0.2804662375709538,0.9688515189962039,0.24764235126235645,0.0231508179689891,0.17435868887077105,,,,,,,,,,,1.503076869981352,-0.7496185730539952,1.6796333177632687,0.18249000000014348,-0.009970859350004302,-0.011349999999993088,-11.590390630894927,-23.42555031560469,26.136058665484814,False,,
2023-04-19 07:10:25.064342-07:00,19.394641,3.49,-0.06,3.45,-0.49,16.74,887.15,52.13,18.0,0.0,-0.00261269,-0.00217026,-0.0132242,32.6911118,-103.075257,1156.2844499999999,-24.3041423,0.5322458,1.02923776,2.17471,60.2153,15555.3,23.5358,11892.0,-0.84605,-1.0,14.0,-1181.0,81.0,,0.0,,2023-04-19 14:10:25.064342+00:00,1.066101789295022,0.014089399765694512,3.449677755700547,3.117373579728713,-1.477246960594115,-0.5032242,154.6448732102216,0.2827387127918738,0.1918869904169833,3.128238708902347,173.91191997673144,3.0092673717047704,-0.3655958784588284,-0.397641312,0.18768445977620987,0.2790637432158349,0.6389704897236546,-0.769231248235739,-2.5484274741113295,0.1820404810691998,,,,,,,,,,,1.4919429481036646,-0.7496185645129172,1.6696771402455808,0.1026600000000144,-0.009956177517687959,-0.07983000000012908,-11.601524552772613,-23.425550307063613,26.140998051668838,False,,
2023-04-19 07:10:26.064119-07:00,20.394418,4.6,3.12,3.38,-0.06,16.42,887.12,53.23,25.0,0.0,-0.000235929,-0.000666882,0.0166742,32.6911116,-103.075258,1156.3044699999998,-24.257829,0.532816024,1.04983331,2.17217,59.7038,15569.9,23.5438,11870.0,-0.855263,-1.0,11.0,-1203.0,81.0,,0.0,,2023-04-19 14:10:26.064119+00:00,1.0672438330651912,0.014109089150487716,4.599162292549227,4.36273061914013,1.4556357161130125,-0.0433258,198.45140236572723,0.28218854615523753,0.24521954110652047,3.818298572585183,198.23387076599744,3.495293578376581,1.3326647301113133,-0.06630594599999999,0.2085359679380399,0.2773738989481538,0.9427421121629957,-0.33352257787810047,0.09059983776934044,0.1878896747237706,,,,,,,,,,,1.469675147287808,-0.8433208900598671,1.6944424340079562,0.12267999999994572,0.024765293762375462,0.020019999999931315,-11.62379235358847,-23.519252632610563,26.234858358220666,False,,
2023-04-19 07:10:27.064351-07:00,21.39465,2.99,2.63,1.41,0.16,16.57,887.17,52.81,23.0,0.0,-0.000245899,3.85548e-05,0.00421157,32.6911115,-103.075258,1156.30642,-24.198736,0.532901723,1.0430688,2.17177,60.3779,15573.7,23.5516,11842.0,-0.873924,-1.0,14.0,-1178.0,81.0,,0.0,,2023-04-19 14:10:27.064351+00:00,1.0667513979155678,0.014100008596001468,2.9840051654437123,2.3641853265692316,1.8206906846110602,0.16421157,217.60034810578247,0.2714118714870474,0.16297921049447778,2.853463153218763,210.19529672823273,2.41901503415823,1.4166318070548662,0.17971917,0.16534615017120774,0.2723626563721781,0.15489878710144311,0.9879303445863488,2.6092529049376227,0.2658572887403246,,,,,,,,,,,1.458541245338764,-0.8433208912622552,1.684794554239097,0.12463000000002467,-0.00964787976885928,0.0019500000000789441,-11.634926255537513,-23.51925263381295,26.239793319020514,False,,
2023-04-19 07:10:28.064502-07:00,22.394801,2.76,0.42,2.71,-0.31,16.73,887.18,52.21,17.0,0.0,-0.000878322,0.000863403,-0.00035546,32.6911113,-103.075258,1156.3164299999999,-24.149159,0.531004258,1.05239272,2.17529,60.3704,15570.2,23.5602,11840.0,-0.859905,-1.0,11.0,-1203.0,81.0,,0.0,,2023-04-19 14:10:28.064502+00:00,1.0661746193486286,0.014090148131026924,2.7434180675770654,2.645521360023532,-0.726332862513821,-0.31035545999999997,164.64762169494605,0.27751917231055473,0.17355343023783765,2.6035085181352238,171.8121037935782,2.55489316128826,-0.40289514398682247,-0.24632572788,0.17046633407241044,0.2764180340770216,0.7010242380197556,0.7131374465759186,1.5395507240001645,0.1636450423445623,,,,,,,,,,,1.4362734427959067,-0.8433208944747567,1.665554422268606,0.13463999999999032,-0.019240131970490904,0.010009999999965657,-11.657194058080371,-23.519252637025453,26.249674624878175,False,,
2023-04-19 07:10:29.064359-07:00,23.394658,2.29,0.76,2.15,-0.23,16.79,887.2,52.0,19.0,0.0,-0.000562739,0.000303407,0.00136884,32.6911112,-103.075259,1156.34756,-24.0964463,0.536389683,1.05787092,2.17103,59.3473,15573.4,23.5683,11854.0,-0.845273,-1.0,17.0,-1165.0,81.0,,0.0,,2023-04-19 14:10:29.064359+00:00,1.0659780160107084,0.014086524365639907,2.2807206675934024,2.2732394556495095,-0.18457827842413518,-0.22863116,175.3579870660176,0.27433197229821243,0.15999957254169517,1.9711019406560901,172.00010537754306,1.9300983764146817,-0.27029775236298487,-0.16459252359999998,0.1485232293303035,0.27308593846943374,0.47457713789594896,0.8802139172874338,1.5706223189579498,0.21420855488349516,,,,,,,,,,,1.4251395466264134,-0.9370232221025492,1.7055894131114857,0.16577000000006592,0.04003499084287965,0.031130000000075597,-11.668327954249865,-23.612954964653245,26.33859372500117,False,,
2023-04-19 07:10:30.063690-07:00,24.393989,3.08,2.07,2.27,0.29,16.69,887.18,52.29,25.0,0.0,-0.000162961,9.08377e-05,-0.000426864,32.6911111,-103.075259,1156.3620799999999,-24.057458,0.533310205,1.06157971,2.17068,60.5686,15573.8,23.5764,11897.0,-0.851934,-1.0,12.0,-1195.0,81.0,,0.0,,2023-04-19 14:10:30.063690+00:00,1.0663217590973657,0.014092622760627201,3.0721353263944815,2.916752898321304,0.9646595222228418,0.28957313599999995,198.30063264388377,0.274901834143251,0.18435801782665215,2.898683794790093,181.55886976575067,2.842706347694942,0.07762457845960762,-0.0652175408,0.18264923988400533,0.2770143076070961,0.48688679522017364,0.8734650815231417,2.52079911397223,0.21573536823519138,,,,,,,,,,,1.414005647374776,-0.9370232252848922,1.6962972898436939,0.1802900000000136,-0.00929212326779183,0.014519999999947686,-11.679461853501502,-23.612954967835588,26.34352807617894,False,,
2023-04-19 07:10:31.064121-07:00,25.39442,3.38,0.68,3.3,-0.2,16.71,887.16,52.33,19.0,0.0,-0.000193649,-0.000303369,0.00224606,32.691111,-103.075259,1156.3781999999999,-24.0040824,0.530639125,1.05998662,2.16503,59.7089,15578.3,23.5855,11833.0,-0.813592,-1.0,11.0,-1203.0,81.0,,0.0,,2023-04-19 14:10:31.064121+00:00,1.0662241473518808,0.014091298746854993,3.369077404265551,3.2909261765291395,-0.7214481662378832,-0.19775394000000002,167.63502776863675,0.2814602870426209,0.1996268342957865,3.745619823899299,166.71206934579578,3.6433183074299693,-0.839411881175953,-0.22972188779999997,0.2151177989199649,0.2847647961241944,0.8429106002762321,-0.5380536403946748,-2.667849851070284,0.17365671585207368,,,,,,,,,,,1.4028717477160726,-0.9370232287022531,1.6870274661864706,0.1964100000000144,-0.009269823657223286,0.0161200000000008,-11.690595753160204,-23.612954971252947,26.3484662084575,False,,
2023-04-19 07:10:32.064285-07:00,26.394584,3.05,1.35,2.72,-0.29,16.89,887.18,51.72,17.0,0.0,-0.000238137,-0.000853135,-0.000510209,32.6911108,-103.075259,1156.38455,-23.951607,0.532808954,1.06636017,2.16909,59.9227,15581.0,23.5937,11833.0,-0.795863,-1.0,11.0,-1203.0,81.0,,0.0,,2023-04-19 14:10:32.064285+00:00,1.0655864662004568,0.014080258430528785,3.035730976603857,3.0329766609032562,0.12928703232861946,-0.29051020899999996,182.44087584564488,0.2774026985646738,0.18928753309148283,2.9234156714163495,179.99296985067912,2.8428409043260365,-0.018304426420667076,-0.04312252841399998,0.18248695764476974,0.27707653259182063,0.9631808620956193,-0.2688542856134893,-0.7819404336654063,0.17047685430524634,,,,,,,,,,,1.380603943334962,-0.9370232317340965,1.6685561977834182,0.20276000000012573,-0.018471268403052354,0.006350000000111322,-11.712863557541315,-23.61295497428479,26.358353805486036,False,,
2023-04-19 07:10:33.064473-07:00,27.394772,4.81,1.37,4.61,-0.13,16.83,887.14,51.92,23.0,0.0,0.000882061,-0.00265241,-0.00017,32.6911107,-103.07526,1156.3637899999999,-23.8938315,0.536624854,1.05996185,2.16724,60.3941,15578.6,23.6021,11866.0,-0.813099,-1.0,14.0,-1181.0,81.0,,0.0,,2023-04-19 14:10:33.064473+00:00,1.0657588938756184,0.014083792435364017,4.806518535745768,4.767168499984733,-0.6137792169998564,-0.13017,172.66345439851918,0.2930958883682521,0.26410524615754355,3.9535170939089768,171.44126566430745,3.8763569983268473,-0.5911005720511823,-0.300539162,0.22501190654309006,0.2856214637596257,0.9489058350170304,0.31555937043705784,0.6623219920800317,0.20459228861283166,,,,,,,,,,,1.3694700370518842,-1.030725551873262,1.7140138113992343,0.18200000000001637,0.04545761361581602,-0.020760000000109358,-11.723997463824393,-23.706657294423955,26.4472629322398,False,,
2023-04-19 07:10:34.063771-07:00,28.39407,3.05,1.11,2.82,-0.38,16.69,887.16,52.43,23.0,0.0,0.00328279,-0.0026733,-0.0114306,32.6911105,-103.07526,1156.39089,-23.8545967,0.541962007,1.03948556,2.16504,60.3134,15586.9,23.6099,11882.0,-0.807133,-1.0,11.0,-1224.0,81.0,,0.0,,2023-04-19 14:10:34.063771+00:00,1.0662977206438593,0.014092536155668783,3.027788941999625,3.025330240673125,-0.12199513172214314,-0.3914306,177.69082359098934,0.2779636854423799,0.1892946133833542,3.0032835709419574,184.3175143183617,2.9758679587997903,0.1918778561836058,-0.29973443800000005,0.1875867987030848,0.27708104235330777,0.631450630218753,0.7754160828847566,2.428697269006951,0.1826205171776433,,,,,,,,,,,1.347202237069911,-1.0307255585609625,1.6962750498185668,0.20910000000003492,-0.01773876158066745,0.027100000000018554,-11.746265263806366,-23.706657301111658,26.457141720905053,False,,
2023-04-19 07:10:35.064549-07:00,29.394848,3.44,2.85,1.9,-0.24,16.39,887.16,53.36,17.0,0.0,0.00024522,-6.51853e-05,-0.0135227,32.6911103,-103.07526,1156.4187299999999,-23.8059841,0.536143748,1.04468505,2.16473,59.0906,15578.8,23.6182,11889.0,-0.754914,-1.0,14.0,-1187.0,81.0,,0.0,,2023-04-19 14:10:35.064549+00:00,1.0674025397230646,0.014111123801452716,3.425350516778871,2.8886545300927984,1.8408425159615454,-0.2535227,212.50799354719214,0.2727691634813003,0.18389645714941585,3.1271225170879395,204.07808389909619,2.8337455096354747,1.285392634491528,-0.15940246600000002,0.18263899306308382,0.2738209739120877,0.2569020276679768,0.9664374517681328,3.068857763441853,0.25603306307470225,,,,,,,,,,,1.3249344370524379,-1.0307255653682277,1.6786442307979117,0.23694000000000415,-0.01763081902065511,0.027839999999969223,-11.76853306382384,-23.706657307918924,26.46703555726294,False,,
2023-04-19 07:10:36.063713-07:00,30.394012,2.44,0.47,2.37,-0.29,16.81,887.2,52.0,19.0,0.0,0.000446533,0.000113509,-0.00550468,32.6911101,-103.075261,1156.42861,-23.7521608,0.534649956,1.05533681,2.16166,61.4223,15587.7,23.6265,11874.0,-0.785611,-1.0,11.0,-1192.0,81.0,,0.0,,2023-04-19 14:10:36.063713+00:00,1.0659044901439674,0.01408528802677938,2.4161679001934497,2.3586728836044104,-0.5239556756773213,-0.29550467999999996,167.47567977950737,0.2751029506722177,0.16405448525906427,2.572954392655253,177.570025755207,2.474514991214618,-0.17571305962472186,-0.21699307,0.16975081926464416,0.27558828775357164,0.24636546905830337,-0.9691769991367326,-2.441532643858356,0.25906615880467415,,,,,,,,,,,1.3026666338813495,-1.1244278941865247,1.7208365547757603,0.24682000000007065,0.042192323977848556,0.009880000000066502,-11.790800866994928,-23.80035963673722,26.56087543593318,False,,
2023-04-19 07:10:37.064171-07:00,31.39447,3.64,1.37,3.35,-0.36,16.49,887.16,53.18,26.0,0.0,-0.000459077,-0.000525054,-0.00151499,32.6911098,-103.075261,1156.4651099999999,-23.7158834,0.532231546,1.04967363,2.16222,61.2422,15595.9,23.6344,11819.0,-0.797231,-1.0,12.0,-1161.0,81.0,,0.0,,2023-04-19 14:10:37.064171+00:00,1.0670340123995863,0.014104922390534064,3.6187962819766373,3.6175874260021885,-0.09352938403942454,-0.36151499,178.51900042629404,0.2816957410573389,0.213934463049728,3.318190071521923,180.3203574937959,3.2190468313122906,0.0881694344367667,-0.141926898,0.19811540067676697,0.27868622880819677,0.7528219617057521,-0.6582241973473044,-2.0524786301687428,0.16488109688683725,,,,,,,,,,,1.2692649318925244,-1.1244279043985421,1.6956920650643594,0.28332000000000335,-0.02514448971140082,0.0364999999999327,-11.824202568983754,-23.800359646949236,26.5757198532136,False,,
2023-04-19 07:10:38.085860-07:00,32.416159,3.7,1.93,3.16,-0.1,16.54,887.15,53.03,19.0,0.0,0.000292575,-0.00119636,-0.00280871,32.6911097,-103.075262,1156.475,-23.6745773,0.534302203,1.06061638,2.16058,60.9575,15593.6,23.6425,11882.0,-0.793521,-1.0,12.0,-1170.0,81.0,,0.0,,2023-04-19 14:10:38.085860+00:00,1.0668378186983807,0.014101780396685434,3.7016232068946153,3.667835726168007,0.4989944405165112,-0.10280871000000001,187.74729921388348,0.28021941354119473,0.21618197461923525,3.1874125991295124,181.49610792591236,3.1618306081581595,0.12436411296700486,-0.18151917986000002,0.19585222436748537,0.27817052081957394,0.9713743838596529,0.2375537968151207,0.8719089794618096,0.18546544328236586,,,,,,,,,,,1.258131031167794,-1.2181302322232925,1.751209568910503,0.2932100000000446,0.05551750384614351,0.009890000000041255,-11.835336469708484,-23.894061974773987,26.664609260320162,False,,
2023-04-19 07:10:39.064277-07:00,33.394576,3.56,0.24,3.55,-0.16,16.59,887.16,52.8,17.0,0.0,0.000252053,-0.000491301,-0.00206551,32.6911095,-103.075262,1156.48965,-23.6411462,0.531376735,1.06402128,2.15861,61.3331,15600.0,23.6504,11856.0,-0.806998,-1.0,12.0,-1199.0,81.0,,0.0,,2023-04-19 14:10:39.064277+00:00,1.0666657394609518,0.014098726511029499,3.5575558252804558,3.3478165870155396,-1.203464810324975,-0.16206551,160.22762928992572,0.2832783972449587,0.20282927661126693,2.6701142461079925,191.42662721523385,2.513700946716179,0.281846788073916,0.101881136,0.17273619951849734,0.2752992029561011,0.8897411455715108,0.45646543557765196,1.3981882816512936,0.14828848995385727,,,,,,,,,,,1.2358632286209226,-1.2181302377495886,1.73528072540935,0.3078600000001188,-0.015928843501152867,0.014650000000074215,-11.857604272255355,-23.894061980300282,26.674500501337224,False,,
2023-04-19 07:10:40.101569-07:00,34.431868,2.56,0.25,2.51,-0.43,16.74,887.19,52.39,23.0,0.0,-0.000520951,0.00144969,-0.00359167,32.6911094,-103.075263,1156.4942899999999,-23.601368,0.536021875,1.05124665,2.16038,61.6099,15598.3,23.6567,11819.0,-0.819031,-1.0,13.0,-1172.0,81.0,,0.0,,2023-04-19 14:10:40.101569+00:00,1.0661498579097681,0.014089572894141141,2.5239591202315603,2.4015888759235526,-0.7763636465216016,-0.43359167,162.08549269243093,0.27576040785486544,0.16598547508729034,2.828686069805989,178.20163722338452,2.780661889109374,-0.060041211355249625,-0.05255185600000001,0.18060487771305161,0.2762525452582018,0.9410811919903216,0.33818070625344004,0.8838625467602917,0.16304021518653752,,,,,,,,,,,1.2247293260854104,-1.311832567804482,1.7946772991616415,0.3125,0.05939657375229146,0.004639999999881184,-11.868738174790867,-23.98776431035518,26.763403790827645,False,,
2023-04-19 07:10:41.109354-07:00,35.439653,4.12,3.01,2.82,0.01,16.55,887.14,53.05,21.0,0.0,-0.000123206,0.000220893,-0.000901171,32.6911092,-103.075263,1156.50918,-23.5624396,0.529527594,1.0736816,2.15983,61.2138,15607.1,23.6604,11819.0,-0.81898,-1.0,13.0,-1172.0,81.0,,0.0,,2023-04-19 14:10:41.109354+00:00,1.066788968056789,0.01410111748179817,4.124775329797871,3.788345493583244,1.6316280037302204,0.009098829000000001,203.30138647479214,0.2777138384594833,0.221497592250652,3.825004066087234,192.14689768725356,3.7049917379999426,0.8107844173264673,-0.0785571412,0.21798026551909938,0.27955866034780036,0.8733375134059851,0.4871155793832207,2.5128476440021053,0.17900221445027478,,,,,,,,,,,1.202461522731496,-1.3118325738052319,1.7795556791924796,0.3273900000001504,-0.015121619969161948,0.014890000000150394,-11.891005978144781,-23.98776431635593,26.773286314334175,False,,
2023-04-19 07:10:42.149228-07:00,36.479527,4.54,2.25,3.94,-0.08,16.63,887.15,52.76,17.0,0.0,0.000585007,-0.000769507,-0.000653321,32.6911086,-103.075263,1156.5241899999999,-23.5230245,0.52487341,1.04681739,2.1564,62.3673,15598.2,23.6688,11888.0,-0.83807,-1.0,13.0,-1181.0,81.0,,0.0,,2023-04-19 14:10:42.149228+00:00,1.0665064797388846,0.014096206379990586,4.536489055629313,4.509830064926353,0.4910862829797851,-0.080653321,186.21458965459655,0.286671754444087,0.253155500762602,3.665606620031025,187.87921517329102,3.62608192302799,0.5068307844632567,0.1442989702,0.21599640894359995,0.2803708166473996,0.7960716404342165,0.6052023986208048,2.597987091422306,0.17112157661478444,,,,,,,,,,,1.1356581074741026,-1.3118325857081883,1.7351150019515973,0.3423999999999978,-0.0444406772408823,0.015009999999847423,-11.957809393402176,-23.987764328258883,26.803023018999678,False,,
2023-04-19 07:10:43.157007-07:00,37.487306,4.04,1.97,3.52,0.22,16.43,887.14,53.33,20.0,0.0,-0.00209234,-0.00451407,-0.001099,32.6911083,-103.075263,1156.53433,-23.4868315,0.529656593,1.06354287,2.15659,60.8803,15589.9,23.6765,11834.0,-0.816098,-1.0,13.0,-1165.0,81.0,,0.0,,2023-04-19 14:10:43.157007+00:00,1.067231038214144,0.014108555757085457,4.029069375251725,4.008980325967649,0.40184173077923135,0.218901,185.7239464902773,0.2829715642091067,0.2313627841445809,4.159415348184309,173.80430565798153,4.078995801027359,-0.39658405773185545,0.112956722,0.23468302867051297,0.286426151946274,0.9072758005383906,-0.42053611231072935,-2.075176154755267,0.1997100197236418,,,,,,,,,,,1.1022564008910527,-1.3118325922015284,1.713439209095986,0.35254000000009,-0.021675792855611276,0.010140000000092186,-11.991211099985225,-23.987764334752224,26.817941409139138,False,,
2023-04-19 07:10:49.064453-07:00,43.394752,2.59,0.67,2.48,-0.34,17.28,887.17,50.63,17.0,0.0,-2.52662e-05,-0.00100728,-0.00114114,32.6911066,-103.075264,1156.50613,-23.2584867,0.533339476,1.05912277,2.15111,61.4273,15465.4,23.7163,11857.0,-0.77807,-1.0,11.0,-1191.0,81.0,,0.0,,2023-04-19 14:10:49.064453+00:00,1.064143563006915,0.014056168177532715,2.5679167269486354,2.542019453684351,-0.36377659852292366,-0.34114114,171.85596100407196,0.27521380604505685,0.1721752946266319,2.4382448778251993,183.53091858914883,2.3250356330652866,0.24338483322695162,-0.035161560800000005,0.165632393887862,0.2729736456790241,0.9996855550954824,-0.025075704046691533,0.18500639667354934,0.16552833473246364,,,,,,,,,,,0.9129800443642899,-1.4055349399148958,1.676025366373967,0.3243400000001202,-0.037413842722018975,-0.028199999999969805,-12.180487456511988,-24.081466682465592,26.98668768591185,False,,
2023-04-19 07:10:50.063900-07:00,44.394199,1.99,1.88,0.04,0.66,16.77,887.18,52.31,23.0,0.0,-0.000340754,0.000438679,-0.00360037,32.6911064,-103.075264,1156.50198,-23.2153012,0.535056796,1.05760237,2.14923,61.1472,15490.6,23.7244,11835.0,-0.753261,-1.0,14.0,-1170.0,81.0,,0.0,,2023-04-19 14:10:50.063900+00:00,1.0660275202013676,0.01408767438368043,1.8802967848302379,0.7782721131813861,1.711668343134005,0.65639963,245.5493584518716,0.267362498389776,0.12260080922543914,2.2353820960874766,203.16297298048022,1.84816816941029,0.8367067615091275,0.4349173380000001,0.15192746329380613,0.27063439476962065,0.7897366120901792,0.6134460722217772,1.7945294674772185,0.13910669211999502,,,,,,,,,,,0.8907122382911378,-1.405534942149207,1.6640002298809886,0.32019000000013875,-0.012025136492978428,-0.004149999999981446,-12.20275526258514,-24.0814666846999,26.99674561284861,False,,
2023-04-19 07:10:51.064476-07:00,45.394775,2.69,-0.32,2.67,-0.06,16.83,887.17,52.14,24.0,0.0,-0.000703371,0.000807382,0.000225526,32.6911061,-103.075265,1156.51174,-23.1814437,0.533241246,1.0726855,2.14551,61.7346,15511.8,23.7322,11893.0,-0.7605,-1.0,12.0,-1185.0,81.0,,0.0,,2023-04-19 14:10:51.064476+00:00,1.0657949341475217,0.014083922170213297,2.6901586217845153,2.329273114910248,-1.3458975319532587,-0.059774474,149.9798753279103,0.276356368670805,0.16463711907359885,2.0502212810731213,171.53028648059805,1.9560726295636837,-0.3723768366688425,0.02412003000000002,0.1531911792752994,0.2725669046092508,0.7540042000875767,0.6568695960769485,1.0041109392150385,0.14634349488722997,,,,,,,,,,,0.8573105299674832,-1.4992372793548416,1.7270477018891037,0.3299500000000535,0.06304747200811511,0.009759999999914726,-12.236156970908795,-24.175169021905536,27.09543014337327,False,,
2023-04-19 07:10:52.064640-07:00,46.394939,2.67,-0.54,2.61,-0.0,16.79,887.18,52.27,18.0,0.0,-0.00132524,0.000238221,-0.00544798,32.691106,-103.075265,1156.48928,-23.1360307,0.52895853,1.07888413,2.14743,60.727,15537.1,23.7406,11856.0,-0.714492,-1.0,10.0,-1198.0,81.0,,0.0,,2023-04-19 14:10:52.064640+00:00,1.0659539858480391,0.014086437840707448,2.6662292604864186,2.188153552308196,-1.5234049038239894,-0.00544798,145.15414557656214,0.27591463241719516,0.15988191543214925,2.598389078518162,163.13956823421694,2.1831737139394,-0.6854888790979194,0.17342419599999997,0.160264255629273,0.27418161591237356,0.1769212126309961,0.9842250172197301,2.0274566624606023,0.26564679480699027,,,,,,,,,,,0.8461766242316333,-1.4992372757556414,1.721547933811673,0.3074900000001435,-0.005499768077430689,-0.022459999999909996,-12.247290876644644,-24.175169018306335,27.10045997544731,False,,
2023-04-19 07:10:53.064302-07:00,47.394601,2.22,0.72,2.06,-0.38,16.67,887.21,52.7,20.0,0.0,-0.000447681,-0.000786209,-0.00588224,32.6911058,-103.075265,1156.48452,-23.1001645,0.527261395,1.05620098,2.14682,61.4886,15552.4,23.7487,11833.0,-0.705353,-1.0,12.0,-1164.0,81.0,,0.0,,2023-04-19 14:10:53.064302+00:00,1.066431404371082,0.014093990340969911,2.1814462742154057,2.1765283804163453,-0.14639691434752508,-0.38588224,176.1519866824491,0.2726212971773163,0.1596282523697533,2.3327856756933314,160.12450895894634,1.9505282842625782,-0.621557776602004,-0.011766016000000013,0.1541938571014404,0.2726840705653364,0.8689950372322938,-0.4948208011650727,-1.5052925915342237,0.1342234906069527,,,,,,,,,,,0.8239088181819733,-1.4992372779955456,1.710712762683879,0.3027300000001105,-0.010835171127794085,-0.00476000000003296,-12.269558682694305,-24.175169020546242,27.110530563603103,False,,
2023-04-19 07:10:54.064149-07:00,48.394448,2.01,1.19,1.62,-0.11,16.75,887.2,52.42,24.0,0.0,-0.000716462,0.00112609,-0.00848605,32.6911056,-103.075265,1156.4938,-23.0627006,0.534953841,1.05062276,2.14384,61.256,15568.1,23.756,11890.0,-0.674858,-1.0,11.0,-1190.0,81.0,,0.0,,2023-04-19 14:10:54.064149+00:00,1.0661250981791819,0.014088997704599766,2.0110318411509187,1.9578188610319285,0.45955889014412055,-0.11848605,193.20989197361646,0.27049174794251396,0.15243778568966576,2.572852186096626,184.6367587963155,2.483405958848092,0.20517666193182435,-0.15542184,0.17262230982645901,0.2741074563778051,0.8437092416957447,0.536800442880957,1.5062028644150272,0.14607625951061287,,,,,,,,,,,0.801641013221623,-1.4992372835350967,1.7001002165815655,0.31201000000010026,-0.010612546102313436,0.009279999999989741,-12.291826487654655,-24.17516902608579,27.12061569807047,False,,
2023-04-19 07:10:55.064090-07:00,49.394389,1.91,0.83,1.72,-0.15,17.04,887.21,51.37,20.0,0.0,-0.00058448,0.00075349,-0.00497317,32.6911056,-103.075265,1156.51516,-23.0446971,0.540322975,1.06019465,2.14541,61.7733,15571.7,23.7645,11854.0,-0.669029,-1.0,11.0,-1199.0,81.0,,0.0,,2023-04-19 14:10:55.064090+00:00,1.0650716758497085,0.014071129113372225,1.910515620071915,1.9083998343461397,0.0898888580770788,-0.15497317,182.69673494622458,0.27089603766735854,0.1509333514549952,2.0873221108184703,172.3775138173241,1.9093368172922875,-0.3255741912651658,0.07615717200000001,0.1513438829848288,0.27188169132186324,0.7901482857036921,0.6129157255280016,0.913010671550491,0.13914055700160743,,,,,,,,,,,0.8016410159057997,-1.4992372885550718,1.7001002222741006,0.333370000000059,5.69253510995793e-09,0.021359999999958745,-12.291826484970478,-24.175169031105767,27.120615701328703,False,,
2023-04-19 07:10:56.063957-07:00,50.394256,2.33,-1.39,1.74,0.69,17.52,887.2,49.87,17.0,0.0,-0.000659447,-4.32776e-06,-0.00718632,32.6911055,-103.075266,1156.52017,-22.999661,0.537015974,1.05470513,2.13892,60.7892,15580.4,23.7727,11839.0,-0.605095,-1.0,14.0,-1169.0,81.0,,0.0,,2023-04-19 14:10:56.063957+00:00,1.0633008771532833,0.014041540317169409,2.227616544788541,1.058569441589943,-1.9600270936769206,0.68281368,118.37254993757159,0.2709199927586169,0.12856198060193363,2.676804706495553,151.2270004815658,2.252503456167954,-1.2087804892506657,-0.06965261200000002,0.16456906575459382,0.27578214266112727,0.006562569556743678,-0.9999784661085522,-2.2603876570425854,0.27577026555464146,,,,,,,,,,,0.7905071130557794,-1.5929396213054718,1.7783020364709148,0.3383800000001429,0.07820181419681416,0.005010000000083892,-12.302960387820498,-24.268871363856167,27.209207110455797,False,,
2023-04-19 07:10:57.064167-07:00,51.394466,1.46,1.32,0.38,0.49,17.32,887.21,50.66,23.0,0.0,-0.000288468,-0.00011359,-0.00907651,32.6911055,-103.075266,1156.5005099999998,-22.969606,0.535479793,1.05088182,2.13859,61.0723,15597.4,23.7814,11892.0,-0.550402,-1.0,14.0,-1180.0,81.0,,0.0,,2023-04-19 14:10:57.064167+00:00,1.0640449947148656,0.014053878720358856,1.3733127718378717,0.8648774231852129,1.0667591162757994,0.48092349,230.9665093192056,0.26710612203202755,0.12500571082878775,2.1826035655195843,200.80483194178356,1.7826162846476676,0.423845541422011,-0.092495276,0.1501092398810283,0.2712418295360005,0.3663879499052144,-0.9304621809424896,-1.5033651369987904,0.23569326610704935,,,,,,,,,,,0.7905071106195439,-1.5929396163962486,1.7783020309904296,0.3187199999999848,-5.4804851767897844e-09,-0.019660000000158107,-12.302960390256734,-24.268871358946942,27.209207107178653,False,,
2023-04-19 07:10:58.063834-07:00,52.394133,2.7,0.03,2.69,-0.22,16.76,887.19,52.43,21.0,0.0,-0.00069677,7.67002e-05,-0.00684974,32.6911055,-103.075266,1156.5082,-22.927305,0.532209568,1.05294189,2.13881,61.5294,15599.0,23.7887,11853.0,-0.552625,-1.0,9.0,-1194.0,81.0,,0.0,,2023-04-19 14:10:58.063834+00:00,1.0660763075073734,0.014088336012331561,2.6905025836932963,2.489253208742004,-1.0209909968398065,-0.22684974,157.6985448743785,0.2762465090267153,0.17113447504823937,2.7311059523265824,159.9544050027562,2.518641282681209,-0.9509446077913275,-0.13456199600000002,0.1723774528101688,0.27636111894291593,0.1094187072491449,0.9939957477292978,2.399467595390514,0.27306019740818405,,,,,,,,,,,0.7905071115724763,-1.592939618316489,1.778302033134119,0.32641000000012355,2.1436894481752233e-09,0.0076900000001387525,-12.302960389303802,-24.268871360867184,27.209207108460507,False,,
2023-04-19 07:10:59.064125-07:00,53.394424,3.89,0.27,3.85,-0.43,16.91,887.17,51.84,17.0,0.0,-0.00113432,0.00014363,-0.00971078,32.6911055,-103.075266,1156.4864699999998,-22.9051751,0.527518618,1.07475103,2.14013,61.2131,15601.7,23.7973,11886.0,-0.536174,-1.0,13.0,-1204.0,81.0,,0.0,,2023-04-19 14:10:59.064125+00:00,1.0655009825694626,0.014078979995891977,3.8599592542689076,3.6516580434509525,-1.2508712876695764,-0.43971077999999997,161.09116261952795,0.2857744325531142,0.2171461083314614,3.9327547953403466,162.22138966654185,3.705944211822454,-1.1781074279696842,-0.3392277819999999,0.21961892842068176,0.28604521097622826,0.12561908617827858,0.9920785478921184,3.5285949737126274,0.2815527031632303,,,,,,,,,,,0.79050710887973,-1.5929396128903743,1.7783020270765946,0.3046799999999621,-6.057524482017129e-09,-0.021730000000161453,-12.302960391996548,-24.26887135544107,27.209207104838317,False,,
2023-04-19 07:11:00.064617-07:00,54.394916,2.84,0.37,2.8,-0.32,16.68,887.18,52.7,20.0,0.0,-0.000949914,0.00109142,-0.00562934,32.6911055,-103.075267,1156.5135699999998,-22.8805995,0.530391748,1.03277797,2.13707,61.873,15605.8,23.804,11853.0,-0.508655,-1.0,8.0,-1194.0,81.0,,0.0,,2023-04-19 14:11:00.064617+00:00,1.0663585503805006,0.014093241555933785,2.825644674969355,2.724639775648281,-0.7487362166597518,-0.32562934,164.63430098671728,0.27697534496235166,0.1799632082827708,2.4366453006322377,169.24209940112016,2.375600561122238,-0.4778336225897524,-0.273080516,0.16782118519117462,0.2744030445459412,0.7543134913925534,0.6565143994636952,1.1991796275903555,0.15200660183287193,,,,,,,,,,,0.790507112237918,-1.686641950646236,1.8627030262976632,0.33177999999998065,0.08440099922106858,0.027100000000018554,-12.30296038863836,-24.362573693196932,27.29281647761652,False,,
2023-04-19 07:11:01.064188-07:00,55.394487,1.0,0.66,0.71,-0.23,16.94,887.21,51.79,24.0,0.0,-0.000748617,0.000449661,-0.00930878,32.6911056,-103.075267,1156.4987999999998,-22.8454152,0.528537386,1.04225502,2.13796,61.0862,15597.4,23.813,11853.0,-0.476988,-1.0,8.0,-1194.0,81.0,,0.0,,2023-04-19 14:11:01.064188+00:00,1.0654388280010583,0.014077300394290726,0.9695471620910138,0.9109966831395231,0.3318233608827534,-0.23930878,200.01375430662836,0.2673605751071815,0.12629133653772945,1.5690384796231152,187.8256751085643,1.499470298497153,0.1795221816059406,-0.107094838,0.1404091925745064,0.26917314677847404,0.5149089437749929,0.8572448772786696,1.3778508089330994,0.20127947089663695,,,,,,,,,,,0.8016410138499416,-1.6866419448519194,1.8674553181321976,0.31700999999998203,0.004752291834534406,-0.014769999999998618,-12.291826487026336,-24.362573687402616,27.287799381065607,False,,
2023-04-19 07:11:02.064291-07:00,56.39459,3.25,-0.45,3.22,0.01,16.52,887.19,53.32,18.0,0.0,-0.000331673,0.000812181,-0.00784445,32.6911056,-103.075267,1156.5107699999999,-22.8318477,0.532777284,1.05634817,2.13376,61.1858,15606.6,23.8215,11826.0,-0.413713,-1.0,11.0,-1167.0,81.0,,0.0,,2023-04-19 14:11:02.064291+00:00,1.0669595826611753,0.01410319316221781,3.252159543756029,2.7939049105764555,-1.6645230694406699,0.002155550000000001,149.21480791446692,0.28016246260256294,0.1827386535380529,2.847331007373165,169.9134766241334,2.505523631932134,-0.10018096778839389,-0.018745196,0.17680918107769447,0.27479756915282416,0.9257796109772775,0.3780636347214061,0.8545018737821746,0.15654494291689966,,,,,,,,,,,0.801641015354136,-1.6866419480167245,1.8674553216362797,0.3289800000000014,3.5040821355636353e-09,0.011970000000019354,-12.291826485522142,-24.36257369056742,27.28779938321358,False,,
2023-04-19 07:11:03.064459-07:00,57.394758,2.54,1.22,2.19,0.35,16.67,887.18,52.29,18.0,0.0,-0.000106593,-0.000454877,-0.0110016,32.6911057,-103.075267,1156.5163799999998,-22.79667,0.533526235,1.06803087,2.13305,61.2169,15618.9,23.8298,11885.0,-0.325767,-1.0,11.0,-1190.0,81.0,,0.0,,2023-04-19 14:11:03.064459+00:00,1.0663953442025411,0.014093860406417478,2.5064266539769893,2.491178394461588,0.27605213046464766,0.3389984,186.32325489115067,0.27294719823243,0.17159527100436037,3.362093901011029,182.38171892999006,3.190969754104957,0.051165874918456346,-0.112945814,0.19976089768223593,0.27876200095986636,0.9736252484407278,-0.22815318450271735,-0.6782135233717296,0.18991772217340191,,,,,,,,,,,0.8127749188238504,-1.6866419476107735,1.8722617680520477,0.33458999999993466,0.004806446415767995,0.0056099999999332795,-12.280692582052428,-24.36257369016147,27.282785911695772,False,,
2023-04-19 07:11:04.064550-07:00,58.394849,4.04,1.17,3.86,-0.07,16.7,887.17,52.72,25.0,0.0,-0.0014642,-0.000426079,-0.0194735,32.6911057,-103.075267,1156.5042999999998,-22.7817643,0.531249156,1.08396915,2.13645,61.2275,15610.9,23.8377,11860.0,-0.266206,-1.0,8.0,-1216.0,81.0,,0.0,,2023-04-19 14:11:04.064550+00:00,1.0662729515407912,0.014091960721908275,4.0331503338862795,4.011491512220438,-0.417417612362482,-0.08947350000000001,174.0594400448277,0.28585536331583633,0.23276086487356232,3.6826004184048164,178.5586532637455,3.624892834285015,-0.1399136274974411,-0.095955278,0.21680665022178874,0.2820853391872543,0.2794080829033161,-0.9601724445162408,-3.519615212235956,0.2606134691957823,,,,,,,,,,,0.8127749172847494,-1.686641944416885,1.8722617645066626,0.32250999999996566,-3.5453850966149503e-09,-0.012079999999969004,-12.280692583591529,-24.36257368696758,27.282785909536532,False,,
2023-04-19 07:11:05.064542-07:00,59.394841,3.99,0.99,3.86,-0.15,16.32,887.16,54.01,19.0,0.0,-0.00334639,-0.00412345,-0.0260365,32.6911058,-103.075268,1156.52407,-22.7379082,0.536298894,1.05248622,2.13283,60.9377,15595.7,23.846,11831.0,-0.16204,-1.0,12.0,-1196.0,81.0,,0.0,,2023-04-19 14:11:05.064542+00:00,1.0676606603496601,0.01411546808418651,3.9813424706425273,3.9385384111063035,-0.5822396867117335,-0.17603649999999998,171.59078980110453,0.2858502019397233,0.22987665092455,3.9205423342181462,181.51944306510384,3.793984026249336,0.047551337147503904,-0.050080420000000014,0.2238505412975636,0.2828401628131084,0.7764745054742477,-0.6301486668624496,-2.3538515752422007,0.17558152033810862,,,,,,,,,,,0.8239088232900283,-1.780344277390849,1.9617470517713296,0.3422800000000734,0.08948528726466698,0.019770000000107757,-12.26955867758625,-24.456276019941544,27.361496795795,False,,
2023-04-19 07:11:06.067589-07:00,60.397888,2.61,0.75,2.5,-0.05,16.54,887.18,53.25,17.0,0.0,-0.000240306,-0.00193758,-0.0173709,32.6911059,-103.075268,1156.5414099999998,-22.7157007,0.530000229,1.03966659,2.13419,60.1843,15573.9,23.8543,11860.0,0.19343,-1.0,10.0,-1194.0,81.0,,0.0,,2023-04-19 14:11:06.067589+00:00,1.066873895049123,0.014101910487124567,2.6081749446664153,2.5937623059740353,-0.2738131517913518,-0.06737090000000001,173.9738322856304,0.27475445813128646,0.17563517405343024,3.0100480524016477,180.02429236608796,2.869013926457577,0.013734240050004787,-0.24851676,0.18630333413434338,0.27601608704527414,0.9923966545559425,-0.12308078658415098,-0.3394906769107891,0.18352868513893217,,,,,,,,,,,0.835042727629752,-1.7803442802359928,1.9664491127757036,0.35961999999994987,0.004702061004373981,0.017339999999876454,-12.258424773246526,-24.45627602278669,27.356505895747638,False,,
2023-04-19 07:11:07.064388-07:00,61.394687,4.58,3.74,2.65,0.09,16.69,887.1,52.74,24.0,0.0,-0.00512465,-0.00355714,-0.0308162,32.691106,-103.075268,1156.55496,-22.678736,0.527926862,1.04582834,2.13218,60.3806,15549.0,23.8626,11828.0,0.256446,-1.0,13.0,-1159.0,81.0,,0.0,,2023-04-19 14:11:07.064388+00:00,1.0662256052833394,0.014092276349314687,4.577945881061495,3.8835561647850847,2.4239595716281386,0.059183799999999995,211.9707519526012,0.2757264641500064,0.22762675071408703,3.9774510550390745,196.88367504686994,3.510909938056728,1.0823648444097134,-0.07340010000000001,0.21291563352309226,0.2779400265065383,0.5702179230906996,-0.8214934693508701,-2.267005751986975,0.19993631377715218,,,,,,,,,,,0.8461766329437584,-1.7803442820234106,1.9712028451363115,0.37317000000007283,0.004753732360607943,0.013550000000122964,-12.24729086793252,-24.456276024574105,27.35151861586302,False,,
2023-04-19 07:11:08.063668-07:00,62.393967,2.67,1.84,1.89,0.43,17.07,887.18,51.48,21.0,0.0,-0.0012897,-0.00038182,-0.0445615,32.6911061,-103.075268,1156.5232199999998,-22.6560123,0.522260501,1.04780334,2.12886,60.5586,15555.9,23.8705,11882.0,0.32249,-1.0,14.0,-1177.0,81.0,,0.0,,2023-04-19 14:11:08.063668+00:00,1.064925569074428,0.014069149353673897,2.6369161279901245,2.4525383184289486,0.9687014311397174,0.3854385,201.55298513096852,0.2711442383741967,0.17059941341994894,2.17212693627773,173.22166931608248,1.8122083788232763,0.5324176399075949,0.29682888,0.1565437590996522,0.2698265463679076,0.2838741676435288,-0.9588615421137161,-1.5865173063823836,0.24840322697290523,,,,,,,,,,,0.8573105315102845,-1.7803442711711432,1.9760078621630928,0.3414299999999457,0.004805017026781266,-0.03174000000012711,-12.236156969365993,-24.456276013721837,27.346534951220235,False,,
2023-04-19 07:11:09.064055-07:00,63.394354,2.9,0.84,2.76,-0.34,16.93,887.19,52.0,17.0,0.0,0.000112473,-0.000377194,-0.00899424,32.6911063,-103.075268,1156.51174,-22.626178,0.523745024,1.05792045,2.13331,60.4863,15579.7,23.8786,11873.0,0.402111,-1.0,9.0,-1202.0,81.0,,0.0,,2023-04-19 14:11:09.064055+00:00,1.0654515385737129,0.014077831412925363,2.8846091701563163,2.870360489898651,-0.28635768293986547,-0.34899424,174.30281409295492,0.2764547908345641,0.18626396366786005,2.58678400690714,168.20322878070743,2.5022518683781456,-0.4843073176934731,-0.249695416,0.17285307169430184,0.274674125205853,0.9583040807478933,0.2857503960136105,0.25090578343313025,0.16031563616328004,,,,,,,,,,,0.8795783361890084,-1.7803442639789429,1.9857703159670175,0.3299500000000535,0.009762453803924709,-0.011479999999892243,-12.21388916468727,-24.456276006529638,27.33657851002613,False,,
2023-04-19 07:11:10.064521-07:00,64.39482,2.47,-1.61,1.81,0.48,16.75,887.2,52.47,23.0,0.0,-0.000666891,3.05008e-05,-0.00791761,32.6911064,-103.075267,1156.53433,-22.5965789,0.524990515,1.03813243,2.1294,60.8399,15603.8,23.8871,11822.0,0.416492,-1.0,10.0,-1183.0,81.0,,0.0,,2023-04-19 14:11:10.064521+00:00,1.0661250981791819,0.014088997704599766,2.4230507212537913,1.0524558050515076,-2.1825470387100254,0.47208238999999996,115.74403834983809,0.27066370442219834,0.12995974053407938,2.23320107553977,138.2616111550157,1.5380484695220116,-1.4053883241466294,0.223582196,0.14322778966373476,0.27155859998423415,0.0456880505455514,0.9989557557956944,1.472232918532033,0.2709919140380006,,,,,,,,,,,0.89071224280805,-1.6866419391322185,1.9073880911675625,0.35254000000009,-0.078382224799455,0.022590000000036525,-12.202755258068228,-24.362573681682914,27.247793163552544,False,,
2023-04-19 07:11:11.063790-07:00,65.394089,1.26,0.15,1.23,-0.2,17.28,887.21,50.81,22.0,0.0,-0.000175256,0.000538647,-0.0123508,32.6911063,-103.075267,1156.5146699999998,-22.5649402,0.529570501,1.04388322,2.1298,60.3268,15615.8,23.8945,11822.0,0.431708,-1.0,10.0,-1183.0,81.0,,0.0,,2023-04-19 14:11:11.063790+00:00,1.064191542247106,0.014056340432127295,1.2396785253479066,1.1939357900685017,-0.3336467823945899,-0.2123508,164.38691594235348,0.26823507255426854,0.13308710454298195,1.892632546831853,159.47268711405286,1.7643015680465772,-0.6641277838648653,-0.10230812,0.14893435835193777,0.2711985061366777,0.9509324469642878,0.30939858000726506,-0.08566825874938389,0.13715663402965356,,,,,,,,,,,0.8795783365929998,-1.6866419358234237,1.9022142544629126,0.3328799999999319,-0.005173836704649881,-0.019660000000158107,-12.213889164283279,-24.36257367837412,27.252781229658083,False,,
2023-04-19 07:11:12.063749-07:00,66.394048,4.25,0.42,4.14,-0.87,16.47,887.16,53.49,17.0,0.0,-0.000576415,0.000289688,-0.0134277,32.6911063,-103.075267,1156.49612,-22.5431647,0.53398635,1.06832889,2.13116,60.7219,15622.6,23.9028,11874.0,0.461622,-1.0,10.0,-1166.0,81.0,,0.0,,2023-04-19 14:11:12.063749+00:00,1.0671076975050622,0.0141061622299718,4.1616933592177805,3.9849756263985427,-1.1998586888325296,-0.8834277,163.24318219052185,0.288671820039634,0.2320936214540354,3.838199486212912,170.42083282108186,3.734640974421069,-0.6755030289923412,-0.4048665000000001,0.22183870254614116,0.28472461971217866,0.44904860502592026,0.89350733087327,3.0335953959651225,0.23167107640317447,,,,,,,,,,,0.879578334035307,-1.686641930918901,1.9022142489315352,0.31433000000015454,-5.531377356149392e-09,-0.018549999999777356,-12.213889166840971,-24.362573673469598,27.252781226419977,False,,
2023-04-19 07:11:13.064331-07:00,67.39463,2.95,0.1,2.94,-0.15,16.77,887.18,52.46,21.0,0.0,0.000355639,5.24768e-05,-0.017135,32.6911063,-103.075267,1156.48135,-22.5138786,0.529752536,1.04644775,2.13119,60.4197,15613.3,23.9106,11883.0,0.409504,-1.0,7.0,-1201.0,81.0,,0.0,,2023-04-19 14:11:13.064331+00:00,1.0660275202013676,0.01408767438368043,2.9416244122353574,2.754276416392836,-1.0330128773453158,-0.167135,159.44105099275353,0.2777043379701012,0.1821164556056905,3.466736701965078,166.43270368614958,3.2625896117781394,-0.7937578866673689,-0.36163176,0.2027579634805908,0.2813177558511216,0.14597577093815786,-0.9892881654497897,-3.3435107110960494,0.27535707511274216,,,,,,,,,,,0.8795783319988045,-1.6866419270137905,1.9022142445273065,0.2995600000001559,-4.40422875946922e-09,-0.014769999999998618,-12.213889168877474,-24.362573669564487,27.25278122384171,False,,
2023-04-19 07:11:14.064335-07:00,68.394634,4.02,0.92,3.91,-0.22,17.33,887.18,50.69,24.0,0.0,-3.92789e-05,-0.000601016,-0.016278,32.6911063,-103.075267,1156.4445999999998,-22.4943618,0.528932195,1.03466223,2.12969,60.6456,15629.4,23.9192,11859.0,0.474915,-1.0,11.0,-1178.0,81.0,,0.0,,2023-04-19 14:11:14.064335+00:00,1.0639723859018884,0.01405313429841104,4.0161904397564845,3.963900296219206,-0.6459722053035064,-0.236278,170.74422623851,0.2863188355468935,0.23133195320337113,3.3525926852838475,172.55976528807088,3.3115664021249644,-0.41280710913658786,-0.27639778000000004,0.20473324180393931,0.2802277069456099,0.9978712332484669,-0.06521504316631045,-0.6278922849505444,0.20386599465849267,,,,,,,,,,,0.8795783269316774,-1.6866419172972833,1.9022142335689176,0.2628099999999449,-1.095838886300271e-08,-0.036750000000211,-12.213889173944601,-24.36257365984798,27.252781217426595,False,,
2023-04-19 07:11:16.067784-07:00,70.398083,3.74,0.44,3.71,-0.15,16.82,887.2,52.4,21.0,0.0,-0.000378689,-0.00101775,-0.0204186,32.6911062,-103.075266,1156.3912599999999,-22.4480213,0.534909323,1.0549993,2.12818,60.3892,15642.1,23.9272,11888.0,0.445911,-1.0,10.0,-1231.0,81.0,,0.0,,2023-04-19 14:11:16.067784+00:00,1.0658677310140525,0.01408466993997863,3.7351231101011497,3.595873764492782,-1.0103645468068414,-0.1704186,164.3057590600132,0.2843512302161463,0.215896191836356,3.5364968422967173,185.1513109029367,3.42440207707468,0.1604646801698601,0.02515658,0.21083926797554864,0.28045048030235475,0.9372244618650488,-0.3487266953959356,-1.0437889965246867,0.18831325222413545,,,,,,,,,,,0.8684444170307387,-1.5929395766261019,1.8142911012992387,0.20947000000001026,-0.08792313226967896,-0.05333999999993466,-12.225023083845539,-24.268871319176796,27.174055724299205,False,,
2023-04-19 07:11:17.063577-07:00,71.393876,5.6,2.7,4.9,0.06,16.01,887.13,55.18,24.0,0.0,-0.000275094,-0.00375487,-0.022111,32.691106,-103.075266,1156.38979,-22.4139817,0.528329312,1.05495073,2.12676,59.6987,15658.1,23.9355,11839.0,0.571028,-1.0,11.0,-1205.0,81.0,,0.0,,2023-04-19 14:11:17.063577+00:00,1.0687691257206033,0.014134608998482434,5.590878267055028,5.555564045303175,0.6273977490897269,0.037889,186.44319529779665,0.2973344359477095,0.30259849574564346,5.1831617840412925,181.69627062376276,5.165987572853022,0.15418799501766048,0.19128336,0.2847997109327256,0.29527072619446015,0.9973270033912546,-0.07306742301888344,-0.22368954826607773,0.28328359467281605,,,,,,,,,,,0.84617661103478,-1.5929395798275339,1.8037381633827638,0.20800000000008367,-0.010552937916474825,-0.0014699999999265856,-12.247290889841498,-24.268871322378228,27.184080808490602,False,,
2023-04-19 07:11:18.064439-07:00,72.394738,4.71,0.06,4.68,-0.53,16.39,887.13,53.88,18.0,0.0,0.000534609,-0.00560439,-0.0697231,32.6911061,-103.075266,1156.38369,-22.4023063,0.543094015,1.08675648,2.12913,60.0154,15660.9,23.9446,11837.0,0.680027,-1.0,11.0,-1177.0,81.0,,0.0,,2023-04-19 14:11:18.064439+00:00,1.0673664446824953,0.014110993529273905,4.67497908782718,4.344065712545516,-1.7275770769224337,-0.5997231000000001,158.3129431267269,0.29471609170394164,0.24821648159204554,4.259593143742514,163.91213181466895,4.032250698923284,-1.0638452785975185,-0.19179684000000002,0.2354036528175784,0.2889525535675678,0.9954810842816924,0.09496004863807771,-0.6761351289555391,0.23329547240719395,,,,,,,,,,,0.8573105127587985,-1.5929395765200762,1.8089880623516323,0.20190000000002328,0.005249898968868516,-0.0061000000000603904,-12.236156988117479,-24.268871319070772,27.179066447166136,False,,
