Timestamp,Seconds,S,Um,Vm,Wm,T,P,H,MD,Sts,Vx,Vy,Vz,Lat,Lon,Alt,Yaw,Roll,Pitch,CH4,C2H6,H20,T_a,Batt,R,C2C1,Power,Current,SOC,Lat_a,Lon_a,TS,Timestamp_UTC,Rho,Rho_err,Sc,V,U,W,WD,V_err,U_err,Sc_avg,WD_avg,V_avg,U_avg,W_avg,U_err_avg,V_err_avg,Nx,Ny,cross_wind,cross_wind_err,CH4_sub,CH4_res,CH4_adj,CH4_adj_err,BG_Samples_CH4,C2H6_sub,C2H6_res,C2H6_adj,C2H6_adj_err,BG_Samples_C2H6
2023-04-19 07:10:05.669701-07:00,0.0,3.45,1.94,2.85,-0.13,16.71,887.15,52.03,25.0,0.0,-0.000696609,0.000472092,0.00278551,32.6911159,-103.075253,1156.2234099999998,-25.5573686,0.533918142,1.04556597,,,,,,,,,,,,,,2023-04-19 14:10:05.669701+00:00,1.0662121289544402,0.0140912554530568,3.447983931355319,3.4085546968863567,0.5199500641585111,-0.12721449,188.67319117482845,0.2795280959666588,0.2010009499756097,,,,,,,,0.5610074448577469,0.8278107554351912,,,,,,,,,,,,
2023-04-19 07:10:05.863445-07:00,0.193744,3.11,1.64,2.61,-0.42,16.75,887.17,51.88,19.0,0.0,0.000197063,-0.000212286,0.00245158,32.6911159,-103.075253,1156.22012,-25.5440015,0.53383962,1.04081906,,,,,,,,,,,,,,2023-04-19 14:10:05.863445+00:00,1.0660890479617051,0.014088867868883841,3.0822945414698664,3.061846465013129,0.3544514988845989,-0.41754842,186.6033935077731,0.27821444954641145,0.18659057780010718,,,,,,,,0.7328962796696432,0.68034038778129,,,,,,,,,,,,
2023-04-19 07:10:06.062895-07:00,0.393194,3.47,1.48,3.1,-0.45,16.74,887.16,52.38,18.0,0.0,-0.000172314,-0.000358939,0.00120992,32.6911158,-103.075253,1156.2120599999998,-25.5272825,0.530636213,1.04603755,2.17984,57.6695,15647.8,23.3845,11888.0,-0.296743,-1.0,13.0,-1200.0,81.0,,0.0,,2023-04-19 14:10:06.062895+00:00,1.0661138064487086,0.014089443047273808,3.4348121143065944,3.4348120676371696,-0.0005662167505583948,-0.44879008000000004,179.9905549913172,0.28097949274015044,0.20221573183698713,3.216160746066773,192.35976647014786,3.1045385968840784,0.657878847338015,-0.31211456000000004,0.18854194328968557,0.2779101999142919,0.9015002463310241,-0.43277858757695353,-0.7504998861064378,0.16182824311680233,,,,,,,,,,
2023-04-19 07:10:06.263440-07:00,0.593739,3.08,2.34,1.98,-0.31,16.67,887.18,52.2,26.0,0.0,-0.000327955,-0.000391357,0.00140688,32.6911158,-103.075253,1156.21426,-25.5150885,0.533830311,1.03533736,,,,,,,,,,,,,,2023-04-19 14:10:06.263440+00:00,1.0663953442025411,0.014093860406417478,3.06479803071932,2.7944550936481587,1.258573676303809,-0.30859312,204.24596785657653,0.27528174160151936,0.17586592717340024,,,,,,,,0.7664613808587519,-0.6422903951111952,,,,,,,,,,,,
2023-04-19 07:10:06.463066-07:00,0.793365,3.06,2.26,2.05,-0.26,16.42,887.14,53.02,19.0,0.0,-0.000380386,-0.000201307,0.00157331,32.6911158,-103.075253,1156.2018099999998,-25.4985671,0.535936559,1.0464913,,,,,,,,,,,,,,2023-04-19 14:10:06.463066+00:00,1.0672678939325613,0.014109175973005095,3.050915112482765,2.823024661235577,1.1569852140937147,-0.25842669,202.28572482024404,0.2755472197167195,0.17703652966232364,,,,,,,,0.4677537321626921,-0.8838588383038734,,,,,,,,,,,,
2023-04-19 07:10:06.663439-07:00,0.993738,3.57,2.97,1.98,-0.15,16.84,887.15,51.69,19.0,0.0,8.75544e-05,-0.00105631,-2.30609e-05,32.6911158,-103.075253,1156.20156,-25.4812609,0.535857224,1.03738952,,,,,,,,,,,,,,2023-04-19 14:10:06.663439+00:00,1.0657341553113349,0.014083217723641947,3.568633628044013,3.064082395632733,1.8293564562381346,-0.1500230609,210.8385699303052,0.2752409752528357,0.18686444925221507,,,,,,,,0.9965824694687149,0.08260376230921902,,,,,,,,,,,,
2023-04-19 07:10:06.863694-07:00,1.193993,2.85,2.32,1.66,0.02,16.87,887.15,51.52,26.0,0.0,-0.000710071,0.000608868,-0.000485844,32.6911158,-103.075253,1156.19326,-25.4646303,0.537601928,1.04594682,,,,,,,,,,,,,,2023-04-19 14:10:06.863694+00:00,1.0656239145532513,0.014081364185019811,2.852907211521993,2.4968342120241687,1.3801805951468242,0.019514156,208.932598471003,0.274035278199485,0.16438709467895443,,,,,,,,0.650936632441949,0.7591320705550089,,,,,,,,,,,,
2023-04-19 07:10:07.063132-07:00,1.393431,2.57,0.86,2.4,-0.32,16.97,887.16,51.2,18.0,0.0,6.89828e-05,-0.00108666,0.000204555,32.6911157,-103.075253,1156.19155,-25.4485843,0.536543226,1.03887533,2.17982,56.5598,15659.3,23.3933,11826.0,-0.302561,-1.0,14.0,-1175.0,81.0,,0.0,,2023-04-19 14:10:07.063132+00:00,1.0652686176458575,0.014075232487372621,2.5483431947140684,2.5355871722677947,-0.2546580646209984,-0.319795445,174.26481230605742,0.27706676116100065,0.16597040619985418,2.606907865503815,187.2226545232117,2.4111384889206464,0.4779575672036621,-0.16324964798000002,0.1618861964851808,0.2752288156806191,0.9979911196309355,0.06335396702489796,0.6297525959492017,0.16124021408223393,,,,,,,,,,
2023-04-19 07:10:07.263198-07:00,1.593497,2.22,0.99,1.96,-0.37,17.12,887.18,50.67,19.0,0.0,-0.000166402,-0.000186432,0.00198879,32.6911157,-103.075253,1156.19326,-25.4343828,0.536017376,1.04290997,,,,,,,,,,,,,,2023-04-19 14:10:07.263198+00:00,1.0647421320039292,0.014066066657261518,2.1956466358811797,2.1950282872581486,0.052105352823872915,-0.36801121,181.35982586882136,0.2751040760860131,0.15336009856345686,,,,,,,,0.7460472797006197,-0.6658929767247177,,,,,,,,,,,,
2023-04-19 07:10:07.462883-07:00,1.793182,1.87,0.2,1.86,-0.0,17.44,887.18,50.11,26.0,0.0,0.0005866,-0.00160972,0.00206732,32.6911157,-103.075253,1156.18984,-25.4204674,0.537110954,1.04517872,,,,,,,,,,,,,,2023-04-19 14:10:07.462883+00:00,1.0635696295701176,0.014046369838548133,1.8690086573578228,1.7641603774203887,-0.6171965035695224,0.00206732,160.71746603987157,0.274696987703761,0.13884893373142337,,,,,,,,0.9395593911886736,0.34238596704475055,,,,,,,,,,,,
2023-04-19 07:10:07.663817-07:00,1.994116,2.38,0.98,2.16,0.18,17.28,887.18,50.21,18.0,0.0,-0.000218101,0.000469151,0.00127599,32.6911156,-103.075253,1156.1896,-25.4071469,0.537444077,1.03140584,,,,,,,,,,,,,,2023-04-19 14:10:07.663817+00:00,1.0641555578169628,0.014056211240651166,2.3723919611132653,2.3720246528037254,-0.0417452230346457,0.18127599,178.991756598154,0.2759117507856745,0.15986432738398804,,,,,,,,0.9068014864253133,0.42155790138110594,,,,,,,,,,,,
2023-04-19 07:10:07.863580-07:00,2.193879,2.23,1.4,1.73,0.19,17.0,887.19,51.04,20.0,0.0,0.000412152,-0.00102192,0.00234399,32.6911156,-103.075253,1156.19814,-25.3949529,0.537359242,1.0485756,,,,,,,,,,,,,,2023-04-19 14:10:07.863580+00:00,1.0651944935704383,0.014073510611384921,2.224614766556804,2.1622112789437726,0.5232143392443657,0.19234399,193.60301347075887,0.2741862139790736,0.1523339081659108,,,,,,,,0.9274139331885531,0.3740366245807192,,,,,,,,,,,,
2023-04-19 07:10:08.063401-07:00,2.3937,3.12,1.27,2.82,-0.41,16.8,887.17,51.81,23.0,0.0,7.93245e-05,-0.000680574,0.00323999,32.6911155,-103.075253,1156.20437,-25.3803301,0.537200056,1.03711755,2.18068,56.6228,15645.4,23.4009,11895.0,-0.223925,-1.0,14.0,-1181.0,81.0,,0.0,,2023-04-19 14:10:08.063401+00:00,1.0659052078085818,0.014085776394006102,3.092099907405176,3.0914937979789734,-0.06122037595965316,-0.40676000999999995,178.86552877484507,0.27921922160257395,0.18821116307271987,2.8542246112812317,179.4696394020669,2.830839531453772,-0.07910309698136835,-0.165492758,0.17825733172404035,0.27828581851681106,0.9932758663378122,0.11577155674373851,0.24915950226394595,0.1759076871171387,,,,,,,,,,
2023-04-19 07:10:08.263687-07:00,2.593986,3.18,1.08,2.97,-0.38,16.54,887.17,52.68,18.0,0.0,-0.000162316,-0.000424716,0.00327725,32.6911155,-103.075253,1156.2018099999998,-25.3691604,0.538490421,1.04219941,,,,,,,,,,,,,,2023-04-19 14:10:08.263687+00:00,1.0668618695988756,0.014101867123289412,3.1598613774564375,3.1458911718273517,-0.2968040763864697,-0.37672275,174.61029307040423,0.28008666614179234,0.19046709134091394,,,,,,,,0.9341071514637429,-0.35699275844797207,,,,,,,,,,,,
2023-04-19 07:10:08.463080-07:00,2.793379,3.45,0.98,3.28,-0.42,16.3,887.15,53.49,22.0,0.0,9.97051e-05,-0.00111603,0.00239899,32.6911154,-103.075253,1156.2058299999999,-25.3563309,0.540343589,1.03515878,,,,,,,,,,,,,,2023-04-19 14:10:08.463080+00:00,1.0677223966098945,0.014116666345412603,3.4221550438744757,3.382576755715039,-0.5189601487704388,-0.41760101,171.27760509617227,0.282025240074941,0.20041016865666902,,,,,,,,0.9960329950413853,0.0889846772702339,,,,,,,,,,,,
2023-04-19 07:10:08.663463-07:00,2.993762,3.27,0.83,3.13,-0.52,16.29,887.14,53.47,23.0,0.0,-0.000656809,-0.000377213,0.00343112,32.6911154,-103.075253,1156.2107199999998,-25.3414484,0.540036796,1.03748164,,,,,,,,,,,,,,2023-04-19 14:10:08.663463+00:00,1.0677472500209086,0.014117243820745275,3.2379272495412583,3.183682543769083,-0.5902019432548818,-0.51656888,169.49754221072718,0.28105130838925524,0.1920925482038157,,,,,,,,0.49802240189917707,-0.8671641639312446,,,,,,,,,,,,
2023-04-19 07:10:08.863404-07:00,3.193703,3.79,1.53,3.44,-0.45,16.67,887.13,52.17,17.0,0.0,-0.000212908,-0.00162247,0.00203308,32.6911154,-103.075253,1156.20815,-25.3273561,0.540395311,1.03681452,,,,,,,,,,,,,,2023-04-19 14:10:08.863404+00:00,1.0663352439216398,0.014093643855931948,3.763286719451137,3.762237128879925,-0.08887473698773389,-0.44796692,178.64676247874985,0.28308850641636063,0.21675567924679517,,,,,,,,0.9914996751589913,-0.13010916247372734,,,,,,,,,,,,
2023-04-19 07:10:09.063828-07:00,3.394127,3.42,1.93,2.82,-0.22,16.6,887.13,52.48,23.0,0.0,-0.000224074,-8.56494e-05,0.00256411,32.6911153,-103.075253,1156.22256,-25.311894,0.538982574,1.03195522,2.17741,57.2258,15656.8,23.4099,11864.0,-0.265911,-1.0,11.0,-1194.0,81.0,,0.0,,2023-04-19 14:10:09.063828+00:00,1.0665928572678849,0.014097977212173856,3.417086545209514,3.3743397865648164,0.538805588554537,-0.21743589,189.07225020090652,0.2791646956895138,0.20011743105581767,3.3852538997198875,182.1982397170234,3.351479998881147,0.1221523034589,-0.346696354,0.19928346181879603,0.28019076703031776,0.35704307469496677,-0.9340879202796514,-3.0869633480057006,0.2457885465505504,,,,,,,,,,
2023-04-19 07:10:09.262963-07:00,3.593262,3.42,1.54,3.03,-0.4,16.59,887.14,52.51,22.0,0.0,1.80377e-06,-0.000921692,0.00394556,32.6911153,-103.075253,1156.2260999999999,-25.2970957,0.538439199,1.04441308,,,,,,,,,,,,,,2023-04-19 14:10:09.262963+00:00,1.066641692710885,0.014098639825946571,3.3979756195683377,3.396574601921758,0.09756682202920561,-0.39605444,181.64537247128146,0.28040064499443024,0.2011235536323579,,,,,,,,0.9999980850411763,0.0019570166019740637,,,,,,,,,,,,
2023-04-19 07:10:09.463730-07:00,3.794029,3.11,1.89,2.47,-0.16,16.66,887.14,52.21,18.0,0.0,-0.000531318,-4.05501e-05,0.00454436,32.6911153,-103.075253,1156.2425799999999,-25.2838891,0.539334742,1.03952837,,,,,,,,,,,,,,2023-04-19 14:10:09.463730+00:00,1.0663840586800033,0.014094306054682908,3.1099933648291893,3.0405659332701527,0.6534657869533731,-0.15545564,192.12927122345195,0.2772486796620291,0.18632809695519365,,,,,,,,0.07609852667626325,-0.9971003029974979,,,,,,,,,,,,
2023-04-19 07:10:09.663244-07:00,3.993543,3.27,1.22,2.99,-0.51,16.48,887.16,52.82,24.0,0.0,-0.000464447,-0.000276577,0.00291717,32.6911152,-103.075253,1156.23464,-25.2735042,0.53829898,1.04942439,,,,,,,,,,,,,,2023-04-19 14:10:09.663244+00:00,1.0670708536802684,0.01410554228259223,3.229067599153548,3.2243873382806076,-0.1737925563393193,-0.50708283,176.9147769860624,0.2801400315962735,0.19393374028727545,,,,,,,,0.5116483835234913,-0.8591949322696208,,,,,,,,,,,,
2023-04-19 07:10:09.863529-07:00,4.193828,2.81,0.7,2.68,-0.46,16.69,887.18,52.12,22.0,0.0,-0.000231628,-0.000580717,0.000437426,32.6911152,-103.075253,1156.2175499999998,-25.2612134,0.536641353,1.0499234,,,,,,,,,,,,,,2023-04-19 14:10:09.863529+00:00,1.0663217590973657,0.014092622760627201,2.769381701003616,2.7218573093694434,-0.5108500692823847,-0.459562574,169.37014030923638,0.27833645002249485,0.17364973959112123,,,,,,,,0.9288396020492754,-0.3704821097771709,,,,,,,,,,,,
2023-04-19 07:10:10.063687-07:00,4.393986,2.0,-0.17,1.99,-0.03,17.28,887.2,50.2,18.0,0.0,-0.000351638,-0.000272468,-0.00180468,32.6911152,-103.075253,1156.1969199999999,-25.246482,0.536311878,1.05642993,2.17783,57.4003,15620.1,23.4181,11834.0,-0.353157,-1.0,14.0,-1170.0,81.0,,0.0,,2023-04-19 14:10:10.063687+00:00,1.0641795474370583,0.014056297367948459,1.9971890046006202,1.7271381445305578,-1.0028747428294114,-0.03180468,149.8581099189301,0.27499746498626804,0.13819554952636384,2.5756279876444608,166.09200730425727,2.4717779699331004,-0.5866559999537383,-0.2128475388,0.16542739973991277,0.2776216106948586,0.6124994048738366,-0.7904710488241781,-2.313195375190846,0.18423768247648,,,,,,,,,,
2023-04-19 07:10:10.262968-07:00,4.593267,1.74,0.58,1.64,0.14,17.4,887.21,49.86,25.0,0.0,0.000102956,-0.000254059,-0.00308954,32.6911151,-103.075253,1156.17312,-25.233001,0.536049606,1.05006195,,,,,,,,,,,,,,2023-04-19 14:10:10.262968+00:00,1.0637520207015212,0.014048957922775778,1.7392770665269177,1.730514089667795,-0.17437230172169693,0.13691046,174.24610956652816,0.27365674779991794,0.13834383046191484,,,,,,,,0.9267911978420067,0.37557699024644525,,,,,,,,,,,,
2023-04-19 07:10:10.463774-07:00,4.794073,3.15,0.29,3.13,-0.2,16.57,887.18,52.51,20.0,0.0,-3.92267e-05,-0.000206994,-0.00269807,32.6911151,-103.075253,1156.16104,-25.2205843,0.535229432,1.04945214,,,,,,,,,,,,,,2023-04-19 14:10:10.463774+00:00,1.0667634221206008,0.01410005194759186,3.1432245669376018,2.954992967817099,-1.0713903295958789,-0.20269807,160.07089974052917,0.2809773590693384,0.18301413883288864,,,,,,,,0.9825132630940726,-0.18619260953173647,,,,,,,,,,,,
2023-04-19 07:10:10.663462-07:00,4.993761,3.17,0.32,3.16,0.08,16.54,887.15,52.56,18.0,0.0,9.6368e-05,-0.000475028,-2.58054e-05,32.6911151,-103.075253,1156.1444299999998,-25.2024798,0.531778175,1.04736923,,,,,,,,,,,,,,2023-04-19 14:10:10.663462+00:00,1.0668378186983807,0.014101780396685434,3.1756811622885466,2.994982127448413,-1.0559511829525612,0.0799741946,160.57870266509107,0.2811587926875664,0.18468668679285918,,,,,,,,0.98003641552998,0.19881806818080786,,,,,,,,,,,,
2023-04-19 07:10:10.863653-07:00,5.193952,3.36,0.4,3.29,-0.53,16.24,887.15,53.63,25.0,0.0,-0.000500628,-0.000298214,0.00172601,32.691115,-103.075253,1156.14053,-25.1918557,0.531811623,1.03902135,,,,,,,,,,,,,,2023-04-19 14:10:10.863653+00:00,1.0679437703401429,0.014120392819345818,3.314100619715687,3.1470421453193156,-1.0389363085309418,-0.52827399,161.73033941325622,0.282007364227336,0.19092170751605297,,,,,,,,0.5117640512589402,-0.8591260418815372,,,,,,,,,,,,
2023-04-19 07:10:11.064365-07:00,5.394664,3.87,0.93,3.74,-0.36,16.51,887.11,52.73,19.0,0.0,-0.000511445,-0.000455801,0.00238436,32.691115,-103.075253,1156.1299099999999,-25.1754121,0.533390589,1.04508564,2.17933,56.9402,15595.3,23.4266,11896.0,-0.396804,-1.0,13.0,-1180.0,81.0,,0.0,,2023-04-19 14:10:11.064365+00:00,1.0669002039909041,0.014103465899041111,3.853546515819452,3.7798940202824927,-0.7498146070975774,-0.35761564,168.77993903667868,0.2852064134922742,0.2177819484878899,3.7216718895156773,164.43780960631847,3.579637568785279,-0.9735956017647533,-0.17717614908,0.20947446801436942,0.28469779406991363,0.6653281000257388,-0.746551082857791,-3.3201428151306396,0.1837805716298875,,,,,,,,,,
2023-04-19 07:10:11.263223-07:00,5.593522,3.97,0.37,3.95,-0.1,16.86,887.11,51.57,19.0,0.0,-1.09411e-05,-0.00106111,0.00394347,32.6911149,-103.075253,1156.1317399999998,-25.1609246,0.530936935,1.03284927,,,,,,,,,,,,,,2023-04-19 14:10:11.263223+00:00,1.065612610213459,0.014081809048729637,3.966296674690251,3.731461892446943,-1.3445078865054023,-0.09605653,160.1850635729206,0.28682936184747315,0.21573964963483488,,,,,,,,0.9999468459284598,-0.010310447018681668,,,,,,,,,,,,
2023-04-19 07:10:11.463783-07:00,5.794082,4.3,1.19,4.13,0.01,16.45,887.11,53.03,27.0,0.0,-0.000888455,0.000578719,0.00609122,32.6911149,-103.075254,1156.13186,-25.1480938,0.536212002,1.05318088,,,,,,,,,,,,,,2023-04-19 14:10:11.463783+00:00,1.067121246850847,0.014107185294854533,4.298734475064451,4.244807658429228,-0.6787680237372843,0.01609122,170.91500334364588,0.2882870380949182,0.2382423476402103,,,,,,,,0.5457991090407797,0.8379160653492038,,,,,,,,,,,,
2023-04-19 07:10:11.663280-07:00,5.993579,3.55,0.39,3.51,-0.43,16.34,887.14,53.34,19.0,0.0,1.09652e-05,-0.00166686,0.00773821,32.6911148,-103.075254,1156.1429699999999,-25.1289811,0.535490539,1.0393626,,,,,,,,,,,,,,2023-04-19 14:10:11.663280+00:00,1.0675628313449577,0.01411413969408138,3.5300186745977964,3.3417424823837427,-1.1374484711145925,-0.42226178999999997,161.20266530710865,0.28350347453293256,0.19922032442541365,,,,,,,,0.9999783633124181,0.0065782145767339685,,,,,,,,,,,,
2023-04-19 07:10:11.863241-07:00,6.19354,2.21,-0.07,2.2,-0.17,16.7,887.15,52.14,20.0,0.0,-0.000648882,0.00130689,0.00933546,32.6911148,-103.075254,1156.1560299999999,-25.1187536,0.536380711,1.04869109,,,,,,,,,,,,,,2023-04-19 14:10:11.863241+00:00,1.0662489139166258,0.014091874125808923,2.2025724032584173,1.963537974561623,-0.9979197432910123,-0.16066454000000002,153.05916904776313,0.27576583669243077,0.146211427271987,,,,,,,,0.8956745894862098,0.4447100513241291,,,,,,,,,,,,
2023-04-19 07:10:12.064520-07:00,6.394819,2.84,1.9,2.11,-0.19,16.59,887.15,52.51,26.0,0.0,0.000722681,-0.00144156,0.00880438,32.6911147,-103.075254,1156.1635999999999,-25.1055365,0.540299627,1.06105177,2.17918,56.6523,15582.4,23.4346,11850.0,-0.426943,-1.0,12.0,-1190.0,81.0,,0.0,,2023-04-19 14:10:12.064520+00:00,1.0666537160859184,0.014098683168310379,2.838214669507206,2.715367266564635,0.8259800953262751,-0.18119562,196.9190921941152,0.27534337517766044,0.17382846952824083,2.859100875807986,175.5825316650522,2.744904881827254,-0.19307922101138403,-0.24827875800000002,0.17553808226942477,0.27782701507063734,0.8939551466561964,0.448156441175287,1.0575426398688779,0.1509726829961817,,,,,,,,,,
2023-04-19 07:10:12.262990-07:00,6.593289,2.82,1.18,2.53,-0.39,16.52,887.15,52.8,18.0,0.0,-0.000501542,0.00025937,0.00714162,32.6911147,-103.075254,1156.1594499999999,-25.0932771,0.5399392,1.04003527,,,,,,,,,,,,,,2023-04-19 14:10:12.262990+00:00,1.066911477539041,0.014103019674925395,2.7919084504745637,2.791904277129895,-0.004827336229794288,-0.38285838,179.9009329514281,0.2773728908097372,0.176798958684779,,,,,,,,0.4593554650608204,0.888252529812754,,,,,,,,,,,,
2023-04-19 07:10:12.463378-07:00,6.793677,2.93,1.55,2.49,-0.1,16.67,887.16,52.17,20.0,0.0,0.000408492,-0.000279276,0.00558654,32.6911146,-103.075254,1156.16311,-25.0796224,0.541502607,1.06131083,,,,,,,,,,,,,,2023-04-19 14:10:12.463378+00:00,1.0663713040901805,0.01409377378515797,2.9327901812019457,2.9119724084963736,0.34881935025220384,-0.09441346,186.83079882484597,0.2771494981404257,0.18163123143670348,,,,,,,,0.5643830797392075,0.8255130158296036,,,,,,,,,,,,
2023-04-19 07:10:12.662930-07:00,6.993229,3.27,0.62,3.2,-0.26,16.57,887.12,52.51,26.0,0.0,0.000860367,-0.00146482,0.0068942,32.6911145,-103.075254,1156.17996,-25.0679414,0.539816866,1.04347089,,,,,,,,,,,,,,2023-04-19 14:10:12.662930+00:00,1.0666912768904027,0.01409979184337999,3.2578788913794385,3.159803860404046,-0.7933564360811657,-0.2531058,165.90565327402055,0.2813413599607817,0.19178472362804685,,,,,,,,0.8622663524683551,0.5064550694789405,,,,,,,,,,,,
2023-04-19 07:10:12.863853-07:00,7.194152,3.04,-0.07,3.03,-0.21,16.62,887.13,52.39,18.0,0.0,-0.000140445,-0.000484355,0.00809522,32.6911145,-103.075254,1156.1959499999998,-25.0551752,0.541929634,1.04996247,,,,,,,,,,,,,,2023-04-19 14:10:12.863853+00:00,1.0665192407542867,0.014096738834336101,3.0304369691349673,2.7147494691189435,-1.3467306871896632,-0.20190478,153.61494773636088,0.2802368015531669,0.17389650988206198,,,,,,,,0.9604386595768011,-0.27849161780979625,,,,,,,,,,,,
2023-04-19 07:10:13.064534-07:00,7.394833,2.07,0.27,2.05,-0.09,16.8,887.17,51.8,20.0,0.0,0.000147017,-0.0010913,0.00680832,32.6911144,-103.075254,1156.1982699999999,-25.0429574,0.539865866,1.05291136,2.18132,57.7858,15553.8,23.4425,11854.0,-0.406822,-1.0,14.0,-1162.0,81.0,,0.0,,2023-04-19 14:10:13.064534+00:00,1.0659052078085818,0.014085776394006102,2.0666191802084213,1.970479948242236,-0.6229956738056865,-0.08319167999999999,162.4548983244344,0.27500577385972597,0.1467563811364992,2.7286935317585352,172.85589864967886,2.603270872783468,-0.3557715378276357,-0.128246488,0.1701445925443111,0.27749600159354093,0.9910473008433586,0.13351122608639876,-0.005020536220638971,0.16718491321494103,,,,,,,,,,
2023-04-19 07:10:13.263396-07:00,7.593695,2.47,1.64,1.84,0.13,17.05,887.18,50.93,25.0,0.0,-0.000591932,-8.30251e-05,0.00485126,32.6911143,-103.075254,1156.1957,-25.0291964,0.537300228,1.05319038,,,,,,,,,,,,,,2023-04-19 14:10:13.263396+00:00,1.0649989616015867,0.014070382816454678,2.464542693941843,2.3609780942402634,0.7069321953198415,0.13485126,196.66893286778537,0.27412154982578507,0.16052588085209366,,,,,,,,0.13890154760945914,-0.9903061951092184,,,,,,,,,,,,
2023-04-19 07:10:13.463392-07:00,7.793691,2.84,1.44,2.43,-0.24,16.78,887.17,51.93,17.0,0.0,-7.84241e-05,-0.000629285,0.00211856,32.6911143,-103.075254,1156.1849599999998,-25.0152772,0.536604205,1.0569282,,,,,,,,,,,,,,2023-04-19 14:10:13.463392+00:00,1.065978736260816,0.014087012818637543,2.8239899241280066,2.810342991911851,0.2772929126184958,-0.23788144,185.63506104579326,0.27677452276824505,0.17775946722285388,,,,,,,,0.9923237137225452,-0.1236674863652368,,,,,,,,,,,,
2023-04-19 07:10:13.663093-07:00,7.993392,2.98,0.36,2.95,-0.27,16.92,887.18,51.41,21.0,0.0,-0.000399351,-0.000455334,0.00228411,32.6911142,-103.075254,1156.1900899999998,-24.9992635,0.538717559,1.04650176,,,,,,,,,,,,,,2023-04-19 14:10:13.663093+00:00,1.0654762597193106,0.014078405680792995,2.971575705603494,2.8253070435771637,-0.9208160965394614,-0.26771589,161.9483211888462,0.27969889492506095,0.17838502131917672,,,,,,,,0.7518121422269386,-0.659377359939012,,,,,,,,,,,,
2023-04-19 07:10:13.863073-07:00,8.193372,2.95,0.64,2.88,-0.22,16.99,887.17,51.24,24.0,0.0,-0.000442565,-7.373e-05,0.00415747,32.6911142,-103.075254,1156.1921599999998,-24.9891446,0.537122392,1.04779587,,,,,,,,,,,,,,2023-04-19 14:10:13.863073+00:00,1.0652071930933285,0.01407404134221837,2.9502777564916847,2.8806890397017226,-0.6370003901034708,-0.21584253,167.5309617889215,0.2792640094856176,0.18059610334509843,,,,,,,,0.16433212182991958,-0.9864050657487908,,,,,,,,,,,,
2023-04-19 07:10:14.064431-07:00,8.39473,1.1,-0.65,0.85,0.25,17.65,887.18,49.11,18.0,0.0,-0.00035538,-0.000356823,0.00537024,32.6911141,-103.075254,1156.1957,-24.9829002,0.53922805,1.06924291,2.1766,57.1233,15539.1,23.4513,11896.0,-0.42452,-1.0,11.0,-1198.0,81.0,,0.0,,2023-04-19 14:10:14.064431+00:00,1.062801577224142,0.014033474217199842,1.070196361784354,0.4955859294661041,-0.9485329932541543,0.25537024,117.58599720822909,0.27120048058677354,0.11175183601023363,1.9802201943160433,169.6498440378604,1.7953852496079823,-0.3364123446861115,0.051738624,0.14786704346843932,0.27491674872919125,0.7085380013856266,-0.7056726582435101,-1.5053152120074027,0.15573226802215917,,,,,,,,,,
2023-04-19 07:10:14.263782-07:00,8.594081,0.66,0.48,0.37,0.27,18.02,887.18,48.02,22.0,0.0,0.000144232,-0.00196028,0.00338471,32.6911141,-103.075254,1156.19375,-24.9717626,0.538122091,1.06671711,,,,,,,,,,,,,,2023-04-19 14:10:14.263782+00:00,1.061451037733216,0.014010811776157699,0.6043797258706574,0.5360929684182422,0.2790684185930192,0.27338471000000003,207.49967063849164,0.27054890133369447,0.11228238281645485,,,,,,,,0.9973041354243255,0.07337888978131664,,,,,,,,,,,,
2023-04-19 07:10:14.463387-07:00,8.793686,2.32,1.44,1.8,0.21,18.1,887.19,47.72,23.0,0.0,-0.000855746,-0.000258055,0.00349659,32.691114,-103.075254,1156.1965599999999,-24.9563898,0.53892389,1.05754163,,,,,,,,,,,,,,2023-04-19 14:10:14.463387+00:00,1.0611714414058802,0.014005964293611927,2.3046714218300264,2.239251266876678,0.54521933787351,0.21349658999999999,193.6842693648134,0.27387145731480966,0.156319873851233,,,,,,,,0.2887139758393087,-0.957415395820988,,,,,,,,,,,,
2023-04-19 07:10:14.663393-07:00,8.993692,1.62,1.25,1.03,0.09,18.0,887.19,48.02,18.0,0.0,0.000513174,-0.000999814,0.00402712,32.691114,-103.075254,1156.1965599999999,-24.9411621,0.53800668,1.0526474,,,,,,,,,,,,,,2023-04-19 14:10:14.663393+00:00,1.0615359172572993,0.014012077645677062,1.619011182579607,1.4600528996325925,0.6996018436169789,0.09402711999999999,205.60196933607,0.27150123465401804,0.13133080943993225,,,,,,,,0.8896552285636097,0.4566328659759735,,,,,,,,,,,,
2023-04-19 07:10:14.863596-07:00,9.193895,2.02,1.11,1.69,0.07,17.74,887.2,48.83,23.0,0.0,-0.000943495,0.000479686,0.00276582,32.6911139,-103.075254,1156.1872799999999,-24.9273727,0.537969499,1.03269236,,,,,,,,,,,,,,2023-04-19 14:10:14.863596+00:00,1.062496703091013,0.014028040637093007,2.0222672617894513,2.000874657313979,0.2933691937202543,0.07276582000000001,188.341300740899,0.27342028194443335,0.14807921474053318,,,,,,,,0.4532037204647199,0.8914069708931696,,,,,,,,,,,,
2023-04-19 07:10:15.064577-07:00,9.394876,2.68,1.64,2.12,0.01,17.01,887.19,51.11,22.0,0.0,0.000115818,-0.000647739,0.000811897,32.6911139,-103.075254,1156.17385,-24.916119,0.536114666,1.05572236,2.17663,57.6455,15548.7,23.4594,11836.0,-0.466317,-1.0,11.0,-1193.0,81.0,,0.0,,2023-04-19 14:10:15.064577+00:00,1.0651577829799512,0.01407289357386431,2.6796925598911034,2.6129515806161274,0.59433681771485,0.010811897000000001,192.8143612312586,0.27516589866837604,0.17032583565292791,2.763920706317279,190.15402031129872,2.682787504991332,0.3502091211415011,-0.0694221806,0.1754400803299485,0.27688834959704417,0.9843880169856062,0.17601202235968394,0.8169445166055692,0.1702211833086972,,,,,,,,,,
2023-04-19 07:10:15.262974-07:00,9.593273,3.52,2.2,2.75,-0.09,16.75,887.17,52.03,18.0,0.0,-6.72479e-05,-0.00141541,0.00215328,32.6911138,-103.075254,1156.17922,-24.9000769,0.534948308,1.03109448,,,,,,,,,,,,,,2023-04-19 14:10:15.262974+00:00,1.0660890479617051,0.014088867868883841,3.5203275559541796,3.4192355429635186,0.8375765057266694,-0.08784672,193.7641475768304,0.2784198430899853,0.20297837792544302,,,,,,,,0.9988732477277953,-0.04745771774671121,,,,,,,,,,,,
2023-04-19 07:10:15.463661-07:00,9.79396,4.0,1.04,3.84,-0.44,16.57,887.15,52.61,24.0,0.0,-0.00109582,-0.000225095,0.00313098,32.6911138,-103.075255,1156.17788,-24.8896424,0.537351687,1.06462308,,,,,,,,,,,,,,2023-04-19 14:10:15.463661+00:00,1.0667273495055019,0.014099921893886768,3.9783049713720544,3.9208228444304436,-0.6738387550712472,-0.43686902,170.2483226714356,0.2859344896284082,0.2244861638909062,,,,,,,,0.20121126418167454,-0.9795478687468073,,,,,,,,,,,,
2023-04-19 07:10:15.662942-07:00,9.993241,4.59,1.24,4.41,-0.19,16.27,887.13,53.7,21.0,0.0,0.000446767,-0.00312995,0.00270504,32.6911138,-103.075255,1156.17959,-24.8745365,0.537395541,1.04180789,,,,,,,,,,,,,,2023-04-19 14:10:15.662942+00:00,1.06780899866412,0.014118442386754004,4.577854023897396,4.519343446670357,-0.7295767781058294,-0.18729496,170.82961630580425,0.29075949755310376,0.2512031716011803,,,,,,,,0.9899658138537073,0.14130706776721041,,,,,,,,,,,,
2023-04-19 07:10:15.863689-07:00,10.193988,4.62,1.45,4.33,-0.72,16.17,887.12,53.92,18.0,0.0,-0.00235424,9.68368e-05,0.00646317,32.6911137,-103.075255,1156.1908199999998,-24.8604511,0.540285712,1.05459689,,,,,,,,,,,,,,2023-04-19 14:10:15.863689+00:00,1.068166033252756,0.01412461235603657,4.566690383968814,4.538448829414427,-0.5070929755183547,-0.71353683,173.62463263059396,0.2900506531036854,0.2519433023364803,,,,,,,,0.04109818193028811,0.9991551128038254,,,,,,,,,,,,
2023-04-19 07:10:16.064084-07:00,10.394383,3.8,0.88,3.69,-0.22,16.1,887.1,54.16,26.0,0.0,-0.000275299,-0.00302466,0.0165682,32.6911136,-103.075255,1156.2257299999999,-24.8464084,0.538222308,1.04874425,2.17618,58.7622,15573.4,23.4675,11866.0,-0.498473,-1.0,16.0,-1180.0,81.0,,0.0,,2023-04-19 14:10:16.064084+00:00,1.0684004474859916,0.014128877986525245,3.7905712773791262,3.715184227409806,-0.7522212209829124,-0.2034318,168.5539383124856,0.28475441923853884,0.21577581864525672,4.2114543222352285,173.956267740771,4.153083442452392,-0.4422223238015084,-0.258414798,0.2349895381835041,0.28699590826141164,0.9958834066636957,-0.09064347925754036,-0.8168518072009497,0.23307073630550185,,,,,,,,,,
2023-04-19 07:10:16.262863-07:00,10.593162,4.07,2.24,3.4,-0.06,16.62,887.14,52.46,20.0,0.0,-0.00207939,-0.00194741,0.0298523,32.6911135,-103.075255,1156.2550299999998,-24.835872,0.539827284,1.04408293,,,,,,,,,,,,,,2023-04-19 14:10:16.262863+00:00,1.0665312628845354,0.014096782164107714,4.0693256138090526,4.02444810400436,0.6026843364300554,-0.0301477,188.51707985789153,0.2825987913141735,0.22920663482829892,,,,,,,,0.683564017236863,-0.7298905632620561,,,,,,,,,,,,
2023-04-19 07:10:16.463249-07:00,10.793548,4.06,0.92,3.95,-0.2,16.28,887.12,53.51,18.0,0.0,-0.00170551,-0.00330978,0.0423373,32.6911135,-103.075255,1156.30044,-24.8219148,0.540212368,1.06658582,,,,,,,,,,,,,,2023-04-19 14:10:16.463249+00:00,1.0677600688964084,0.014117777875336975,4.052830312121755,3.967992604763012,-0.8249049808305009,-0.15766270000000002,168.2560715970796,0.2868161800975566,0.2268187635063042,,,,,,,,0.8889229622369899,-0.4580567292462967,,,,,,,,,,,,
2023-04-19 07:10:16.663222-07:00,10.993521,4.71,0.06,4.7,-0.3,16.34,887.11,53.41,26.0,0.0,-0.00151915,-0.000161802,0.0390414,32.6911134,-103.075255,1156.28494,-24.8113791,0.539835696,1.04847857,,,,,,,,,,,,,,2023-04-19 14:10:16.663222+00:00,1.0675267300701416,0.01411400936267187,4.700855296915586,4.291178674235723,-1.919329598668209,-0.2609586,155.90230736377913,0.29347344122963087,0.24097132679449734,,,,,,,,0.10590922135092028,-0.9943758026183269,,,,,,,,,,,,
2023-04-19 07:10:16.862916-07:00,11.193215,4.16,0.55,4.12,-0.28,16.43,887.12,53.17,19.0,0.0,-0.000919789,0.00131003,0.0307622,32.6911133,-103.075255,1156.30496,-24.7984169,0.544082605,1.10851996,,,,,,,,,,,,,,2023-04-19 14:10:16.862916+00:00,1.0672069781776623,0.014108468942744146,4.158072464999678,3.97208583930204,-1.2296750421980194,-0.24923780000000004,162.7985641566026,0.28823771427806105,0.22684257026526897,,,,,,,,0.8184186942491218,0.5746223463315384,,,,,,,,,,,,
2023-04-19 07:10:17.063777-07:00,11.394076,3.38,1.11,3.18,0.23,16.28,887.1,53.62,18.0,0.0,0.000609102,-0.00364537,0.025151,32.6911133,-103.075255,1156.3191199999999,-24.7845384,0.540557996,1.05804811,2.17419,58.3176,15557.3,23.4761,11896.0,-0.526725,-1.0,13.0,-1206.0,81.0,,0.0,,2023-04-19 14:10:17.063777+00:00,1.0677359963905717,0.014117690939673022,3.3644725869913357,3.348766734802175,-0.32471086292046103,0.255151,174.4616681219078,0.2810425804777183,0.20037248151890857,3.7672503309036145,170.84977392579893,3.6260855647070884,-0.6869641841703044,-0.037286520000000004,0.21225516922458967,0.2843967919802068,0.9863262565862723,0.16480447678540458,-0.07997567791087878,0.20663463496707815,,,,,,,,,,
2023-04-19 07:10:17.263317-07:00,11.593616,3.25,1.86,2.65,0.21,16.36,887.14,53.33,26.0,0.0,-0.00319695,0.00139362,0.0177852,32.6911132,-103.075255,1156.3185099999998,-24.7696163,0.543788166,1.0707963,,,,,,,,,,,,,,2023-04-19 14:10:17.263317+00:00,1.067489081710655,0.014112898431423729,3.2384087628565004,3.1868784264050145,0.5754104714550023,0.2277852,190.2348352644023,0.27772754304255426,0.19347936341144928,,,,,,,,0.39960414079379825,0.9166878043589597,,,,,,,,,,,,
2023-04-19 07:10:17.463064-07:00,11.793363,3.38,0.91,3.25,-0.17,16.5,887.15,52.93,18.0,0.0,-0.00214222,-0.000905111,0.0108276,32.6911132,-103.075255,1156.3143599999999,-24.7524038,0.541292746,1.07861397,,,,,,,,,,,,,,2023-04-19 14:10:17.463064+00:00,1.0669851465518176,0.01410425917433256,3.3744425427549687,3.3315181487904866,-0.5365158885198352,-0.15917240000000002,170.85149472230285,0.28150268087306934,0.1996101041328242,,,,,,,,0.38919759959191047,-0.9211542913496603,,,,,,,,,,,,
2023-04-19 07:10:17.662965-07:00,11.993264,4.5,2.3,3.86,0.09,16.26,887.13,53.67,18.0,0.0,-0.00665596,0.00230078,0.00296292,32.6911131,-103.075255,1156.29641,-24.7333773,0.545060827,1.06618021,,,,,,,,,,,,,,2023-04-19 14:10:17.662965+00:00,1.0678458947284808,0.014119063485277817,4.49487491559164,4.4705134983413055,0.4673430944853416,0.09296291999999999,185.9679674408248,0.28607663270729916,0.2490203851287103,,,,,,,,0.3267039831010268,0.9451267150101748,,,,,,,,,,,,
2023-04-19 07:10:17.863780-07:00,12.194079,4.28,2.55,3.44,0.03,16.22,887.11,53.81,26.0,0.0,-0.00411671,0.000798155,0.00245536,32.6911131,-103.075255,1156.329,-24.7224557,0.547603788,1.07679746,,,,,,,,,,,,,,2023-04-19 14:10:17.863780+00:00,1.0679694269896853,0.014121461448710433,4.282006822132137,4.191971596239924,0.8734738468345026,0.03245536,191.77020708025685,0.28283896623072047,0.2366930283165483,,,,,,,,0.19033736225673503,0.9817187420688007,,,,,,,,,,,,
2023-04-19 07:10:18.063963-07:00,12.394262,3.32,2.58,2.07,0.34,16.35,887.09,53.35,18.0,0.0,-0.00342648,0.00170763,0.0187228,32.6911131,-103.075255,1156.35464,-24.7077468,0.54196882,1.04971259,2.1768,58.6814,15518.2,23.4842,11830.0,-0.599034,-1.0,14.0,-1181.0,81.0,,0.0,,2023-04-19 14:10:18.063963+00:00,1.0674657885410739,0.01411330183826933,3.3077617122441825,2.9606165476791477,1.475139723076079,0.3587228,206.48497518323427,0.27469028275087953,0.18441790755747067,3.3705055073953156,200.05165608258886,3.156672225407848,1.0118778296144586,0.22292717600000006,0.19462956155646052,0.27760572257496463,0.4460409248398992,0.8950125660391408,3.2766002315529863,0.22572151138708169,,,,,,,,,,
2023-04-19 07:10:18.263044-07:00,12.593343,2.54,2.16,1.23,0.53,17.14,887.13,50.72,18.0,0.0,-0.00365429,0.000390489,0.029609,32.691113,-103.075255,1156.3796599999998,-24.6975465,0.542355415,1.0686442,,,,,,,,,,,,,,2023-04-19 14:10:18.263044+00:00,1.064608771894897,0.014064618367298332,2.483848765669308,2.020386401983849,1.4448333735748564,0.559609,215.56959222856418,0.2716235072923516,0.14944007467004866,,,,,,,,0.10625278790486749,0.9943391499194041,,,,,,,,,,,,
2023-04-19 07:10:18.463777-07:00,12.794076,2.29,1.62,1.61,0.04,17.63,887.17,49.2,25.0,0.0,-0.00097792,0.000439379,0.0308858,32.691113,-103.075255,1156.37527,-24.6850096,0.539758669,1.05104107,,,,,,,,,,,,,,2023-04-19 14:10:18.463777+00:00,1.0628626968983366,0.01403465841362485,2.2840353213393088,2.1398730827950123,0.7985991101015132,0.0708858,200.4655384800642,0.2727992238935724,0.15357641210952472,,,,,,,,0.4098332665859927,0.9121604538673307,,,,,,,,,,,,
2023-04-19 07:10:18.662888-07:00,12.993187,3.45,2.43,2.45,0.09,16.79,887.16,51.88,18.0,0.0,-0.000513314,0.000509232,0.0212623,32.6911129,-103.075255,1156.34438,-24.6765468,0.541014367,1.07491285,,,,,,,,,,,,,,2023-04-19 14:10:18.662888+00:00,1.0659299556853699,0.01408635131719407,3.451012076220914,3.2412863721539056,1.1847138911618942,0.1112623,200.07772795517525,0.27653203242689084,0.1959771922048486,,,,,,,,0.7042784017471375,0.7099238922817696,,,,,,,,,,,,
2023-04-19 07:10:18.863469-07:00,13.193768,4.75,3.85,2.75,0.42,16.54,887.11,52.73,20.0,0.0,0.00019035,-0.000445239,0.0131816,32.6911129,-103.075255,1156.3249799999999,-24.6634395,0.539553673,1.07459124,,,,,,,,,,,,,,2023-04-19 14:10:18.863469+00:00,1.0667897168973912,0.014101606947742878,4.730987141091525,4.105240988962841,2.351432701931476,0.4331816,209.8035628528544,0.27821681712453544,0.23303227612446387,,,,,,,,0.9194936472310152,0.39310486222101776,,,,,,,,,,,,
2023-04-19 07:10:19.064589-07:00,13.394888,4.09,3.27,2.3,0.85,16.54,887.13,52.77,25.0,0.0,-0.00091102,0.00113191,0.0105675,32.6911128,-103.075255,1156.34133,-24.6523353,0.540544924,1.10412957,2.17572,58.7177,15496.5,23.492,11879.0,-0.584193,-1.0,14.0,-1165.0,81.0,,0.0,,2023-04-19 14:10:19.064589+00:00,1.0668137677978862,0.014101693671503247,3.99838155147586,3.4554529496984783,2.011690817099534,0.8605674999999999,210.2070491473158,0.2757271660025995,0.2049471516582036,4.189647657390024,206.81688042887282,3.719685813687292,1.8995077219264282,0.600278482,0.21643008986350284,0.2773502046549983,0.7790216062041855,0.6269970789940341,3.8119896964898587,0.17070452866646302,,,,,,,,,,
2023-04-19 07:10:19.263829-07:00,13.594128,4.35,3.54,2.37,0.87,16.44,887.1,52.95,17.0,0.0,0.000746628,-0.00202169,0.00861648,32.6911128,-103.075255,1156.3373,-24.6390369,0.539588667,1.08419288,,,,,,,,,,,,,,2023-04-19 14:10:19.263829+00:00,1.0671460666297976,0.014107761985613011,4.258774051186905,3.628021837602182,2.2303842639654294,0.87861648,211.58178440572422,0.2760710640817668,0.21243269691387026,,,,,,,,0.9380726734671341,0.34643853609871933,,,,,,,,,,,,
2023-04-19 07:10:19.463083-07:00,13.793382,4.56,3.3,3.07,0.71,16.46,887.1,52.99,21.0,0.0,-0.00149152,0.00264749,0.00776453,32.6911128,-103.075255,1156.3561,-24.6232278,0.534079647,1.07735795,,,,,,,,,,,,,,2023-04-19 14:10:19.463083+00:00,1.0670723712417496,0.014106521863222553,4.509083466974919,4.168426920019051,1.7193169354738063,0.71776453,202.4142777832945,0.2802039436391991,0.23576113241612787,,,,,,,,0.871250957728657,0.4908378231726828,,,,,,,,,,,,
2023-04-19 07:10:19.663591-07:00,13.99389,4.1,3.19,2.52,0.56,16.64,887.11,52.33,24.0,0.0,-0.000227201,0.00195629,0.010987,32.6911127,-103.075255,1156.3832,-24.6129944,0.536740351,1.10626408,,,,,,,,,,,,,,2023-04-19 14:10:19.663591+00:00,1.0664215918009776,0.014095414035203988,4.066918372633037,3.6215868154808595,1.85038752362724,0.570987,207.06397967258386,0.2768481476165079,0.21204400094397713,,,,,,,,0.9933233662604085,0.11536329590077758,,,,,,,,,,,,
2023-04-19 07:10:19.862990-07:00,14.193289,4.64,1.55,4.37,-0.2,16.91,887.07,51.5,17.0,0.0,9.25127e-05,-9.14565e-05,0.0195442,32.6911127,-103.075255,1156.4063999999998,-24.6002375,0.541288701,1.06863096,,,,,,,,,,,,,,2023-04-19 14:10:19.862990+00:00,1.0653808814634096,0.014078547884054875,4.636645272510274,4.618503869185418,-0.40975772526113996,-0.1804558,174.9299430473144,0.29048470371145835,0.2560244872050337,,,,,,,,0.7030355686697798,0.7111546872412214,,,,,,,,,,,,
2023-04-19 07:10:20.064825-07:00,14.395124,3.5,0.87,3.38,-0.23,16.9,887.11,51.61,21.0,0.0,-0.00130154,0.000924918,0.0143032,32.6911126,-103.075256,1156.3912599999999,-24.6013319,0.538624664,1.09353272,2.17203,58.7158,15501.1,23.5011,11884.0,-0.635551,-1.0,12.0,-1191.0,81.0,,0.0,,2023-04-19 14:10:20.064825+00:00,1.0654656545009664,0.014079338279331676,3.4913122326103885,3.4362929355039205,-0.617375061839061,-0.21569680000000002,169.81472420430663,0.28234839106375115,0.20426298291795678,3.810459860505145,177.47058225756123,3.6719524595307065,-0.1205813344126021,0.10739472000000001,0.21465567413295453,0.282744550240009,0.5792652207495983,0.8151391317007908,2.923303566211646,0.20120417455647427,,,,,,,,,,
2023-04-19 07:10:20.262865-07:00,14.593164,3.3,0.44,3.27,0.16,17.05,887.14,51.2,23.0,0.0,-0.00230333,-0.00261885,0.0111676,32.6911126,-103.075256,1156.40481,-24.5956305,0.540073884,1.05301255,,,,,,,,,,,,,,2023-04-19 14:10:20.262865+00:00,1.0649509443351197,0.014070210193417964,3.2976364835914116,3.1538200672299013,-0.9632369186503958,0.1711676,163.01632715372097,0.28155736313440277,0.1926965262350404,,,,,,,,0.7508923764309958,-0.6604245899554404,,,,,,,,,,,,
2023-04-19 07:10:20.463816-07:00,14.794115,3.57,1.05,3.4,0.18,16.62,887.12,52.5,17.0,0.0,-0.00356917,0.000891342,0.0109716,32.6911125,-103.075256,1156.40859,-24.5788674,0.542806652,1.06092934,,,,,,,,,,,,,,2023-04-19 14:10:20.463816+00:00,1.0665072186240379,0.014096695504919725,3.5597869411806133,3.529558610253432,-0.46292448993965374,0.1909716,172.5279372098803,0.2824841456739247,0.20825037336276467,,,,,,,,0.24229244255423144,0.9702032633840728,,,,,,,,,,,,
2023-04-19 07:10:20.663067-07:00,14.993366,2.91,2.27,1.75,0.47,16.76,887.16,52.06,22.0,0.0,-0.00258227,-0.00202764,0.00526446,32.6911125,-103.075256,1156.3758799999998,-24.5627901,0.537475057,1.04940507,,,,,,,,,,,,,,2023-04-19 14:10:20.663067+00:00,1.0660402585333937,0.014088206189894798,2.863254093334333,2.5332251102052754,1.3345390754943383,0.47526446,207.7809003363267,0.27315350585617926,0.16829420051150606,,,,,,,,0.6175792611438107,-0.7865086497967234,,,,,,,,,,,,
2023-04-19 07:10:20.863085-07:00,15.193384,1.87,1.45,1.09,0.47,16.97,887.17,51.37,22.0,0.0,-0.00334864,-0.00261424,0.00506551,32.6911124,-103.075256,1156.3974899999998,-24.542665,0.538301606,1.039266,,,,,,,,,,,,,,2023-04-19 14:10:20.863085+00:00,1.06528062527264,0.014075275675778286,1.8101059055199853,1.5911942311861629,0.8628929874777067,0.47506550999999997,208.47065288999366,0.27102233565903106,0.1364665945190121,,,,,,,,0.6153684670129534,-0.7882395890883226,,,,,,,,,,,,
2023-04-19 07:10:21.064628-07:00,15.394927,2.56,-0.43,2.52,-0.11,16.69,887.19,52.23,17.0,0.0,-0.00173479,-0.00231324,0.00611569,32.6911124,-103.075256,1156.35293,-24.5260563,0.535191781,1.05423302,2.17381,58.9618,15515.7,23.509,11891.0,-0.694618,-1.0,12.0,-1170.0,81.0,,0.0,,2023-04-19 14:10:21.064628+00:00,1.066333778324119,0.014092666063638964,2.555487058488731,2.1118176613104493,-1.4390066961208523,-0.10388431000000001,145.7292205555919,0.27676163282319927,0.15317191180755738,2.464136740076394,171.34732648108312,2.1064209847693673,-0.39425619952644547,0.081613922,0.15348311062876885,0.2749222236390867,0.8000232402057075,-0.5999690118087441,-1.5792014389016136,0.13944005383570748,,,,,,,,,,
2023-04-19 07:10:21.263493-07:00,15.593792,2.26,-0.38,2.22,-0.11,16.69,887.16,52.22,24.0,0.0,-0.00159859,-0.000387849,0.00293834,32.6911123,-103.075256,1156.3634299999999,-24.5123052,0.537462178,1.0406598,,,,,,,,,,,,,,2023-04-19 14:10:21.263493+00:00,1.0662977206438593,0.014092536155668783,2.252866697547793,1.8618707162794301,-1.2684028511403707,-0.10706166,145.73528022556266,0.27516977386589303,0.14481148103280592,,,,,,,,0.23577918040913298,-0.9718066567407313,,,,,,,,,,,,
2023-04-19 07:10:21.463288-07:00,15.793587,2.86,-0.32,2.82,-0.34,16.97,887.14,51.31,22.0,0.0,-0.000735941,0.000575259,0.00868561,32.6911123,-103.075256,1156.35781,-24.4987055,0.535007635,1.05333555,,,,,,,,,,,,,,2023-04-19 14:10:21.463288+00:00,1.0652446023922921,0.014075146111624186,2.8389699454911286,2.43399720486552,-1.4613035133430494,-0.33131439,149.0205783979407,0.27850386999113114,0.16467136527296272,,,,,,,,0.6158468467797462,0.7878658904353226,,,,,,,,,,,,
2023-04-19 07:10:21.663577-07:00,15.993876,2.41,-0.61,2.33,0.14,16.89,887.15,51.69,17.0,0.0,0.000244733,-0.000163291,0.00997907,32.6911122,-103.075256,1156.35024,-24.4906967,0.535478253,1.03840291,,,,,,,,,,,,,,2023-04-19 14:10:21.663577+00:00,1.0655504333841332,0.014080128767807195,2.4082453601668425,1.8673305877683752,-1.5207636866882834,0.14997907000000002,140.84045059499306,0.2757025472319879,0.14504817807900752,,,,,,,,0.5550193960737865,0.8318374059766063,,,,,,,,,,,,
2023-04-19 07:10:21.863766-07:00,16.194065,1.66,-0.63,1.52,0.23,17.43,887.17,49.82,24.0,0.0,-0.000451771,-0.000257587,0.00874141,32.6911122,-103.075256,1156.3683099999998,-24.483962,0.540339139,1.03493356,,,,,,,,,,,,,,2023-04-19 14:10:21.863766+00:00,1.063594242563488,0.014046941513657854,1.6455422689896362,1.1219636672983142,-1.2037470200561569,0.23874141000000002,132.9860302706316,0.27219957153347185,0.12439760523653132,,,,,,,,0.4953155637409755,-0.8687131242913045,,,,,,,,,,,,
2023-04-19 07:10:22.064107-07:00,16.394406,1.31,-0.73,0.96,0.52,17.55,887.18,49.39,20.0,0.0,0.000340679,-0.000623203,0.00761059,32.6911122,-103.075256,1156.35989,-24.478014,0.538457972,1.05355639,2.17406,58.6079,15523.2,23.5151,11891.0,-0.745047,-1.0,12.0,-1170.0,81.0,,0.0,,2023-04-19 14:10:22.064107+00:00,1.0631671780419005,0.014039611988847785,1.2054313717910339,0.5706211718540848,-1.0618174373826628,0.52761059,118.25360426595529,0.2706188170722038,0.11466283565805287,2.4937584132362254,140.68824053232544,2.0226274299516467,-1.3580548138236972,0.11875580999999999,0.157196999166038,0.2779880100062878,0.8774512276247926,0.47966586613990425,-0.22144152550527718,0.13688996759469438,,,,,,,,,,
2023-04-19 07:10:22.263227-07:00,16.593526,2.28,0.04,2.28,-0.05,17.3,887.19,50.24,18.0,0.0,-0.000380463,-0.00130502,0.0050148,32.6911122,-103.075256,1156.3688,-24.4680634,0.542839661,1.05025803,,,,,,,,,,,,,,2023-04-19 14:10:22.263227+00:00,1.0640942754672496,0.01405502335495538,2.2793053817501696,2.0905008148651882,-0.9083167764184858,-0.0449852,156.51518808347583,0.27542043287735296,0.15257791318870997,,,,,,,,0.9600331809111363,-0.2798862117890865,,,,,,,,,,,,
2023-04-19 07:10:22.463802-07:00,16.794101,4.94,-0.06,4.93,-0.28,16.37,887.16,53.26,25.0,0.0,-0.000265516,-0.00023229,0.00243318,32.6911121,-103.075256,1156.35159,-24.4528529,0.541847569,1.05403512,,,,,,,,,,,,,,2023-04-19 14:10:22.463802+00:00,1.0674762757371377,0.014112364748046788,4.930267683483444,4.46272090797227,-2.095629148572897,-0.27756682000000005,154.8459294465714,0.2959986813164226,0.24929846366788833,,,,,,,,0.6584460077028439,-0.7526279658238767,,,,,,,,,,,,
2023-04-19 07:10:22.663246-07:00,16.993545,4.0,-0.28,3.96,-0.5,16.48,887.12,53.03,19.0,0.0,-4.26912e-05,-0.00153271,0.00198148,32.6911121,-103.075256,1156.35549,-24.4363821,0.542754377,1.05243274,,,,,,,,,,,,,,2023-04-19 14:10:22.663246+00:00,1.0670227419144682,0.014105368734217496,3.9685598646860787,3.487903954601019,-1.8931437882727666,-0.49801852,151.5080383101424,0.28688601857443663,0.2069067126795572,,,,,,,,0.9996123193374674,-0.02784261174475369,,,,,,,,,,,,
2023-04-19 07:10:22.863381-07:00,17.19368,4.04,0.74,3.94,-0.54,16.75,887.11,52.1,18.0,0.0,-0.000354539,-0.000465053,0.00250345,32.6911121,-103.075257,1156.36953,-24.4232592,0.542566999,1.04651286,,,,,,,,,,,,,,2023-04-19 14:10:22.863381+00:00,1.0660169475267516,0.014088608207033846,4.008522976193061,3.89293836329462,-0.9556606878263194,-0.5374965500000001,166.2074496811681,0.28671547358894645,0.22422867210092634,,,,,,,,0.7952561788558979,-0.606273543865734,,,,,,,,,,,,
2023-04-19 07:10:23.063870-07:00,17.394169,2.87,1.45,2.47,0.11,17.0,887.15,51.28,25.0,0.0,0.000840803,-0.00135135,0.00275725,32.691112,-103.075257,1156.37563,-24.4109887,0.537217173,1.05160861,2.17395,59.0838,15542.3,23.5191,11873.0,-0.814089,-1.0,11.0,-1210.0,81.0,,0.0,,2023-04-19 14:10:23.063870+00:00,1.0651464680294123,0.014073337905773045,2.862901990016442,2.8470962234092894,0.3004178741164838,0.11275725,186.02340662939628,0.27636764902561817,0.18076900578768032,3.1024380958187296,172.7227752002178,2.9645928547002462,-0.5071376819630198,-0.17579232760000002,0.18640043837884765,0.2797594660870282,0.8490670314554617,0.5282851276492743,1.1355564285099007,0.1554144350148814,,,,,,,,,,
2023-04-19 07:10:23.263143-07:00,17.593442,2.29,0.55,2.22,-0.18,16.69,887.17,52.33,18.0,0.0,-0.000460984,-1.55262e-05,0.00281336,32.691112,-103.075257,1156.36611,-24.3955915,0.536867214,1.0308809,,,,,,,,,,,,,,2023-04-19 14:10:23.263143+00:00,1.0663097398706125,0.014092579457970468,2.2871847226142226,2.2489416553634696,-0.4165037648460295,-0.17718664,169.5077079662173,0.2750350639349708,0.15827817135283895,,,,,,,,0.033661474537182726,-0.9994332919870054,,,,,,,,,,,,
2023-04-19 07:10:23.463352-07:00,17.793651,2.39,1.36,1.96,0.22,16.94,887.18,51.5,18.0,0.0,-0.000330228,-0.000552261,0.000982822,32.6911119,-103.075257,1156.35439,-24.3832244,0.536578617,1.0614371,,,,,,,,,,,,,,2023-04-19 14:10:23.463352+00:00,1.0654028013953616,0.014077170789331473,2.385020925583845,2.3460840768328346,0.4292019570135334,0.220982822,190.36727341416483,0.2737931253111687,0.16181962997323557,,,,,,,,0.8582657577924842,-0.513205503673619,,,,,,,,,,,,
2023-04-19 07:10:23.663095-07:00,17.993394,2.8,0.32,2.73,-0.55,16.93,887.17,51.56,25.0,0.0,0.000727835,-0.00156874,0.0013421,32.6911119,-103.075257,1156.35854,-24.3727977,0.534716684,1.02690188,,,,,,,,,,,,,,2023-04-19 14:10:23.663095+00:00,1.0654275200086125,0.014077745002557334,2.7469748897929023,2.6171878530717807,-0.8343852748498444,-0.5486579,162.31720603865682,0.2778422068915684,0.1719684578824529,,,,,,,,0.9071212600663026,0.4208693616025328,,,,,,,,,,,,
2023-04-19 07:10:23.863400-07:00,18.193699,4.12,0.03,4.08,-0.53,16.69,887.16,52.23,18.0,0.0,-0.000866716,0.000651301,0.00184329,32.6911119,-103.075257,1156.3634299999999,-24.3628177,0.53635685,1.04821333,,,,,,,,,,,,,,2023-04-19 14:10:23.863400+00:00,1.0662977206438593,0.014092536155668783,4.081057306847088,3.729709044369944,-1.6565926433843186,-0.52815671,156.05105658001003,0.287926171228031,0.21726091417317722,,,,,,,,0.6007459061619914,0.799440026662168,,,,,,,,,,,,
2023-04-19 07:10:24.063981-07:00,18.39428,4.25,0.04,4.19,-0.77,16.67,887.13,52.36,19.0,0.0,0.000835498,-0.00326872,0.0042593,32.6911119,-103.075257,1156.36428,-24.3559085,0.534085359,1.03989512,2.17461,59.6053,15547.5,23.5272,11828.0,-0.818004,-1.0,12.0,-1175.0,81.0,,0.0,,2023-04-19 14:10:24.063981+00:00,1.0663352439216398,0.014093643855931948,4.186863141653614,3.830322834546012,-1.6906951085553457,-0.7657407,156.18345427196135,0.2889067586896988,0.221777029739927,3.0955805303995527,171.62094840099914,2.8928679997712035,-0.7155336001374406,-0.3353139512,0.18484412765453337,0.2804662375709538,0.9688515189962039,0.24764235126235645,0.0231508179689891,0.17435868887077105,,,,,,,,,,
2023-04-19 07:10:24.263784-07:00,18.594083,2.8,1.03,2.6,0.06,16.99,887.12,51.23,25.0,0.0,-0.00137031,8.11221e-06,0.00534558,32.6911118,-103.075257,1156.36917,-24.3422045,0.535763041,1.03825828,,,,,,,,,,,,,,2023-04-19 14:10:24.263784+00:00,1.0651471590979784,0.014073825444334352,2.796660935100596,2.793419025990828,-0.13461995078811564,0.06534558,177.24094662836265,0.27703799771262905,0.17878613184655706,,,,,,,,0.005919877876350002,0.9999824773694432,,,,,,,,,,,,
2023-04-19 07:10:24.463598-07:00,18.793897,1.67,1.29,1.06,0.1,17.28,887.17,50.43,18.0,0.0,-3.48828e-05,-0.00365697,0.000639974,32.6911118,-103.075257,1156.3408399999998,-24.3323437,0.535699406,1.04898847,,,,,,,,,,,,,,2023-04-19 14:10:24.463598+00:00,1.064143563006915,0.014056168177532715,1.666346378603566,1.4937012408774535,0.7386249768904205,0.10063997400000001,206.3120784860049,0.27061805333284167,0.13442810463055277,,,,,,,,0.9999545095482325,-0.009538282557869912,,,,,,,,,,,,
2023-04-19 07:10:24.663144-07:00,18.993443,2.88,1.97,2.1,-0.09,16.88,887.17,51.77,19.0,0.0,-0.000624656,-0.00253085,-0.00610581,32.6911118,-103.075257,1156.33853,-24.3209436,0.532488572,1.03303692,,,,,,,,,,,,,,2023-04-19 14:10:24.663144+00:00,1.0656111954077105,0.014080832898487867,2.8767953685281182,2.722439552152098,0.9296636366249447,-0.09610581,198.85410363397077,0.274360111588202,0.17618140045792235,,,,,,,,0.9708653330875509,-0.2396257603197096,,,,,,,,,,,,
2023-04-19 07:10:24.863192-07:00,19.193491,3.52,1.15,3.29,-0.55,16.86,887.16,51.66,25.0,0.0,-0.00183812,-0.00342211,-0.00866325,32.6911118,-103.075257,1156.3229,-24.3141098,0.535063406,1.06015228,,,,,,,,,,,,,,2023-04-19 14:10:24.863192+00:00,1.0656726711196722,0.014082025208928492,3.4819507965177756,3.4682607779564045,-0.3084615461609524,-0.5586632500000001,174.91757791142948,0.28155055172241367,0.20643155654497314,,,,,,,,0.8809600700694087,-0.47319061163901227,,,,,,,,,,,,
2023-04-19 07:10:25.064342-07:00,19.394641,3.49,-0.06,3.45,-0.49,16.74,887.15,52.13,18.0,0.0,-0.00261269,-0.00217026,-0.0132242,32.6911118,-103.075257,1156.2844499999999,-24.3041423,0.5322458,1.02923776,2.17471,60.2153,15555.3,23.5358,11892.0,-0.84605,-1.0,14.0,-1181.0,81.0,,0.0,,2023-04-19 14:10:25.064342+00:00,1.066101789295022,0.014089399765694512,3.449677755700547,3.117373579728713,-1.477246960594115,-0.5032242,154.6448732102216,0.2827387127918738,0.1918869904169833,3.128238708902347,173.91191997673144,3.0092673717047704,-0.3655958784588284,-0.397641312,0.18768445977620987,0.2790637432158349,0.6389704897236546,-0.769231248235739,-2.5484274741113295,0.1820404810691998,,,,,,,,,,
2023-04-19 07:10:25.263191-07:00,19.59349,3.1,0.59,3.0,-0.54,16.79,887.17,52.02,20.0,0.0,-0.00304082,2.82035e-05,-0.0159927,32.6911117,-103.075257,1156.2626,-24.2968424,0.532537762,1.05868524,,,,,,,,,,,,,,2023-04-19 14:10:25.263191+00:00,1.0659419707667044,0.014086394578773372,3.0581880181622068,2.9770699023048857,-0.6996918973528732,-0.5559927,166.77398116084072,0.2795096922388431,0.18615965246842756,,,,,,,,0.00927456639178924,0.9999569902842043,,,,,,,,,,,,
2023-04-19 07:10:25.463563-07:00,19.793862,2.79,0.89,2.63,-0.26,16.9,887.16,51.65,25.0,0.0,-0.00185511,-0.00211848,-0.0142206,32.6911117,-103.075258,1156.26589,-24.284525,0.533163247,1.04705488,,,,,,,,,,,,,,2023-04-19 14:10:25.463563+00:00,1.0655257071243447,0.014079554358228111,2.774581605603087,2.7611930463817527,-0.2722426248111463,-0.27422060000000004,174.3690639671948,0.2771596477378419,0.17776269899274302,,,,,,,,0.7523232123907857,-0.6587941894840973,,,,,,,,,,,,
2023-04-19 07:10:25.663643-07:00,19.993942,2.45,0.8,2.31,-0.08,16.94,887.17,51.58,18.0,0.0,-0.00239681,-0.00162399,0.00097845,32.6911117,-103.075258,1156.30898,-24.2753606,0.531256791,1.04870678,,,,,,,,,,,,,,2023-04-19 14:10:25.663643+00:00,1.0653907925267962,0.014077127588387122,2.4432063655399787,2.43302408384067,-0.2228253846991853,-0.07902155,174.7672371356161,0.27535949716537966,0.16533934072536996,,,,,,,,0.560929708609106,-0.82786343197396,,,,,,,,,,,,
2023-04-19 07:10:25.863684-07:00,20.193983,3.14,2.06,2.36,-0.16,16.59,887.18,52.61,21.0,0.0,-0.000860417,-0.000964438,0.0176326,32.6911117,-103.075258,1156.33096,-24.2663728,0.535613726,1.05620215,,,,,,,,,,,,,,2023-04-19 14:10:25.863684+00:00,1.0666897862110185,0.014098813197533673,3.1314303537479264,2.9971344349421303,0.9072162031500437,-0.1423674,196.84077684899756,0.27561502346029737,0.18707784531099125,,,,,,,,0.7462021986411878,-0.6657193693614881,,,,,,,,,,,,
2023-04-19 07:10:26.064119-07:00,20.394418,4.6,3.12,3.38,-0.06,16.42,887.12,53.23,25.0,0.0,-0.000235929,-0.000666882,0.0166742,32.6911116,-103.075258,1156.3044699999998,-24.257829,0.532816024,1.04983331,2.17217,59.7038,15569.9,23.5438,11870.0,-0.855263,-1.0,11.0,-1203.0,81.0,,0.0,,2023-04-19 14:10:26.064119+00:00,1.0672438330651912,0.014109089150487716,4.599162292549227,4.36273061914013,1.4556357161130125,-0.0433258,198.45140236572723,0.28218854615523753,0.24521954110652047,3.818298572585183,198.23387076599744,3.495293578376581,1.3326647301113133,-0.06630594599999999,0.2085359679380399,0.2773738989481538,0.9427421121629957,-0.33352257787810047,0.09059983776934044,0.1878896747237706,,,,,,,,,,
2023-04-19 07:10:26.263225-07:00,20.593524,4.75,3.83,2.81,0.07,16.66,887.09,52.4,18.0,0.0,-0.000579462,-0.000698622,0.00850369,32.6911116,-103.075258,1156.28567,-24.2472634,0.535969346,1.04692722,,,,,,,,,,,,,,2023-04-19 14:10:26.263225+00:00,1.0663239563253197,0.014094089490920086,4.749369802336739,4.134294255505878,2.3375466900661483,0.07850369,209.48399342088268,0.2782312405414685,0.2351376584650897,,,,,,,,0.7696946580495189,-0.6384121970717933,,,,,,,,,,,,
2023-04-19 07:10:26.463172-07:00,20.793471,4.17,3.45,2.34,-0.15,16.39,887.13,53.29,23.0,0.0,0.000419301,-0.000705343,0.00468133,32.6911116,-103.075258,1156.27432,-24.2365374,0.536097907,1.04592995,,,,,,,,,,,,,,2023-04-19 14:10:26.463172+00:00,1.0673664446824953,0.014110993529273905,4.1683240487520425,3.549284498454095,2.185750425926547,-0.14531866999999998,211.62594405876362,0.2754751874183856,0.2099054540822281,,,,,,,,0.8595852085340044,0.5109924356285053,,,,,,,,,,,,
2023-04-19 07:10:26.663113-07:00,20.993412,3.3,2.88,1.62,0.01,16.61,887.14,52.6,24.0,0.0,-8.41213e-05,-0.000523725,0.00446171,32.6911116,-103.075258,1156.2824999999998,-24.2253102,0.533293368,1.04932769,,,,,,,,,,,,,,2023-04-19 14:10:26.663113+00:00,1.0665680702859326,0.01409740132949235,3.30388937377697,2.658556014484601,1.96157205118857,0.01446171,216.42115414026776,0.27218784879569513,0.17390051107556553,,,,,,,,0.9873447773872723,-0.15858843137529816,,,,,,,,,,,,
2023-04-19 07:10:26.863038-07:00,21.193337,2.4,2.05,1.15,0.44,16.82,887.18,51.9,17.0,0.0,8.87706e-05,-0.000866897,0.00398132,32.6911115,-103.075258,1156.29019,-24.2116418,0.535763345,1.04516538,,,,,,,,,,,,,,2023-04-19 14:10:26.863038+00:00,1.0658437033375194,0.01408458343946039,2.3498878389177444,1.8886975617691049,1.3981396123638534,0.44398132,216.5113078613127,0.2706578356770187,0.1466404491483421,,,,,,,,0.9947979542973487,0.10186770894552423,,,,,,,,,,,,
2023-04-19 07:10:27.064351-07:00,21.39465,2.99,2.63,1.41,0.16,16.57,887.17,52.81,23.0,0.0,-0.000245899,3.85548e-05,0.00421157,32.6911115,-103.075258,1156.30642,-24.198736,0.532901723,1.0430688,2.17177,60.3779,15573.7,23.5516,11842.0,-0.873924,-1.0,14.0,-1178.0,81.0,,0.0,,2023-04-19 14:10:27.064351+00:00,1.0667513979155678,0.014100008596001468,2.9840051654437123,2.3641853265692316,1.8206906846110602,0.16421157,217.60034810578247,0.2714118714870474,0.16297921049447778,2.853463153218763,210.19529672823273,2.41901503415823,1.4166318070548662,0.17971917,0.16534615017120774,0.2723626563721781,0.15489878710144311,0.9879303445863488,2.6092529049376227,0.2658572887403246,,,,,,,,,,
2023-04-19 07:10:27.263397-07:00,21.593696,2.83,1.55,2.37,0.03,16.63,887.17,52.54,22.0,0.0,-0.000162345,-0.00094268,0.0040308,32.6911115,-103.075258,1156.31423,-24.1889315,0.5323459,1.04892186,,,,,,,,,,,,,,2023-04-19 14:10:27.263397+00:00,1.06653052316964,0.014096293033153955,2.8308980465489597,2.7960772073621607,0.4426465863694621,0.0340308,188.99583128776817,0.27558437153430443,0.17932272559079077,,,,,,,,0.9854926612642908,-0.16971804439783583,,,,,,,,,,,,
2023-04-19 07:10:27.463592-07:00,21.793891,2.81,2.31,1.58,0.24,16.49,887.18,53.06,18.0,0.0,-0.000140634,5.66435e-05,0.00191045,32.6911114,-103.075258,1156.31594,-24.1776445,0.531752391,1.04545955,,,,,,,,,,,,,,2023-04-19 14:10:27.463592+00:00,1.067058067451942,0.01410500915868486,2.798635341406429,2.387559060606053,1.4601101007413853,0.24191045,211.44784224603268,0.271971354366825,0.1638878545468626,,,,,,,,0.3736065869946517,0.9275872563560842,,,,,,,,,,,,
2023-04-19 07:10:27.663454-07:00,21.993753,2.07,0.82,1.89,-0.05,16.55,887.19,52.82,24.0,0.0,-2.08407e-06,-0.000245929,5.75276e-05,32.6911114,-103.075258,1156.32034,-24.1689065,0.530263996,1.04771229,,,,,,,,,,,,,,2023-04-19 14:10:27.663454+00:00,1.0668490932325254,0.014101334278786393,2.0599725511554348,2.059812227601297,-0.02570016610865076,-0.0499424724,179.28516074059337,0.27320641838958815,0.15240248417378083,,,,,,,,0.9999640952646193,-0.008473970829041992,,,,,,,,,,,,
2023-04-19 07:10:27.863594-07:00,22.193893,2.87,0.58,2.81,-0.17,16.71,887.18,52.17,22.0,0.0,-0.000111867,-0.000330917,-0.000261017,32.6911113,-103.075258,1156.31533,-24.1597059,0.532805599,1.0445734,,,,,,,,,,,,,,2023-04-19 14:10:27.863594+00:00,1.0662481841467621,0.01409138533551635,2.868934483790568,2.8009193077021823,-0.6209960579776502,-0.17026101700000001,167.4990797674282,0.27815736227229626,0.1795632653947567,,,,,,,,0.9473338552950623,-0.32024766449077186,,,,,,,,,,,,
2023-04-19 07:10:28.064502-07:00,22.394801,2.76,0.42,2.71,-0.31,16.73,887.18,52.21,17.0,0.0,-0.000878322,0.000863403,-0.00035546,32.6911113,-103.075258,1156.3164299999999,-24.149159,0.531004258,1.05239272,2.17529,60.3704,15570.2,23.5602,11840.0,-0.859905,-1.0,11.0,-1203.0,81.0,,0.0,,2023-04-19 14:10:28.064502+00:00,1.0661746193486286,0.014090148131026924,2.7434180675770654,2.645521360023532,-0.726332862513821,-0.31035545999999997,164.64762169494605,0.27751917231055473,0.17355343023783765,2.6035085181352238,171.8121037935782,2.55489316128826,-0.40289514398682247,-0.24632572788,0.17046633407241044,0.2764180340770216,0.7010242380197556,0.7131374465759186,1.5395507240001645,0.1636450423445623,,,,,,,,,,
2023-04-19 07:10:28.263446-07:00,22.593745,3.0,0.57,2.91,-0.46,16.81,887.18,51.89,25.0,0.0,-0.000713689,-0.000715756,-0.00117004,32.6911113,-103.075258,1156.3194799999999,-24.1379704,0.532824353,1.05060963,,,,,,,,,,,,,,2023-04-19 14:10:28.263446+00:00,1.0658804616387794,0.014085201518124072,2.9647633964065747,2.8879367874361295,-0.6705543292271968,-0.46117004,166.92803846920307,0.27879024230005295,0.18304762404409466,,,,,,,,0.7081285284027221,-0.7060835554395777,,,,,,,,,,,,
2023-04-19 07:10:28.463464-07:00,22.793763,2.39,1.0,2.16,-0.24,16.74,887.19,52.11,20.0,0.0,-0.000669312,0.000210299,0.00010035,32.6911113,-103.075259,1156.33206,-24.1255989,0.534386689,1.04784187,,,,,,,,,,,,,,2023-04-19 14:10:28.463464+00:00,1.0661498579097681,0.014089572894141141,2.380454091746475,2.3802761236781595,0.029107695893206588,-0.23989965,180.70061829572023,0.27441697511261604,0.16376486651158226,,,,,,,,0.2997536913076571,0.9540166269764033,,,,,,,,,,,,
