Timestamp,Seconds,S,Um,Vm,Wm,T,P,H,MD,Sts,Vx,Vy,Vz,Lat,Lon,Alt,Yaw,Roll,Pitch,CH4,C2H6,H2O,T_a,Batt,R,C2C1,Power,Current,SOC,Lat_a,Lon_a,TS,Timestamp_UTC
2022-11-16 09:12:40.977391-07:00,0.0,3.25,1.37,-2.94,-0.17,10.64,975.62,35.57,25.0,0.0,0.000572142,-0.000639809,0.00399304,32.821374,-111.787019,325.437531,-11.1013414,0.285490717,0.146899627,,,,,,,,,,,,,,2022-11-16 16:12:40.977391+00:00
2022-11-16 09:12:41.177436-07:00,0.200045,3.12,1.31,-2.83,-0.17,10.65,975.63,35.51,18.0,0.0,-0.000180388,0.000251159,0.00485379,32.8213739,-111.787019,325.442871,-11.0865738,0.285627725,0.150207878,,,,,,,,,,,,,,2022-11-16 16:12:41.177436+00:00
2022-11-16 09:12:41.378134-07:00,0.400743,3.27,1.56,-2.87,-0.13,10.62,975.63,35.58,20.0,0.0,0.000275194,0.000320171,0.00426077,32.8213739,-111.787019,325.450775,-11.0829734,0.288327207,0.147460732,,,,,,,,,,,,,,2022-11-16 16:12:41.378134+00:00
2022-11-16 09:12:41.578634-07:00,0.601243,3.11,1.54,-2.69,-0.11,10.62,975.63,35.58,25.0,0.0,8.14897e-05,0.000644907,0.00424702,32.8213738,-111.787019,325.449432,-11.0681646,0.288871324,0.152407047,1.975,20.2755,4105.74,25.1249,11823.0,0.0408409,-1.0,15.0,-1209.0,96.0,,0.0,2022-11-16 09:12:36.552,2022-11-16 16:12:41.578634+00:00
2022-11-16 09:12:41.777514-07:00,0.800123,3.11,1.56,-2.69,-0.09,10.59,975.64,35.65,20.0,0.0,-0.000108658,-0.00015623,0.0024568,32.8213738,-111.787019,325.444153,-11.059717,0.287471865,0.158236381,,,,,,,,,,,,,,2022-11-16 16:12:41.777514+00:00
2022-11-16 09:12:41.977718-07:00,1.000327,3.06,1.5,-2.67,-0.09,10.67,975.62,35.46,19.0,0.0,0.000495819,3.86714e-05,0.00210997,32.8213738,-111.787019,325.447632,-11.0573352,0.290277771,0.149039712,,,,,,,,,,,,,,2022-11-16 16:12:41.977718+00:00
2022-11-16 09:12:42.178287-07:00,1.200896,3.09,1.46,-2.72,-0.14,10.61,975.63,35.61,23.0,0.0,0.000529968,0.000115921,0.000829667,32.8213738,-111.787019,325.437469,-11.0428362,0.289046806,0.155561018,,,,,,,,,,,,,,2022-11-16 16:12:42.178287+00:00
2022-11-16 09:12:42.378187-07:00,1.400796,3.19,1.51,-2.81,-0.14,10.66,975.63,35.52,23.0,0.0,0.000309809,-0.000132946,0.00340993,32.8213738,-111.787019,325.4534,-11.03202,0.285438442,0.148847799,,,,,,,,,,,,,,2022-11-16 16:12:42.378187+00:00
2022-11-16 09:12:42.578380-07:00,1.600989,3.23,1.4,-2.9,-0.17,10.62,975.63,34.97,18.0,0.0,-0.000368372,0.000276888,0.00271788,32.8213738,-111.787019,325.448761,-11.0298292,0.287144371,0.147468843,1.9756,20.5178,4067.13,25.1276,11789.0,0.0508083,-1.0,14.0,-1184.0,96.0,,0.0,2022-11-16 09:12:37.576,2022-11-16 16:12:42.578380+00:00
2022-11-16 09:12:42.777926-07:00,1.800535,3.21,1.53,-2.81,-0.15,10.78,975.64,35.16,21.0,0.0,0.0003195,0.000328545,0.00339581,32.8213738,-111.787019,325.447998,-11.0150161,0.284971232,0.154503722,,,,,,,,,,,,,,2022-11-16 16:12:42.777926+00:00
2022-11-16 09:12:42.977676-07:00,2.000285,3.21,1.66,-2.75,-0.12,10.81,975.62,35.17,25.0,0.0,-4.73416e-05,-0.000188417,0.00296869,32.8213737,-111.787019,325.446686,-11.0096083,0.285417633,0.145792199,,,,,,,,,,,,,,2022-11-16 16:12:42.977676+00:00
2022-11-16 09:12:43.178283-07:00,2.200892,3.19,1.58,-2.77,-0.12,10.79,975.62,34.53,19.0,0.0,0.000292435,0.000374398,0.00336266,32.8213737,-111.787019,325.446045,-11.0014673,0.285466305,0.158590178,,,,,,,,,,,,,,2022-11-16 16:12:43.178283+00:00
2022-11-16 09:12:43.377832-07:00,2.400441,3.36,1.5,-3.0,-0.17,10.61,975.64,34.99,19.0,0.0,0.000244743,9.44648e-05,0.0029704,32.8213735,-111.787019,325.452423,-10.9883305,0.282531261,0.152572026,,,,,,,,,,,,,,2022-11-16 16:12:43.377832+00:00
2022-11-16 09:12:43.578752-07:00,2.601361,3.41,1.51,-3.05,-0.19,10.6,975.62,34.97,25.0,0.0,9.02436e-05,0.000598811,0.00268658,32.8213735,-111.787019,325.452393,-10.9876213,0.282449661,0.151389518,1.97588,20.4897,4031.81,25.1303,11788.0,0.0448988,-1.0,14.0,-1195.0,96.0,,0.0,2022-11-16 09:12:38.600,2022-11-16 16:12:43.578752+00:00
2022-11-16 09:12:43.777466-07:00,2.800075,3.26,1.6,-2.83,-0.13,10.65,975.62,35.47,24.0,0.0,0.000245158,-0.000213565,0.00276677,32.8213735,-111.787019,325.451935,-10.9758926,0.280049738,0.158358604,,,,,,,,,,,,,,2022-11-16 16:12:43.777466+00:00
2022-11-16 09:12:43.977354-07:00,2.999963,3.37,1.75,-2.88,-0.1,10.71,975.62,34.67,18.0,0.0,-0.0002514,0.000499165,0.00219156,32.8213735,-111.787019,325.45047,-10.9665343,0.277447587,0.148677363,,,,,,,,,,,,,,2022-11-16 16:12:43.977354+00:00
2022-11-16 09:12:44.177901-07:00,3.20051,3.41,1.77,-2.92,-0.1,10.7,975.62,34.83,21.0,0.0,6.09093e-05,-5.56108e-05,0.00170899,32.8213735,-111.787019,325.446198,-10.9600849,0.279356963,0.151235478,,,,,,,,,,,,,,2022-11-16 16:12:44.177901+00:00
2022-11-16 09:12:44.377474-07:00,3.400083,3.25,1.9,-2.63,-0.1,10.85,975.61,34.39,26.0,0.0,0.000289723,2.95526e-05,0.00365444,32.8213735,-111.787019,325.444153,-10.9483648,0.280205522,0.145419739,,,,,,,,,,,,,,2022-11-16 16:12:44.377474+00:00
2022-11-16 09:12:44.578801-07:00,3.60141,3.23,1.94,-2.58,-0.12,10.75,975.62,34.63,21.0,0.0,0.000138826,9.51809e-05,0.00415523,32.8213735,-111.787019,325.441437,-10.941745,0.280085331,0.149328955,1.97495,20.4499,4016.58,25.1325,11801.0,0.0591474,-1.0,14.0,-1194.0,96.0,,0.0,2022-11-16 09:12:39.624,2022-11-16 16:12:44.578801+00:00
2022-11-16 09:12:44.777597-07:00,3.800206,3.19,1.49,-2.81,-0.12,10.78,975.62,34.56,19.0,0.0,0.000441445,-0.000579496,0.00468717,32.8213735,-111.787019,325.447815,-10.9351948,0.282650833,0.147933257,,,,,,,,,,,,,,2022-11-16 16:12:44.777597+00:00
2022-11-16 09:12:44.978074-07:00,4.000683,3.12,1.37,-2.8,-0.11,10.96,975.62,34.15,24.0,0.0,0.000538366,-0.000775505,0.00320184,32.8213735,-111.787019,325.449066,-10.9212308,0.283313971,0.155571757,,,,,,,,,,,,,,2022-11-16 16:12:44.978074+00:00
2022-11-16 09:12:45.177442-07:00,4.200051,3.16,1.48,-2.79,-0.08,10.98,975.63,34.05,24.0,0.0,0.000509537,-0.00019304,0.00325301,32.8213735,-111.787019,325.445312,-10.9189201,0.281946424,0.146598404,,,,,,,,,,,,,,2022-11-16 16:12:45.177442+00:00
2022-11-16 09:12:45.377439-07:00,4.400048,3.45,1.48,-3.11,-0.2,10.59,975.63,34.99,19.0,0.0,0.000344318,7.86663e-05,0.00207191,32.8213734,-111.787019,325.436768,-10.9007649,0.281946379,0.153615994,,,,,,,,,,,,,,2022-11-16 16:12:45.377439+00:00
2022-11-16 09:12:45.578954-07:00,4.601563,3.32,1.42,-3.0,-0.19,10.6,975.63,35.06,22.0,0.0,0.00033043,-0.000559225,0.0018473,32.8213734,-111.787019,325.433563,-10.8936649,0.283534365,0.153704534,1.97544,20.0256,4012.72,25.1349,11819.0,-0.0113565,-1.0,13.0,-1205.0,96.0,,0.0,2022-11-16 09:12:40.648,2022-11-16 16:12:45.578954+00:00
2022-11-16 09:12:45.778152-07:00,4.800761,3.28,1.48,-2.92,-0.16,10.57,975.61,35.0,27.0,0.0,6.20102e-05,0.000317547,0.00378325,32.8213733,-111.787019,325.441315,-10.8844308,0.284144292,0.151320309,,,,,,,,,,,,,,2022-11-16 16:12:45.778152+00:00
2022-11-16 09:12:45.977474-07:00,5.000083,3.08,1.46,-2.71,-0.13,10.6,975.62,34.98,20.0,0.0,6.37945e-05,-0.000367443,0.00379491,32.8213733,-111.787019,325.434113,-10.877213,0.284199639,0.161137235,,,,,,,,,,,,,,2022-11-16 16:12:45.977474+00:00
2022-11-16 09:12:46.177810-07:00,5.200419,3.24,1.57,-2.83,-0.12,10.62,975.62,34.93,19.0,0.0,0.000216702,0.00020007,0.00242301,32.8213732,-111.787019,325.4263,-10.8715103,0.281609204,0.152357421,,,,,,,,,,,,,,2022-11-16 16:12:46.177810+00:00
2022-11-16 09:12:46.377955-07:00,5.400564,3.2,1.78,-2.66,-0.11,10.62,975.63,34.94,26.0,0.0,2.71266e-05,0.00043419,0.00172594,32.8213732,-111.787019,325.428558,-10.8633172,0.281270353,0.151684551,,,,,,,,,,,,,,2022-11-16 16:12:46.377955+00:00
2022-11-16 09:12:46.578650-07:00,5.601259,3.17,1.79,-2.62,-0.08,10.63,975.62,34.91,23.0,0.0,7.81486e-05,-0.000723215,0.00280506,32.8213732,-111.787019,325.429932,-10.859741,0.279822688,0.152260344,1.9771,20.3141,4023.81,25.1376,11819.0,-0.0852352,-1.0,13.0,-1205.0,96.0,,0.0,2022-11-16 09:12:41.672,2022-11-16 16:12:46.578650+00:00
2022-11-16 09:12:46.778279-07:00,5.800888,3.18,1.7,-2.69,-0.09,10.59,975.63,35.0,19.0,0.0,-0.000185767,-0.000227789,0.00198211,32.8213731,-111.787019,325.425629,-10.8432849,0.280520488,0.14496513,,,,,,,,,,,,,,2022-11-16 16:12:46.778279+00:00
2022-11-16 09:12:46.977526-07:00,6.000135,3.07,1.67,-2.57,-0.1,10.63,975.62,34.96,22.0,0.0,-0.000128681,-0.000320916,0.00205222,32.8213731,-111.787019,325.430298,-10.844961,0.282755053,0.148099037,,,,,,,,,,,,,,2022-11-16 16:12:46.977526+00:00
2022-11-16 09:12:47.177357-07:00,6.199966,3.12,1.68,-2.62,-0.13,10.6,975.62,35.03,26.0,0.0,6.47077e-05,-0.000727769,0.00388555,32.8213731,-111.787019,325.430084,-10.8332665,0.280854636,0.147883752,,,,,,,,,,,,,,2022-11-16 16:12:47.177357+00:00
2022-11-16 09:12:47.377520-07:00,6.400129,3.06,1.64,-2.58,-0.11,10.67,975.63,34.82,20.0,0.0,0.000506773,-0.00056201,0.00279013,32.8213731,-111.787019,325.428436,-10.8171792,0.280059834,0.146770787,,,,,,,,,,,,,,2022-11-16 16:12:47.377520+00:00
2022-11-16 09:12:47.578645-07:00,6.601254,3.05,1.64,-2.57,-0.09,10.65,975.63,34.78,20.0,0.0,0.00045817,-0.000418167,0.00157858,32.821373,-111.787019,325.425995,-10.8125777,0.280506002,0.14170836,1.97655,20.398,4027.56,25.1414,11838.0,-0.0704614,-1.0,12.0,-1200.0,96.0,,0.0,2022-11-16 09:12:42.696,2022-11-16 16:12:47.578645+00:00
2022-11-16 09:12:47.777820-07:00,6.800429,3.31,1.86,-2.73,-0.08,10.66,975.62,34.88,26.0,0.0,0.000205323,-0.000588755,0.00233514,32.8213729,-111.787019,325.429932,-10.80764,0.279386765,0.15051996,,,,,,,,,,,,,,2022-11-16 16:12:47.777820+00:00
2022-11-16 09:12:47.978076-07:00,7.000685,3.02,1.75,-2.46,-0.17,10.79,975.62,34.54,22.0,0.0,0.000114287,-0.000742464,0.00251007,32.8213729,-111.787019,325.423096,-10.798213,0.278935814,0.148171968,,,,,,,,,,,,,,2022-11-16 16:12:47.978076+00:00
2022-11-16 09:12:48.177451-07:00,7.20006,3.05,1.82,-2.44,-0.21,10.73,975.63,34.67,18.0,0.0,-0.000143848,-0.00145085,0.00309916,32.8213729,-111.787019,325.431091,-10.7932438,0.27462358,0.146500167,,,,,,,,,,,,,,2022-11-16 16:12:48.177451+00:00
2022-11-16 09:12:48.377895-07:00,7.400504,2.93,1.55,-2.48,-0.08,10.71,975.62,34.76,22.0,0.0,0.000379186,-0.000785043,0.00416062,32.8213728,-111.787019,325.432159,-10.7827679,0.273495048,0.150794703,,,,,,,,,,,,,,2022-11-16 16:12:48.377895+00:00
2022-11-16 09:12:48.578666-07:00,7.601275,2.83,1.25,-2.53,-0.13,10.75,975.63,34.59,25.0,0.0,0.000404259,-0.00120681,0.00286636,32.8213728,-111.787019,325.4245,-10.7794421,0.272589204,0.143588122,1.97634,20.2238,4024.67,25.1431,11847.0,-0.0813813,-1.0,12.0,-1205.0,96.0,,0.0,2022-11-16 09:12:43.720,2022-11-16 16:12:48.578666+00:00
2022-11-16 09:12:48.778021-07:00,7.80063,3.12,1.66,-2.65,-0.1,10.69,975.63,34.77,19.0,0.0,-1.42495e-05,-5.57541e-05,0.00122114,32.8213728,-111.787019,325.424805,-10.7668472,0.277141248,0.138906827,,,,,,,,,,,,,,2022-11-16 16:12:48.778021+00:00
2022-11-16 09:12:48.977417-07:00,8.000026,2.95,1.62,-2.47,-0.15,10.7,975.63,34.73,20.0,0.0,7.57711e-05,-0.000381291,0.00204853,32.8213728,-111.787019,325.426178,-10.7679449,0.275157279,0.146931137,,,,,,,,,,,,,,2022-11-16 16:12:48.977417+00:00
2022-11-16 09:12:49.177586-07:00,8.200195,2.81,1.34,-2.47,-0.1,10.77,975.63,34.58,26.0,0.0,0.000495135,-0.00133615,0.00351453,32.8213727,-111.787019,325.431091,-10.7607517,0.274863307,0.149626149,,,,,,,,,,,,,,2022-11-16 16:12:49.177586+00:00
2022-11-16 09:12:49.377626-07:00,8.400235,2.88,1.36,-2.53,-0.19,10.79,975.62,34.53,22.0,0.0,0.000144779,-0.000678754,0.00424592,32.8213727,-111.787019,325.435791,-10.7516923,0.269911664,0.147211696,,,,,,,,,,,,,,2022-11-16 16:12:49.377626+00:00
2022-11-16 09:12:49.579174-07:00,8.601783,2.76,1.14,-2.52,-0.07,10.95,975.64,34.18,19.0,0.0,-5.81573e-05,-0.000876469,0.00397775,32.8213726,-111.787019,325.438019,-10.7422519,0.271646039,0.146542375,1.97776,19.8803,4023.94,25.1457,11849.0,-0.250511,-1.0,11.0,-1206.0,96.0,,0.0,2022-11-16 09:12:44.744,2022-11-16 16:12:49.579174+00:00
2022-11-16 09:12:49.778086-07:00,8.800695,2.71,1.18,-2.43,-0.1,10.94,975.63,34.23,24.0,0.0,9.77601e-05,-0.000101676,0.00319271,32.8213726,-111.787019,325.435486,-10.7370662,0.271653133,0.142836986,,,,,,,,,,,,,,2022-11-16 16:12:49.778086+00:00
2022-11-16 09:12:49.977668-07:00,9.000277,2.45,1.04,-2.22,-0.02,11.06,975.65,33.88,24.0,0.0,-0.000277855,-2.56635e-05,0.00519677,32.8213726,-111.787019,325.440094,-10.7289213,0.271285244,0.150677028,,,,,,,,,,,,,,2022-11-16 16:12:49.977668+00:00
2022-11-16 09:12:50.177703-07:00,9.200312,2.53,1.2,-2.22,-0.1,10.91,975.64,34.26,19.0,0.0,8.09124e-05,-0.000379398,0.00351285,32.8213726,-111.787019,325.439514,-10.7210484,0.272149788,0.14519026,,,,,,,,,,,,,,2022-11-16 16:12:50.177703+00:00
2022-11-16 09:12:50.377528-07:00,9.400137,2.47,1.44,-2.01,-0.14,10.97,975.64,34.17,21.0,0.0,-0.00015663,0.000109842,0.00286783,32.8213725,-111.787019,325.438019,-10.7174658,0.273612587,0.145338631,,,,,,,,,,,,,,2022-11-16 16:12:50.377528+00:00
2022-11-16 09:12:50.578949-07:00,9.601558,2.71,1.47,-2.27,-0.08,10.96,975.62,34.19,26.0,0.0,0.00027582,-0.000674287,0.00303602,32.8213725,-111.787019,325.442535,-10.7050498,0.273448835,0.150227048,1.97617,20.2501,4032.75,25.1488,11816.0,-0.315461,-1.0,14.0,-1206.0,96.0,,0.0,2022-11-16 09:12:45.768,2022-11-16 16:12:50.578949+00:00
2022-11-16 09:12:50.778176-07:00,9.800785,3.06,1.58,-2.61,-0.1,10.87,975.63,34.35,20.0,0.0,0.000293083,0.000159242,0.00222517,32.8213725,-111.787019,325.441193,-10.7047739,0.275149391,0.141238984,,,,,,,,,,,,,,2022-11-16 16:12:50.778176+00:00
2022-11-16 09:12:50.977993-07:00,10.000602,3.05,1.65,-2.56,-0.11,10.9,975.63,34.24,18.0,0.0,0.000199373,-6.64946e-05,0.00175155,32.8213725,-111.787019,325.442841,-10.6941032,0.274372241,0.151642356,,,,,,,,,,,,,,2022-11-16 16:12:50.977993+00:00
2022-11-16 09:12:51.177573-07:00,10.200182,3.37,1.71,-2.9,-0.08,10.84,975.62,34.41,23.0,0.0,0.000104453,-0.000768483,0.000973281,32.8213724,-111.787019,325.433594,-10.6862739,0.274000319,0.146226545,,,,,,,,,,,,,,2022-11-16 16:12:51.177573+00:00
2022-11-16 09:12:51.377668-07:00,10.400277,3.41,1.59,-3.01,-0.12,10.88,975.62,34.28,24.0,0.0,-3.96825e-05,-0.000246505,0.000291333,32.8213724,-111.78702,325.432526,-10.6763533,0.276782559,0.142840027,,,,,,,,,,,,,,2022-11-16 16:12:51.377668+00:00
2022-11-16 09:12:51.578470-07:00,10.601079,3.4,1.26,-3.15,-0.16,10.85,975.63,34.44,19.0,0.0,0.000199795,-0.0009929,0.00111818,32.8213724,-111.78702,325.433136,-10.6686409,0.275886036,0.13974689,1.97395,19.8427,4054.34,25.1515,11796.0,-0.154822,-1.0,15.0,-1199.0,96.0,,0.0,2022-11-16 09:12:46.792,2022-11-16 16:12:51.578470+00:00
2022-11-16 09:12:51.778270-07:00,10.800879,3.48,1.44,-3.17,-0.19,10.82,975.63,34.42,21.0,0.0,-1.82473e-05,-0.000468349,0.00195489,32.8213724,-111.78702,325.436798,-10.6621138,0.276665339,0.13422017,,,,,,,,,,,,,,2022-11-16 16:12:51.778270+00:00
2022-11-16 09:12:51.978168-07:00,11.000777,3.2,1.43,-2.86,-0.16,10.9,975.63,34.28,26.0,0.0,0.000243524,0.000194632,0.00314483,32.8213724,-111.78702,325.446594,-10.6528976,0.276382015,0.144478531,,,,,,,,,,,,,,2022-11-16 16:12:51.978168+00:00
2022-11-16 09:12:52.177503-07:00,11.200112,3.36,1.44,-3.03,-0.17,10.83,975.63,34.39,21.0,0.0,0.000563816,-0.000673411,0.00389249,32.8213724,-111.78702,325.442657,-10.6483664,0.279260126,0.145297329,,,,,,,,,,,,,,2022-11-16 16:12:52.177503+00:00
2022-11-16 09:12:52.377563-07:00,11.400172,3.46,1.37,-3.17,-0.14,10.84,975.64,34.43,19.0,0.0,0.000508272,0.000711403,0.00278962,32.8213724,-111.78702,325.445435,-10.6425564,0.274148991,0.133033622,,,,,,,,,,,,,,2022-11-16 16:12:52.377563+00:00
2022-11-16 09:12:52.578212-07:00,11.600821,3.55,1.58,-3.17,-0.16,10.74,975.63,34.6,23.0,0.0,4.31553e-06,-0.000331236,0.00189954,32.8213724,-111.78702,325.448334,-10.6299809,0.273634982,0.132189344,1.97724,20.5639,4082.88,25.1528,11787.0,-0.270843,-1.0,16.0,-1196.0,96.0,,0.0,2022-11-16 09:12:47.816,2022-11-16 16:12:52.578212+00:00
2022-11-16 09:12:52.777496-07:00,11.800105,3.58,1.68,-3.16,-0.19,10.73,975.62,34.63,24.0,0.0,-0.000457935,-0.000644223,0.00126066,32.8213724,-111.78702,325.437561,-10.6303789,0.274888103,0.129490332,,,,,,,,,,,,,,2022-11-16 16:12:52.777496+00:00
2022-11-16 09:12:52.977650-07:00,12.000259,3.53,1.7,-3.09,-0.16,10.76,975.63,34.6,18.0,0.0,2.03718e-06,-5.94249e-05,-0.00124485,32.8213724,-111.78702,325.432892,-10.6204366,0.273346098,0.134315113,,,,,,,,,,,,,,2022-11-16 16:12:52.977650+00:00
2022-11-16 09:12:53.177776-07:00,12.200385,3.65,1.52,-3.31,-0.26,10.62,975.63,34.87,20.0,0.0,-0.000243916,-0.00014223,0.000252968,32.8213723,-111.78702,325.436859,-10.6147812,0.275815212,0.126526849,,,,,,,,,,,,,,2022-11-16 16:12:53.177776+00:00
2022-11-16 09:12:53.378219-07:00,12.400828,3.44,1.39,-3.13,-0.19,10.61,975.63,34.9,25.0,0.0,-7.85088e-05,0.000263932,0.000431589,32.8213723,-111.78702,325.433716,-10.604527,0.276708606,0.132794978,,,,,,,,,,,,,,2022-11-16 16:12:53.378219+00:00
2022-11-16 09:12:53.579274-07:00,12.601883,3.41,1.4,-3.1,-0.2,10.6,975.64,34.97,20.0,0.0,1.36478e-05,-0.000799214,0.00183649,32.8213723,-111.78702,325.438751,-10.5966605,0.280290448,0.140671796,1.97078,20.369,4096.64,25.1552,11787.0,-0.142707,-1.0,14.0,-1200.0,96.0,,0.0,2022-11-16 09:12:48.840,2022-11-16 16:12:53.579274+00:00
2022-11-16 09:12:53.778116-07:00,12.800725,3.37,1.48,-3.02,-0.18,10.64,975.63,34.82,19.0,0.0,-0.000243277,5.90596e-05,0.000602145,32.8213723,-111.78702,325.436005,-10.5949375,0.281582921,0.144570499,,,,,,,,,,,,,,2022-11-16 16:12:53.778116+00:00
2022-11-16 09:12:53.977674-07:00,13.000283,3.23,1.45,-2.89,-0.15,10.66,975.65,34.75,25.0,0.0,-0.000129816,-0.000972579,0.000880131,32.8213723,-111.78702,325.432861,-10.5912647,0.280435311,0.145624286,,,,,,,,,,,,,,2022-11-16 16:12:53.977674+00:00
2022-11-16 09:12:54.177889-07:00,13.200498,3.35,1.53,-2.97,-0.16,10.59,975.63,34.95,24.0,0.0,0.000295717,-0.000533102,-0.000695658,32.8213723,-111.78702,325.431,-10.5837338,0.281550026,0.14155336,,,,,,,,,,,,,,2022-11-16 16:12:54.177889+00:00
2022-11-16 09:12:54.378139-07:00,13.400748,3.38,1.54,-3.01,-0.16,10.62,975.63,34.88,18.0,0.0,0.000602553,-0.000226506,0.00058772,32.8213722,-111.78702,325.433044,-10.5729321,0.27640653,0.146784448,,,,,,,,,,,,,,2022-11-16 16:12:54.378139+00:00
2022-11-16 09:12:54.579043-07:00,13.601652,3.46,1.51,-3.12,-0.18,10.71,975.62,34.67,22.0,0.0,5.40793e-05,-0.000199212,0.000909272,32.8213722,-111.78702,325.432709,-10.5668186,0.27923088,0.147612998,1.97416,20.4333,4098.11,25.1576,11802.0,-0.0628981,-1.0,14.0,-1204.0,96.0,,0.0,2022-11-16 09:12:49.864,2022-11-16 16:12:54.579043+00:00
2022-11-16 09:12:54.778159-07:00,13.800768,3.28,1.51,-2.91,-0.13,10.86,975.62,34.38,26.0,0.0,0.000307796,-9.53747e-05,0.00207138,32.8213722,-111.78702,325.440582,-10.5587215,0.278374709,0.149139243,,,,,,,,,,,,,,2022-11-16 16:12:54.778159+00:00
2022-11-16 09:12:54.977876-07:00,14.000485,3.41,1.55,-3.03,-0.14,10.64,975.64,34.84,20.0,0.0,5.68624e-05,-7.94226e-06,0.00286918,32.8213722,-111.78702,325.443054,-10.5481569,0.278303951,0.155042949,,,,,,,,,,,,,,2022-11-16 16:12:54.977876+00:00
2022-11-16 09:12:55.178139-07:00,14.200748,3.42,1.56,-3.04,-0.15,10.59,975.63,34.94,20.0,0.0,-7.53824e-05,0.00018793,0.00106362,32.8213722,-111.78702,325.442932,-10.5469118,0.279281582,0.148526752,,,,,,,,,,,,,,2022-11-16 16:12:55.178139+00:00
2022-11-16 09:12:55.377430-07:00,14.400039,3.43,1.41,-3.11,-0.2,10.73,975.63,34.72,25.0,0.0,0.000512098,-0.000963226,0.000847051,32.8213722,-111.78702,325.441711,-10.537138,0.278482016,0.154753478,,,,,,,,,,,,,,2022-11-16 16:12:55.377430+00:00
2022-11-16 09:12:55.578487-07:00,14.601096,3.54,1.39,-3.24,-0.2,10.76,975.63,34.61,23.0,0.0,0.000250432,-2.57378e-05,0.000637638,32.8213721,-111.78702,325.438049,-10.5316266,0.278783071,0.150659886,1.97412,20.1861,4083.86,25.1604,11820.0,-0.0229453,-1.0,14.0,-1216.0,96.0,,0.0,2022-11-16 09:12:50.888,2022-11-16 16:12:55.578487+00:00
2022-11-16 09:12:55.778280-07:00,14.800889,3.42,1.32,-3.15,-0.18,10.67,975.62,34.81,18.0,0.0,8.10531e-05,-0.000505518,0.00198539,32.8213721,-111.78702,325.439056,-10.5228691,0.283002592,0.15220186,,,,,,,,,,,,,,2022-11-16 16:12:55.778280+00:00
2022-11-16 09:12:55.977893-07:00,15.000502,3.31,1.34,-3.02,-0.18,10.66,975.63,34.79,22.0,0.0,0.000463455,-0.000698795,0.00228355,32.8213721,-111.78702,325.452301,-10.5166944,0.283291907,0.14781561,,,,,,,,,,,,,,2022-11-16 16:12:55.977893+00:00
2022-11-16 09:12:56.178258-07:00,15.200867,3.33,1.43,-3.01,-0.21,10.78,975.63,34.52,27.0,0.0,0.000163917,0.000253283,0.00406324,32.8213721,-111.78702,325.453857,-10.5157158,0.284329499,0.145193222,,,,,,,,,,,,,,2022-11-16 16:12:56.178258+00:00
2022-11-16 09:12:56.377823-07:00,15.400432,3.15,1.29,-2.86,-0.25,10.73,975.65,34.64,21.0,0.0,0.000470954,-0.000651565,0.00206642,32.8213721,-111.78702,325.444946,-10.5121623,0.285305815,0.152885989,,,,,,,,,,,,,,2022-11-16 16:12:56.377823+00:00
2022-11-16 09:12:56.578428-07:00,15.601037,3.01,1.27,-2.72,-0.2,10.75,975.64,34.66,19.0,0.0,0.000310663,-0.000206021,0.000794909,32.8213721,-111.78702,325.440948,-10.4990768,0.282666646,0.148008523,1.97756,19.6221,4079.87,25.1629,11820.0,0.000948092,-1.0,14.0,-1216.0,96.0,,0.0,2022-11-16 09:12:51.912,2022-11-16 16:12:56.578428+00:00
2022-11-16 09:12:56.777617-07:00,15.800226,2.95,1.32,-2.63,-0.13,10.92,975.63,34.15,25.0,0.0,0.000362437,0.000167928,0.000267236,32.821372,-111.78702,325.438141,-10.4951905,0.282118177,0.145784169,,,,,,,,,,,,,,2022-11-16 16:12:56.777617+00:00
2022-11-16 09:12:56.977827-07:00,16.000436,3.0,1.12,-2.78,-0.03,11.08,975.63,33.91,24.0,0.0,0.000278017,-0.00106885,0.000594278,32.821372,-111.78702,325.440918,-10.484249,0.281541193,0.150441626,,,,,,,,,,,,,,2022-11-16 16:12:56.977827+00:00
2022-11-16 09:12:57.177450-07:00,16.200059,3.21,1.0,-3.05,0.01,11.03,975.64,33.89,19.0,0.0,2.97245e-05,-0.000444966,-0.000109841,32.821372,-111.78702,325.438965,-10.4776077,0.281237993,0.150422349,,,,,,,,,,,,,,2022-11-16 16:12:57.177450+00:00
2022-11-16 09:12:57.378091-07:00,16.4007,2.79,0.97,-2.61,0.1,11.03,975.65,33.95,21.0,0.0,0.000123775,-0.00108862,-0.000306144,32.8213719,-111.78702,325.43512,-10.4707005,0.280690337,0.146370793,,,,,,,,,,,,,,2022-11-16 16:12:57.378091+00:00
2022-11-16 09:12:57.578588-07:00,16.601197,2.51,0.79,-2.37,0.18,11.21,975.64,33.59,25.0,0.0,-7.97392e-05,-0.00100456,-0.000101182,32.8213719,-111.78702,325.431458,-10.4661124,0.278362381,0.142179992,1.97677,19.8286,4076.64,25.1646,11833.0,-0.0547156,-1.0,13.0,-1223.0,96.0,,0.0,2022-11-16 09:12:52.936,2022-11-16 16:12:57.578588+00:00
2022-11-16 09:12:57.777536-07:00,16.800145,2.1,0.6,-1.97,0.4,11.29,975.67,33.36,20.0,0.0,0.000219633,-0.000540464,-0.000173534,32.8213719,-111.78702,325.43512,-10.4599391,0.279842994,0.141210062,,,,,,,,,,,,,,2022-11-16 16:12:57.777536+00:00
2022-11-16 09:12:57.978128-07:00,17.000737,3.0,1.13,-2.78,0.04,10.96,975.64,34.11,19.0,0.0,0.00043185,-0.000924081,0.00150026,32.8213718,-111.78702,325.428467,-10.456186,0.28063048,0.141651424,,,,,,,,,,,,,,2022-11-16 16:12:57.978128+00:00
2022-11-16 09:12:58.178229-07:00,17.200838,3.19,1.07,-3.0,0.01,10.83,975.66,34.35,25.0,0.0,0.000849622,2.87103e-05,0.000783729,32.8213719,-111.78702,325.429291,-10.4479318,0.282944569,0.146570363,,,,,,,,,,,,,,2022-11-16 16:12:58.178229+00:00
2022-11-16 09:12:58.377746-07:00,17.400355,3.27,1.12,-3.07,-0.06,10.76,975.65,34.6,24.0,0.0,0.00088326,-0.00107079,0.00228208,32.8213719,-111.78702,325.437256,-10.4416346,0.280971028,0.147454302,,,,,,,,,,,,,,2022-11-16 16:12:58.377746+00:00
2022-11-16 09:12:58.579189-07:00,17.601798,3.32,1.13,-3.12,-0.03,10.77,975.65,34.57,18.0,0.0,0.000339551,-3.69407e-05,0.00309956,32.8213719,-111.78702,325.437561,-10.4381205,0.277279751,0.144597926,1.97473,20.4102,4094.56,25.1679,11856.0,-0.0500414,-1.0,11.0,-1208.0,96.0,,0.0,2022-11-16 09:12:53.960,2022-11-16 16:12:58.579189+00:00
2022-11-16 09:12:58.777857-07:00,17.800466,3.22,1.09,-3.03,0.03,10.77,975.65,34.53,21.0,0.0,0.000414113,-0.000649806,0.00348662,32.8213719,-111.78702,325.442444,-10.4333277,0.275716094,0.150197366,,,,,,,,,,,,,,2022-11-16 16:12:58.777857+00:00
2022-11-16 09:12:58.977615-07:00,18.000224,3.31,1.21,-3.08,-0.14,10.76,975.64,34.52,26.0,0.0,7.4202e-05,-0.000550868,0.00321047,32.8213719,-111.78702,325.446991,-10.4260769,0.277850821,0.144045266,,,,,,,,,,,,,,2022-11-16 16:12:58.977615+00:00
2022-11-16 09:12:59.177572-07:00,18.200181,3.37,1.22,-3.14,-0.13,10.77,975.63,34.58,21.0,0.0,0.000246035,-0.00083374,0.00122865,32.8213719,-111.78702,325.438995,-10.4226627,0.278571227,0.14718172,,,,,,,,,,,,,,2022-11-16 16:12:59.177572+00:00
2022-11-16 09:12:59.377892-07:00,18.400501,3.31,1.19,-3.08,-0.22,10.74,975.65,34.61,19.0,0.0,0.000363768,-0.000929509,0.00122752,32.8213719,-111.78702,325.43985,-10.4198789,0.278572916,0.144879459,,,,,,,,,,,,,,2022-11-16 16:12:59.377892+00:00
2022-11-16 09:12:59.579125-07:00,18.601734,3.16,1.18,-2.93,-0.07,10.76,975.64,34.56,25.0,0.0,0.000118899,-8.51139e-05,0.00097275,32.8213719,-111.78702,325.435272,-10.4136709,0.276910893,0.15418549,1.97383,19.3556,4132.13,25.1695,11862.0,0.0280419,-1.0,13.0,-1198.0,96.0,,0.0,2022-11-16 09:12:54.984,2022-11-16 16:12:59.579125+00:00
2022-11-16 09:12:59.777669-07:00,18.800278,3.02,1.03,-2.83,-0.05,10.81,975.66,34.49,22.0,0.0,-4.68549e-06,-0.000546269,8.72068e-05,32.8213719,-111.78702,325.433228,-10.4097717,0.276329309,0.154479643,,,,,,,,,,,,,,2022-11-16 16:12:59.777669+00:00
2022-11-16 09:12:59.978072-07:00,19.000681,2.99,1.11,-2.78,-0.12,10.82,975.65,34.46,18.0,0.0,-0.000126636,0.000348617,0.000341157,32.8213719,-111.78702,325.431122,-10.399388,0.277091885,0.143649928,,,,,,,,,,,,,,2022-11-16 16:12:59.978072+00:00
2022-11-16 09:13:00.178315-07:00,19.200924,3.13,1.28,-2.86,-0.15,10.88,975.64,34.34,21.0,0.0,-3.15138e-05,-0.000258881,-0.000305842,32.8213719,-111.78702,325.425659,-10.3989777,0.279575424,0.14234317,,,,,,,,,,,,,,2022-11-16 16:13:00.178315+00:00
2022-11-16 09:13:00.377932-07:00,19.400541,3.31,1.32,-3.03,-0.17,10.83,975.63,34.39,26.0,0.0,7.94348e-05,-0.00056806,-0.000823525,32.8213719,-111.78702,325.426453,-10.3938262,0.278740837,0.137114644,,,,,,,,,,,,,,2022-11-16 16:13:00.377932+00:00
2022-11-16 09:13:00.578901-07:00,19.60151,3.26,1.36,-2.96,-0.12,10.9,975.64,34.33,21.0,0.0,-0.000489983,0.000198425,0.000578687,32.8213719,-111.78702,325.426727,-10.3846132,0.28050249,0.134122399,1.976,20.0809,4130.45,25.1733,11852.0,0.0789684,-1.0,12.0,-1191.0,96.0,,0.0,2022-11-16 09:12:56.008,2022-11-16 16:13:00.578901+00:00
2022-11-16 09:13:00.778093-07:00,19.800702,3.15,1.11,-2.95,0.03,10.94,975.65,34.13,20.0,0.0,0.000594556,-5.08817e-05,0.00055154,32.8213719,-111.78702,325.430328,-10.3783142,0.278472537,0.133759144,,,,,,,,,,,,,,2022-11-16 16:13:00.778093+00:00
2022-11-16 09:13:00.977424-07:00,20.000033,3.3,1.18,-3.08,-0.09,10.88,975.64,34.23,25.0,0.0,0.000122463,4.8526e-05,0.000898684,32.8213719,-111.78702,325.431213,-10.3730994,0.279526366,0.139761324,,,,,,,,,,,,,,2022-11-16 16:13:00.977424+00:00
2022-11-16 09:13:01.178202-07:00,20.200811,3.36,1.27,-3.1,-0.14,10.89,975.65,34.26,24.0,0.0,-0.000252527,0.000219433,0.00115798,32.8213719,-111.78702,325.440521,-10.3669043,0.281629198,0.138398577,,,,,,,,,,,,,,2022-11-16 16:13:01.178202+00:00
2022-11-16 09:13:01.378204-07:00,20.400813,3.24,1.32,-2.96,-0.15,10.87,975.64,34.3,19.0,0.0,-0.000448501,0.000236552,-0.000330708,32.8213719,-111.78702,325.437256,-10.3616557,0.278802539,0.145724964,,,,,,,,,,,,,,2022-11-16 16:13:01.378204+00:00
2022-11-16 09:13:01.578441-07:00,20.60105,3.19,1.09,-3.0,-0.06,10.8,975.66,34.46,22.0,0.0,-4.49356e-05,0.000125168,-0.00156905,32.821372,-111.78702,325.435852,-10.354194,0.279186944,0.150613662,1.97396,19.6103,4119.84,25.1751,11830.0,0.082705,-1.0,14.0,-1194.0,96.0,,0.0,2022-11-16 09:12:57.032,2022-11-16 16:13:01.578441+00:00
2022-11-16 09:13:01.777649-07:00,20.800258,3.0,1.08,-2.8,-0.03,10.85,975.64,34.3,25.0,0.0,9.9373e-05,-3.5825e-05,-0.000657319,32.821372,-111.78702,325.433228,-10.349021,0.281548421,0.152478644,,,,,,,,,,,,,,2022-11-16 16:13:01.777649+00:00
2022-11-16 09:13:01.977801-07:00,21.00041,3.03,1.15,-2.81,-0.09,10.95,975.65,34.18,20.0,0.0,0.00069885,0.000517971,-0.00088417,32.8213721,-111.78702,325.434662,-10.3455737,0.282769196,0.155046177,,,,,,,,,,,,,,2022-11-16 16:13:01.977801+00:00
2022-11-16 09:13:02.178009-07:00,21.200618,3.2,1.3,-2.92,-0.14,10.89,975.64,34.26,19.0,0.0,0.000494322,-1.94472e-05,-0.000798545,32.8213721,-111.78702,325.430023,-10.3442277,0.283938409,0.153229981,,,,,,,,,,,,,,2022-11-16 16:13:02.178009+00:00
2022-11-16 09:13:02.378262-07:00,21.400871,3.18,1.29,-2.91,-0.12,10.96,975.63,34.09,25.0,0.0,-0.00012367,0.000621938,-0.000374849,32.8213721,-111.78702,325.428375,-10.3349253,0.281073029,0.155901195,,,,,,,,,,,,,,2022-11-16 16:13:02.378262+00:00
2022-11-16 09:13:02.578710-07:00,21.601319,2.93,1.21,-2.66,-0.11,11.05,975.65,33.86,23.0,0.0,-6.31213e-06,0.000151925,-0.000794393,32.8213721,-111.78702,325.424591,-10.3293098,0.281155016,0.163905033,1.9788,19.8806,4120.67,25.1775,11814.0,0.0189149,-1.0,15.0,-1190.0,96.0,,0.0,2022-11-16 09:12:58.056,2022-11-16 16:13:02.578710+00:00
2022-11-16 09:13:02.778335-07:00,21.800944,2.95,1.27,-2.66,-0.1,11.05,975.64,33.85,19.0,0.0,0.000135859,-0.000418714,-0.000867815,32.8213721,-111.78702,325.428375,-10.3230263,0.279942859,0.15296499,,,,,,,,,,,,,,2022-11-16 16:13:02.778335+00:00
2022-11-16 09:13:02.977444-07:00,22.000053,2.97,1.49,-2.56,-0.07,10.95,975.64,34.13,22.0,0.0,8.51848e-05,0.000598575,-0.000774425,32.821372,-111.78702,325.434021,-10.3183136,0.282040133,0.159365648,,,,,,,,,,,,,,2022-11-16 16:13:02.977444+00:00
2022-11-16 09:13:03.177959-07:00,22.200568,3.03,1.75,-2.47,-0.06,10.96,975.62,34.06,26.0,0.0,0.000111506,0.000123801,0.000947391,32.8213721,-111.78702,325.43457,-10.3141196,0.281093797,0.156931583,,,,,,,,,,,,,,2022-11-16 16:13:03.177959+00:00
2022-11-16 09:13:03.377850-07:00,22.400459,2.87,1.42,-2.49,-0.1,10.99,975.63,34.02,20.0,0.0,-0.000412265,-0.000170211,0.00287763,32.8213722,-111.787021,325.440765,-10.3057873,0.279658247,0.154842912,,,,,,,,,,,,,,2022-11-16 16:13:03.377850+00:00
2022-11-16 09:13:03.578684-07:00,22.601293,2.91,1.42,-2.54,-0.12,10.98,975.64,34.06,19.0,0.0,-0.000386931,-0.000272018,0.00236541,32.8213722,-111.787021,325.434723,-10.304589,0.277731683,0.154785628,1.97551,19.2961,4131.18,25.1793,11789.0,0.0199354,-1.0,16.0,-1180.0,96.0,,0.0,2022-11-16 09:12:59.080,2022-11-16 16:13:03.578684+00:00
2022-11-16 09:13:03.777796-07:00,22.800405,2.89,1.52,-2.46,-0.09,11.0,975.63,33.98,26.0,0.0,-0.000117565,-0.000278261,0.000786734,32.8213722,-111.787021,325.43808,-10.2943023,0.275120886,0.147959578,,,,,,,,,,,,,,2022-11-16 16:13:03.777796+00:00
2022-11-16 09:13:03.977378-07:00,22.999987,3.07,1.31,-2.78,-0.1,11.01,975.64,34.03,22.0,0.0,-5.45142e-05,-0.000303005,0.00118523,32.8213722,-111.787021,325.438599,-10.2871517,0.274953397,0.149422337,,,,,,,,,,,,,,2022-11-16 16:13:03.977378+00:00
2022-11-16 09:13:04.178155-07:00,23.200764,3.48,1.72,-3.03,-0.12,10.72,975.63,34.61,18.0,0.0,0.000248806,-0.000643716,0.00165936,32.8213722,-111.787021,325.443359,-10.2912165,0.274668717,0.152796569,,,,,,,,,,,,,,2022-11-16 16:13:04.178155+00:00
2022-11-16 09:13:04.377437-07:00,23.400046,3.61,1.74,-3.16,-0.16,10.77,975.63,34.53,22.0,0.0,0.000266042,-0.00101204,0.0011839,32.8213721,-111.787021,325.436188,-10.2806988,0.275121512,0.136177385,,,,,,,,,,,,,,2022-11-16 16:13:04.377437+00:00
2022-11-16 09:13:04.578698-07:00,23.601307,3.48,1.85,-2.94,-0.1,10.72,975.63,34.65,26.0,0.0,-5.15087e-05,1.8387e-05,0.00104713,32.8213721,-111.787021,325.438324,-10.2703058,0.272666825,0.1421577,1.97438,18.6709,4130.63,25.1815,11792.0,0.0529351,-1.0,16.0,-1181.0,96.0,,0.0,2022-11-16 09:13:00.104,2022-11-16 16:13:04.578698+00:00
2022-11-16 09:13:04.777556-07:00,23.800165,3.66,2.09,-3.0,-0.07,10.61,975.62,34.96,20.0,0.0,0.000182708,0.0003947,0.00139951,32.8213721,-111.787021,325.44519,-10.2625361,0.272153177,0.139918112,,,,,,,,,,,,,,2022-11-16 16:13:04.777556+00:00
2022-11-16 09:13:04.977700-07:00,24.000309,3.72,2.07,-3.09,-0.15,10.61,975.62,34.91,20.0,0.0,-0.00022175,0.000314137,0.000176319,32.8213721,-111.787021,325.437225,-10.253665,0.270126692,0.152251379,,,,,,,,,,,,,,2022-11-16 16:13:04.977700+00:00
2022-11-16 09:13:05.177873-07:00,24.200482,3.63,2.05,-2.99,-0.11,10.62,975.61,34.88,25.0,0.0,-0.0003575,-9.72638e-05,-0.000779254,32.8213721,-111.787021,325.434906,-10.2501369,0.269672345,0.145833394,,,,,,,,,,,,,,2022-11-16 16:13:05.177873+00:00
2022-11-16 09:13:05.377846-07:00,24.400455,3.61,1.92,-3.06,-0.13,10.68,975.61,34.66,22.0,0.0,-0.000343967,-0.000310938,-0.000488742,32.8213721,-111.787021,325.433838,-10.2468717,0.26825569,0.147188737,,,,,,,,,,,,,,2022-11-16 16:13:05.377846+00:00
2022-11-16 09:13:05.579248-07:00,24.601857,3.49,1.69,-3.05,-0.17,10.76,975.63,34.51,18.0,0.0,-0.000962188,0.00031583,-0.00108842,32.8213722,-111.787021,325.423523,-10.2398785,0.271733752,0.152137106,1.97884,19.7021,4130.57,25.184,11804.0,0.0293093,-1.0,14.0,-1189.0,96.0,,0.0,2022-11-16 09:13:01.128,2022-11-16 16:13:05.579248+00:00
2022-11-16 09:13:05.777676-07:00,24.800285,2.97,1.32,-2.66,-0.09,10.93,975.63,34.12,22.0,0.0,-0.00080682,0.000200468,-0.00201831,32.8213722,-111.787021,325.425629,-10.2399105,0.271593915,0.151719089,,,,,,,,,,,,,,2022-11-16 16:13:05.777676+00:00
2022-11-16 09:13:05.977601-07:00,25.00021,2.79,1.23,-2.5,-0.05,11.06,975.64,33.88,26.0,0.0,-0.000380916,-0.000347439,-0.000662879,32.8213723,-111.787021,325.4245,-10.2283765,0.272928395,0.150585247,,,,,,,,,,,,,,2022-11-16 16:13:05.977601+00:00
2022-11-16 09:13:06.177544-07:00,25.200153,2.92,1.54,-2.48,-0.08,10.97,975.65,34.13,19.0,0.0,-0.000545177,-0.000542007,-0.00106284,32.8213723,-111.787021,325.426178,-10.2222875,0.27004633,0.145884714,,,,,,,,,,,,,,2022-11-16 16:13:06.177544+00:00
2022-11-16 09:13:06.378184-07:00,25.400793,2.77,1.44,-2.37,-0.09,10.99,975.63,34.0,19.0,0.0,-0.000127201,-0.000276363,0.000649294,32.8213723,-111.787021,325.425873,-10.2184124,0.271664281,0.149633353,,,,,,,,,,,,,,2022-11-16 16:13:06.378184+00:00
2022-11-16 09:13:06.582971-07:00,25.60558,3.12,1.36,-2.81,-0.12,11.01,975.63,33.95,25.0,0.0,-0.000332772,2.46308e-05,0.000750989,32.8213722,-111.787021,325.437744,-10.2118268,0.274604651,0.15192533,1.97685,19.8006,4100.85,25.1862,11819.0,0.0406891,-1.0,13.0,-1207.0,96.0,,0.0,2022-11-16 09:13:02.152,2022-11-16 16:13:06.582971+00:00
2022-11-16 09:13:06.777424-07:00,25.800033,3.14,1.61,-2.69,-0.1,10.8,975.63,34.43,22.0,0.0,-0.000377386,0.000222372,0.00175413,32.8213722,-111.787021,325.442108,-10.2106003,0.272686206,0.149519267,,,,,,,,,,,,,,2022-11-16 16:13:06.777424+00:00
2022-11-16 09:13:06.977539-07:00,26.000148,3.3,1.55,-2.9,-0.21,10.69,975.63,34.68,19.0,0.0,-0.000411554,4.90932e-05,0.00142325,32.8213722,-111.787021,325.442322,-10.2021121,0.275072426,0.158480961,,,,,,,,,,,,,,2022-11-16 16:13:06.977539+00:00
2022-11-16 09:13:07.177850-07:00,26.200459,3.12,1.7,-2.61,-0.11,11.02,975.63,33.92,23.0,0.0,0.000158821,5.74095e-05,0.00169459,32.8213723,-111.787021,325.439392,-10.1925391,0.277091731,0.152731228,,,,,,,,,,,,,,2022-11-16 16:13:07.177850+00:00
2022-11-16 09:13:07.377687-07:00,26.400296,2.95,1.51,-2.53,-0.06,10.74,975.62,34.66,25.0,0.0,-0.000179045,0.000273577,-0.00133165,32.8213723,-111.787021,325.437988,-10.1856179,0.279655862,0.156083463,,,,,,,,,,,,,,2022-11-16 16:13:07.377687+00:00
2022-11-16 09:13:07.579232-07:00,26.601841,3.03,1.38,-2.69,-0.16,10.71,975.62,34.66,19.0,0.0,-0.000476008,0.000129838,-0.000860322,32.8213724,-111.787021,325.449188,-10.1816968,0.280997718,0.150395736,1.97498,19.7528,4103.39,25.1887,11839.0,0.0666573,-1.0,14.0,-1212.0,96.0,,0.0,2022-11-16 09:13:03.176,2022-11-16 16:13:07.579232+00:00
2022-11-16 09:13:07.777338-07:00,26.799947,3.09,1.48,-2.71,-0.15,10.69,975.63,34.67,19.0,0.0,3.99e-05,0.000303701,0.00071296,32.8213724,-111.787021,325.458588,-10.1742636,0.279302693,0.162032594,,,,,,,,,,,,,,2022-11-16 16:13:07.777338+00:00
2022-11-16 09:13:07.978285-07:00,27.000894,2.97,1.35,-2.64,-0.1,10.8,975.64,34.47,25.0,0.0,-9.59411e-05,0.000172606,0.000500782,32.8213724,-111.787021,325.45285,-10.1728037,0.279977179,0.16433487,,,,,,,,,,,,,,2022-11-16 16:13:07.978285+00:00
2022-11-16 09:13:08.178143-07:00,27.200752,2.42,1.04,-2.18,-0.19,10.99,975.65,34.04,22.0,0.0,5.50318e-05,0.000486125,0.000552514,32.8213724,-111.787021,325.449951,-10.1712823,0.27922606,0.166662947,,,,,,,,,,,,,,2022-11-16 16:13:08.178143+00:00
2022-11-16 09:13:08.378049-07:00,27.400658,2.53,1.51,-2.02,-0.1,11.21,975.64,33.51,19.0,0.0,-0.000209712,-0.000264264,-0.000848258,32.8213723,-111.787021,325.44281,-10.1721986,0.28397934,0.163788506,,,,,,,,,,,,,,2022-11-16 16:13:08.378049+00:00
2022-11-16 09:13:08.578673-07:00,27.601282,2.54,1.34,-2.16,-0.07,11.12,975.63,33.75,23.0,0.0,9.52934e-05,-3.89527e-05,-0.00238784,32.8213723,-111.787021,325.435913,-10.1585647,0.286767408,0.153542956,1.97679,19.0639,4096.05,25.1913,11854.0,-0.0319368,-1.0,12.0,-1218.0,96.0,,0.0,2022-11-16 09:13:04.200,2022-11-16 16:13:08.578673+00:00
2022-11-16 09:13:08.777961-07:00,27.80057,2.86,1.38,-2.5,-0.15,10.72,975.63,34.65,25.0,0.0,0.000244364,0.000308203,-0.00148146,32.8213723,-111.787021,325.441895,-10.1495358,0.287389555,0.159676422,,,,,,,,,,,,,,2022-11-16 16:13:08.777961+00:00
2022-11-16 09:13:08.977800-07:00,28.000409,2.88,1.32,-2.55,-0.09,10.69,975.64,34.78,20.0,0.0,0.000148921,-2.89275e-05,-0.000814291,32.8213723,-111.787021,325.448761,-10.1450248,0.287834009,0.157425573,,,,,,,,,,,,,,2022-11-16 16:13:08.977800+00:00
2022-11-16 09:13:09.177330-07:00,28.199939,2.66,1.4,-2.26,-0.07,10.95,975.64,34.12,20.0,0.0,4.37272e-05,8.50976e-05,7.3512e-05,32.8213723,-111.787021,325.452698,-10.1388337,0.28703548,0.148756031,,,,,,,,,,,,,,2022-11-16 16:13:09.177330+00:00
2022-11-16 09:13:09.377623-07:00,28.400232,2.66,1.27,-2.33,-0.06,10.71,975.64,34.63,25.0,0.0,-1.94621e-05,-0.000572193,0.000198017,32.8213723,-111.787021,325.450256,-10.1287103,0.285144474,0.147933871,,,,,,,,,,,,,,2022-11-16 16:13:09.377623+00:00
2022-11-16 09:13:09.578582-07:00,28.601191,2.7,1.34,-2.34,-0.08,10.67,975.64,34.72,23.0,0.0,8.67001e-05,-0.00052029,-0.00325591,32.8213724,-111.787021,325.438202,-10.1217409,0.28560849,0.139633431,1.97518,18.8272,4098.26,25.193,11862.0,-0.00979615,-1.0,12.0,-1206.0,96.0,,0.0,2022-11-16 09:13:05.326,2022-11-16 16:13:09.578582+00:00
2022-11-16 09:13:09.777984-07:00,28.800593,2.64,1.38,-2.25,-0.05,10.71,975.63,34.73,18.0,0.0,-0.00014411,-0.000589132,-0.00302039,32.8213724,-111.787021,325.435852,-10.119132,0.284514222,0.141677838,,,,,,,,,,,,,,2022-11-16 16:13:09.777984+00:00
2022-11-16 09:13:09.977800-07:00,29.000409,2.66,1.38,-2.28,-0.06,10.8,975.64,34.43,22.0,0.0,0.000599286,-0.000931102,-0.00179688,32.8213725,-111.787021,325.434845,-10.1116566,0.285075493,0.14007498,,,,,,,,,,,,,,2022-11-16 16:13:09.977800+00:00
2022-11-16 09:13:10.177691-07:00,29.2003,2.76,1.27,-2.45,-0.07,10.81,975.63,34.4,27.0,0.0,0.000457151,-0.000523226,-0.00129549,32.8213725,-111.787021,325.433838,-10.1068992,0.285141405,0.138140016,,,,,,,,,,,,,,2022-11-16 16:13:10.177691+00:00
2022-11-16 09:13:10.377531-07:00,29.40014,2.9,1.21,-2.63,-0.1,10.84,975.63,34.3,20.0,0.0,0.000430851,-0.000675894,-0.000858282,32.8213724,-111.787021,325.435364,-10.1002383,0.284582869,0.144484067,,,,,,,,,,,,,,2022-11-16 16:13:10.377531+00:00
2022-11-16 09:13:10.578885-07:00,29.601494,2.98,1.52,-2.56,-0.06,10.84,975.64,34.43,20.0,0.0,0.000386098,-0.000421202,-0.00040572,32.8213724,-111.787021,325.438416,-10.0969382,0.285410021,0.140695248,1.97644,18.5852,4091.88,25.1957,11853.0,-0.0579279,-1.0,12.0,-1211.0,96.0,,0.0,2022-11-16 09:13:06.350,2022-11-16 16:13:10.578885+00:00
2022-11-16 09:13:10.778245-07:00,29.800854,3.06,1.48,-2.68,-0.09,10.87,975.64,34.31,25.0,0.0,0.000746077,-0.000223417,0.000421037,32.8213725,-111.787021,325.443481,-10.0906166,0.285866161,0.141365796,,,,,,,,,,,,,,2022-11-16 16:13:10.778245+00:00
2022-11-16 09:13:10.977935-07:00,30.000544,3.01,1.46,-2.63,-0.13,10.85,975.63,34.3,23.0,0.0,0.000756477,0.000157172,0.00171748,32.8213725,-111.787021,325.440857,-10.0826698,0.284354187,0.144270863,,,,,,,,,,,,,,2022-11-16 16:13:10.977935+00:00
2022-11-16 09:13:11.178264-07:00,30.200873,3.05,1.68,-2.54,-0.1,10.8,975.64,34.47,19.0,0.0,0.000884405,-0.000324674,0.000484495,32.8213726,-111.787021,325.447418,-10.0827446,0.282815225,0.138920781,,,,,,,,,,,,,,2022-11-16 16:13:11.178264+00:00
2022-11-16 09:13:11.378256-07:00,30.400865,3.12,1.69,-2.63,-0.08,10.83,975.63,34.35,22.0,0.0,0.000123246,0.00043918,0.000155842,32.8213726,-111.787021,325.44104,-10.0752992,0.279145763,0.138177556,,,,,,,,,,,,,,2022-11-16 16:13:11.378256+00:00
2022-11-16 09:13:11.591596-07:00,30.614205,3.39,1.48,-3.04,-0.17,10.9,975.63,34.19,26.0,0.0,0.000456901,-0.000587184,-0.000968069,32.8213725,-111.787021,325.442261,-10.0703841,0.277792537,0.137417988,1.97546,18.8795,4081.66,25.1983,11850.0,-0.0355197,-1.0,12.0,-1206.0,96.0,,0.0,2022-11-16 09:13:07.374,2022-11-16 16:13:11.591596+00:00
2022-11-16 09:13:11.778271-07:00,30.80088,3.13,1.44,-2.77,-0.12,10.85,975.65,34.27,19.0,0.0,-2.8901e-06,-0.000151585,-0.00108925,32.8213725,-111.787021,325.441589,-10.0722447,0.280117066,0.133485643,,,,,,,,,,,,,,2022-11-16 16:13:11.778271+00:00
2022-11-16 09:13:11.977733-07:00,31.000342,2.95,1.21,-2.69,-0.1,11.0,975.65,34.01,18.0,0.0,0.000192969,-0.000510331,-0.000199625,32.8213725,-111.787021,325.446503,-10.0632637,0.278473222,0.144780101,,,,,,,,,,,,,,2022-11-16 16:13:11.977733+00:00
2022-11-16 09:13:12.177778-07:00,31.200387,2.84,1.54,-2.38,-0.13,10.88,975.64,34.2,25.0,0.0,4.53831e-05,-0.000688328,0.000821809,32.8213725,-111.787021,325.457642,-10.059519,0.281120754,0.131368585,,,,,,,,,,,,,,2022-11-16 16:13:12.177778+00:00
2022-11-16 09:13:12.378128-07:00,31.400737,3.01,1.5,-2.61,-0.09,10.86,975.64,34.29,24.0,0.0,0.000355727,-0.000161904,0.00065189,32.8213725,-111.787021,325.451813,-10.0532951,0.279259126,0.137596881,,,,,,,,,,,,,,2022-11-16 16:13:12.378128+00:00
2022-11-16 09:13:12.578938-07:00,31.601547,2.95,1.55,-2.5,-0.06,10.84,975.63,34.38,19.0,0.0,0.000370084,-0.00046436,-0.000104674,32.8213726,-111.787021,325.445953,-10.0506311,0.279453667,0.142472157,1.97351,18.6521,4074.87,25.2006,11821.0,0.053409,-1.0,15.0,-1181.0,96.0,,0.0,2022-11-16 09:13:08.398,2022-11-16 16:13:12.578938+00:00
2022-11-16 09:13:12.777376-07:00,31.799985,3.01,1.25,-2.74,-0.1,10.94,975.64,34.11,21.0,0.0,7.32392e-05,-0.000304923,-0.000889195,32.8213726,-111.787021,325.437714,-10.0423526,0.279466646,0.140599719,,,,,,,,,,,,,,2022-11-16 16:13:12.777376+00:00
2022-11-16 09:13:12.977915-07:00,32.000524,3.04,1.41,-2.69,-0.11,10.97,975.63,34.07,25.0,0.0,0.000114205,-0.000450248,-0.000775533,32.8213726,-111.787021,325.43457,-10.0401168,0.277641766,0.144189661,,,,,,,,,,,,,,2022-11-16 16:13:12.977915+00:00
2022-11-16 09:13:13.177709-07:00,32.200318,2.6,1.35,-2.21,-0.1,10.99,975.64,34.08,19.0,0.0,0.00010819,6.78422e-05,-0.00194775,32.8213727,-111.787021,325.421936,-10.0350363,0.277706688,0.148123876,,,,,,,,,,,,,,2022-11-16 16:13:13.177709+00:00
2022-11-16 09:13:13.377731-07:00,32.40034,2.64,1.36,-2.26,-0.08,11.01,975.65,33.99,19.0,0.0,-1.66788e-05,0.000125961,-0.0017824,32.8213727,-111.787021,325.420074,-10.0313815,0.278276578,0.152970846,,,,,,,,,,,,,,2022-11-16 16:13:13.377731+00:00
2022-11-16 09:13:13.578517-07:00,32.601126,2.76,1.27,-2.45,-0.11,11.08,975.63,33.76,24.0,0.0,0.000147612,-0.000279607,0.00162542,32.8213726,-111.787021,325.426819,-10.0247752,0.276125398,0.150910296,1.97515,18.5899,4084.82,25.2025,11799.0,0.0647042,-1.0,17.0,-1173.0,96.0,,0.0,2022-11-16 09:13:09.422,2022-11-16 16:13:13.578517+00:00
2022-11-16 09:13:13.777627-07:00,32.800236,2.88,1.22,-2.61,-0.08,11.18,975.64,33.6,23.0,0.0,0.000422589,6.55646e-05,0.00166109,32.8213727,-111.787021,325.426971,-10.0159975,0.276398759,0.155628359,,,,,,,,,,,,,,2022-11-16 16:13:13.777627+00:00
2022-11-16 09:13:13.977693-07:00,33.000302,2.81,1.04,-2.61,-0.03,11.25,975.65,33.44,19.0,0.0,0.000286572,0.000631052,-0.000656999,32.8213727,-111.787021,325.432892,-10.0085611,0.278036293,0.146984085,,,,,,,,,,,,,,2022-11-16 16:13:13.977693+00:00
2022-11-16 09:13:14.177386-07:00,33.199995,2.6,1.05,-2.38,0.01,11.28,975.66,33.33,22.0,0.0,0.000179448,0.000413697,0.00126116,32.8213727,-111.787021,325.442932,-10.0034233,0.27966112,0.149619799,,,,,,,,,,,,,,2022-11-16 16:13:14.177386+00:00
2022-11-16 09:13:14.378198-07:00,33.400807,2.13,0.77,-1.96,0.34,11.46,975.66,33.03,26.0,0.0,0.000232472,4.2988e-05,0.000869895,32.8213728,-111.787021,325.440552,-9.99553999,0.275538555,0.150709205,,,,,,,,,,,,,,2022-11-16 16:13:14.378198+00:00
2022-11-16 09:13:14.584844-07:00,33.607453,2.37,0.89,-2.19,0.15,11.47,975.66,32.92,20.0,0.0,0.000526716,0.000370089,0.000191125,32.8213728,-111.787021,325.446075,-9.99502429,0.276263666,0.148670186,1.97715,19.0005,4099.55,25.2057,11799.0,0.0493649,-1.0,17.0,-1173.0,96.0,,0.0,2022-11-16 09:13:10.446,2022-11-16 16:13:14.584844+00:00
2022-11-16 09:13:14.778020-07:00,33.800629,2.37,0.86,-2.2,0.17,11.4,975.66,33.11,19.0,0.0,0.000471038,-0.000728558,0.00100944,32.8213728,-111.787021,325.448395,-9.99280416,0.276486481,0.14608215,,,,,,,,,,,,,,2022-11-16 16:13:14.778020+00:00
2022-11-16 09:13:14.977482-07:00,34.000091,2.52,1.03,-2.3,-0.01,11.27,975.66,33.41,24.0,0.0,0.000358878,-0.000863213,0.0021344,32.8213727,-111.787021,325.449341,-9.99092133,0.275819312,0.140700037,,,,,,,,,,,,,,2022-11-16 16:13:14.977482+00:00
2022-11-16 09:13:15.177869-07:00,34.200478,2.33,0.82,-2.18,0.06,11.3,975.67,33.31,23.0,0.0,-3.5643e-05,-0.000470132,0.000498391,32.8213728,-111.787021,325.430145,-9.9841681,0.275423183,0.140690512,,,,,,,,,,,,,,2022-11-16 16:13:15.177869+00:00
2022-11-16 09:13:15.377338-07:00,34.399947,2.65,1.01,-2.45,-0.04,11.24,975.65,33.42,19.0,0.0,0.000197492,-0.000129789,-0.000320444,32.8213728,-111.787021,325.4328,-9.97832258,0.276775523,0.140684696,,,,,,,,,,,,,,2022-11-16 16:13:15.377338+00:00
2022-11-16 09:13:15.608736-07:00,34.631345,2.55,1.0,-2.35,-0.01,11.18,975.67,33.53,22.0,0.0,0.00016267,-0.000257467,5.12852e-05,32.8213729,-111.787021,325.423096,-9.96912732,0.278312082,0.145698257,1.9745,18.875,4141.09,25.2071,11780.0,0.0797273,-1.0,11.0,-1192.0,96.0,,0.0,2022-11-16 09:13:11.470,2022-11-16 16:13:15.608736+00:00
2022-11-16 09:13:15.778080-07:00,34.800689,2.57,1.0,-2.37,-0.0,11.2,975.65,33.57,25.0,0.0,0.000293926,-0.00105942,0.000836789,32.8213729,-111.787021,325.426025,-9.96754649,0.278048992,0.146757954,,,,,,,,,,,,,,2022-11-16 16:13:15.778080+00:00
2022-11-16 09:13:15.977878-07:00,35.000487,2.39,0.87,-2.22,0.04,11.35,975.66,33.19,19.0,0.0,-0.000211503,-0.000200989,0.00318706,32.8213729,-111.787021,325.431458,-9.95940997,0.277134391,0.148402821,,,,,,,,,,,,,,2022-11-16 16:13:15.977878+00:00
2022-11-16 09:13:16.178269-07:00,35.200878,2.17,0.69,-2.04,0.28,11.42,975.67,33.03,19.0,0.0,0.000314718,-0.00049093,0.00387937,32.8213729,-111.787021,325.429504,-9.9561255,0.277507281,0.148355023,,,,,,,,,,,,,,2022-11-16 16:13:16.178269+00:00
2022-11-16 09:13:16.377593-07:00,35.400202,2.45,0.88,-2.26,0.32,11.2,975.65,33.52,24.0,0.0,0.000284027,-0.000871981,0.003987,32.8213729,-111.787021,325.42981,-9.94893675,0.278530665,0.153211611,,,,,,,,,,,,,,2022-11-16 16:13:16.377593+00:00
2022-11-16 09:13:16.684383-07:00,35.706992,2.66,0.92,-2.49,0.14,11.36,975.66,33.21,24.0,0.0,-0.000122449,0.000130154,0.000227822,32.821373,-111.787021,325.422089,-9.94226606,0.281071286,0.164197999,,,,,,,,,,,,,,2022-11-16 16:13:16.684383+00:00
2022-11-16 09:13:16.778253-07:00,35.800862,2.43,0.81,-2.28,0.19,11.47,975.64,32.92,18.0,0.0,-0.000122449,0.000130154,0.000227822,32.821373,-111.787021,325.422089,-9.94226606,0.281071286,0.164197999,,,,,,,,,,,,,,2022-11-16 16:13:16.778253+00:00
2022-11-16 09:13:16.977513-07:00,36.000122,2.2,0.8,-2.04,0.23,11.21,975.67,33.49,21.0,0.0,0.000117286,0.000154484,-0.000406222,32.8213729,-111.787021,325.422302,-9.93149324,0.28244051,0.155455563,,,,,,,,,,,,,,2022-11-16 16:13:16.977513+00:00
2022-11-16 09:13:17.178113-07:00,36.200722,2.63,1.12,-2.38,-0.07,11.19,975.65,33.54,26.0,0.0,0.000397197,0.000488691,-0.000715552,32.8213729,-111.787021,325.421326,-9.93528305,0.284323625,0.15413477,,,,,,,,,,,,,,2022-11-16 16:13:17.178113+00:00
2022-11-16 09:13:17.377979-07:00,36.400588,2.39,0.88,-2.23,0.05,11.17,975.65,33.55,20.0,0.0,0.000170587,-0.000952595,-0.000356648,32.8213729,-111.787021,325.420715,-9.93047937,0.283473708,0.151034814,,,,,,,,,,,,,,2022-11-16 16:13:17.377979+00:00
2022-11-16 09:13:17.656394-07:00,36.679003,2.48,0.94,-2.29,-0.0,11.16,975.66,33.57,19.0,0.0,5.12102e-05,-4.57445e-05,-0.000633698,32.8213729,-111.787021,325.426147,-9.9164154,0.282248806,0.160598088,1.97281,18.0255,4215.45,25.2113,11793.0,0.121059,-1.0,14.0,-1164.0,96.0,,0.0,2022-11-16 09:13:13.518,2022-11-16 16:13:17.656394+00:00
2022-11-16 09:13:17.777406-07:00,36.800015,2.34,0.89,-2.16,0.01,11.19,975.65,33.54,25.0,0.0,0.000128065,-0.000792043,-0.00025107,32.8213729,-111.787021,325.427216,-9.91282848,0.282679826,0.154249136,,,,,,,,,,,,,,2022-11-16 16:13:17.777406+00:00
2022-11-16 09:13:17.977552-07:00,37.000161,2.29,1.07,-2.02,0.15,11.36,975.66,33.16,23.0,0.0,0.000279644,0.000253196,0.00177488,32.8213729,-111.787021,325.435455,-9.90624978,0.279323769,0.155084304,,,,,,,,,,,,,,2022-11-16 16:13:17.977552+00:00
2022-11-16 09:13:18.177685-07:00,37.200294,2.26,1.07,-1.98,0.1,11.3,975.66,33.29,18.0,0.0,6.51709e-05,-0.00107556,0.00290657,32.8213729,-111.787021,325.442627,-9.90580125,0.278041498,0.158509336,,,,,,,,,,,,,,2022-11-16 16:13:18.177685+00:00
2022-11-16 09:13:18.377655-07:00,37.400264,2.5,1.25,-2.17,0.11,11.29,975.65,33.33,22.0,0.0,0.000161931,-0.000366896,0.00175309,32.8213729,-111.787021,325.437103,-9.90351381,0.279319402,0.150240935,,,,,,,,,,,,,,2022-11-16 16:13:18.377655+00:00
2022-11-16 09:13:18.696086-07:00,37.718695,2.46,1.13,-2.19,-0.05,11.09,975.65,33.85,26.0,0.0,0.000101183,-0.000749283,0.000108275,32.821373,-111.787021,325.430237,-9.89374489,0.279088435,0.151074942,,,,,,,,,,,,,,2022-11-16 16:13:18.696086+00:00
2022-11-16 09:13:18.778246-07:00,37.800855,2.7,1.26,-2.39,-0.08,10.98,975.65,34.02,21.0,0.0,0.000392092,-0.000969998,0.000629132,32.821373,-111.787021,325.434753,-9.88553715,0.279602054,0.146696415,,,,,,,,,,,,,,2022-11-16 16:13:18.778246+00:00
2022-11-16 09:13:18.978029-07:00,38.000638,2.41,1.03,-2.18,0.06,11.15,975.64,33.67,18.0,0.0,0.000128806,-0.000119617,0.000907693,32.821373,-111.787021,325.434357,-9.88470789,0.280292342,0.147115419,,,,,,,,,,,,,,2022-11-16 16:13:18.978029+00:00
2022-11-16 09:13:19.177425-07:00,38.200034,2.3,0.83,-2.14,0.1,11.16,975.67,33.6,25.0,0.0,0.000181042,-0.00203802,0.00394565,32.821373,-111.787021,325.447083,-9.87682828,0.281656792,0.146604141,,,,,,,,,,,,,,2022-11-16 16:13:19.177425+00:00
2022-11-16 09:13:19.377488-07:00,38.400097,2.47,0.91,-2.29,0.11,11.27,975.67,33.38,23.0,0.0,-0.000196176,-0.000675976,0.00250255,32.821373,-111.787021,325.446106,-9.87064828,0.280560977,0.148584542,,,,,,,,,,,,,,2022-11-16 16:13:19.377488+00:00
2022-11-16 09:13:19.719926-07:00,38.742535,2.6,0.8,-2.48,0.12,11.13,975.66,33.68,19.0,0.0,0.000260699,-0.000929614,-0.000561117,32.821373,-111.787021,325.433502,-9.86417807,0.279075041,0.144770456,,,,,,,,,,,,,,2022-11-16 16:13:19.719926+00:00
2022-11-16 09:13:19.777572-07:00,38.800181,2.95,1.11,-2.74,0.01,11.24,975.65,33.47,22.0,0.0,0.00028975,-0.000724476,-0.00205605,32.821373,-111.787021,325.428619,-9.86296703,0.278528041,0.148897691,,,,,,,,,,,,,,2022-11-16 16:13:19.777572+00:00
2022-11-16 09:13:19.977374-07:00,38.999983,3.19,1.21,-2.95,-0.1,11.09,975.65,33.76,27.0,0.0,0.000341751,-0.00100252,-0.0028605,32.821373,-111.787021,325.432098,-9.8618978,0.280963229,0.146994463,,,,,,,,,,,,,,2022-11-16 16:13:19.977374+00:00
2022-11-16 09:13:20.177502-07:00,39.200111,3.25,1.12,-3.05,-0.08,10.95,975.65,34.13,20.0,0.0,0.000276133,-0.00103326,-0.0011763,32.821373,-111.787021,325.433197,-9.85759494,0.279689288,0.151219403,,,,,,,,,,,,,,2022-11-16 16:13:20.177502+00:00
2022-11-16 09:13:20.378307-07:00,39.400916,3.3,1.02,-3.13,-0.02,10.81,975.66,35.03,19.0,0.0,0.00017118,-0.00034656,-0.000868078,32.821373,-111.787021,325.429077,-9.85470525,0.283173463,0.149976865,,,,,,,,,,,,,,2022-11-16 16:13:20.378307+00:00
2022-11-16 09:13:20.727904-07:00,39.750513,3.22,0.92,-3.08,-0.04,10.8,975.65,34.43,24.0,0.0,8.14242e-05,-0.000569686,-0.000412861,32.821373,-111.787021,325.429016,-9.84610905,0.281650518,0.154924661,,,,,,,,,,,,,,2022-11-16 16:13:20.727904+00:00
2022-11-16 09:13:20.777329-07:00,39.799938,3.03,1.04,-2.84,-0.0,10.88,975.66,34.27,23.0,0.0,0.000110378,-0.000612395,-0.00131663,32.8213731,-111.787021,325.425995,-9.84246364,0.282285712,0.155444504,,,,,,,,,,,,,,2022-11-16 16:13:20.777329+00:00
2022-11-16 09:13:20.977646-07:00,40.000255,2.77,0.99,-2.59,0.15,10.98,975.66,34.65,18.0,0.0,-0.000177578,-0.000770806,-0.00124803,32.8213731,-111.787021,325.426971,-9.83588785,0.279606594,0.152924075,,,,,,,,,,,,,,2022-11-16 16:13:20.977646+00:00
2022-11-16 09:13:21.178262-07:00,40.200871,3.04,1.12,-2.82,-0.08,10.92,975.65,34.18,22.0,0.0,1.57957e-05,-0.000462577,-0.00162689,32.8213731,-111.787021,325.420593,-9.8376784,0.281001025,0.151600121,,,,,,,,,,,,,,2022-11-16 16:13:21.178262+00:00
2022-11-16 09:13:21.377728-07:00,40.400337,3.21,1.14,-3.0,-0.05,10.96,975.67,34.01,26.0,0.0,0.000241646,-0.00113144,-0.00176124,32.8213731,-111.787021,325.428192,-9.83241856,0.281716574,0.1514184,,,,,,,,,,,,,,2022-11-16 16:13:21.377728+00:00
2022-11-16 09:13:21.758426-07:00,40.781035,2.97,1.06,-2.77,0.01,11.0,975.65,34.63,21.0,0.0,0.000115674,-0.00129956,0.000662492,32.821373,-111.787021,325.434326,-9.8187134,0.278534007,0.153458419,,,,,,,,,,,,,,2022-11-16 16:13:21.758426+00:00
2022-11-16 09:13:21.784463-07:00,40.807072,2.62,0.87,-2.47,0.14,11.06,975.66,34.45,19.0,0.0,0.000169672,-0.000753999,0.000662344,32.821373,-111.787021,325.433014,-9.81922471,0.279259118,0.148493148,,,,,,,,,,,,,,2022-11-16 16:13:21.784463+00:00
2022-11-16 09:13:21.977431-07:00,41.00004,2.85,0.94,-2.69,0.07,11.04,975.65,34.51,25.0,0.0,-0.000551454,-0.000156964,0.000441909,32.821373,-111.787021,325.427246,-9.8108108,0.27750425,0.148945876,,,,,,,,,,,,,,2022-11-16 16:13:21.977431+00:00
2022-11-16 09:13:22.177999-07:00,41.200608,2.88,1.11,-2.65,0.05,11.12,975.65,34.28,24.0,0.0,-5.7491e-05,-0.000327111,0.00107141,32.8213731,-111.787021,325.428497,-9.8093708,0.278257712,0.154536379,,,,,,,,,,,,,,2022-11-16 16:13:22.177999+00:00
2022-11-16 09:14:36.578188-07:00,115.600797,2.74,1.13,-2.49,-0.16,11.13,975.7,34.51,22.0,0.0,0.000269791,-0.00104065,0.00109952,32.821375,-111.787022,325.434906,-8.84251419,0.26437188,0.155708108,,,,,,,,,,,,,,2022-11-16 16:14:36.578188+00:00
2022-11-16 09:14:36.778084-07:00,115.800693,2.83,1.34,-2.49,-0.13,10.93,975.68,35.03,26.0,0.0,8.82495e-05,-0.00039061,0.00137044,32.821375,-111.787022,325.434937,-8.84226009,0.266950149,0.150395949,,,,,,,,,,,,,,2022-11-16 16:14:36.778084+00:00
2022-11-16 09:14:36.977603-07:00,116.000212,2.92,1.49,-2.5,-0.05,11.09,975.68,34.61,19.0,0.0,0.000287558,-0.000341617,0.00112138,32.821375,-111.787022,325.438049,-8.84379169,0.264944598,0.151697878,,,,,,,,,,,,,,2022-11-16 16:14:36.977603+00:00
2022-11-16 09:14:37.177992-07:00,116.200601,2.86,1.67,-2.32,-0.04,11.14,975.68,34.55,19.0,0.0,-0.000689984,-2.88428e-05,0.00219843,32.821375,-111.787022,325.436157,-8.83851931,0.2649542,0.15976807,1.97682,12.0945,4305.56,25.3704,11777.0,0.133128,-1.0,13.0,-1200.0,95.0,,0.0,,2022-11-16 16:14:37.177992+00:00
2022-11-16 09:14:37.377628-07:00,116.400237,3.07,1.9,-2.4,-0.1,10.95,975.66,34.99,25.0,0.0,-9.05303e-05,-0.000679936,0.00267008,32.821375,-111.787022,325.442352,-8.83751639,0.265712555,0.155167027,,,,,,,,,,,,,,2022-11-16 16:14:37.377628+00:00
2022-11-16 09:14:37.577817-07:00,116.600426,3.07,1.84,-2.46,-0.07,10.84,975.66,35.24,24.0,0.0,-0.000130774,2.398e-05,0.00347139,32.821375,-111.787022,325.446686,-8.83577719,0.268344724,0.15599447,,,,,,,,,,,,,,2022-11-16 16:14:37.577817+00:00
2022-11-16 09:14:37.778255-07:00,116.800864,3.05,1.54,-2.63,-0.09,10.91,975.68,34.98,19.0,0.0,-0.000435158,-0.000519598,0.00431853,32.8213749,-111.787022,325.44397,-8.83529137,0.266506405,0.175028552,,,,,,,,,,,,,,2022-11-16 16:14:37.778255+00:00
2022-11-16 09:14:37.978200-07:00,117.000809,2.72,1.55,-2.23,-0.03,10.88,975.68,35.09,22.0,0.0,-4.34061e-05,-0.000315798,0.00405845,32.8213749,-111.787022,325.449402,-8.83154509,0.266236376,0.165672379,1.97433,12.0097,4322.09,25.3736,11791.0,0.13333,-1.0,16.0,-1171.0,95.0,,0.0,,2022-11-16 16:14:37.978200+00:00
2022-11-16 09:14:38.177377-07:00,117.199986,2.91,1.72,-2.34,-0.15,11.06,975.67,34.69,26.0,0.0,-0.000197606,0.000522296,0.00365959,32.8213749,-111.787022,325.448212,-8.82962894,0.265768052,0.173488137,1.97433,12.0097,4322.09,25.3736,11791.0,0.13333,-1.0,16.0,-1171.0,95.0,,0.0,,2022-11-16 16:14:38.177377+00:00
2022-11-16 09:14:38.377640-07:00,117.400249,2.87,1.79,-2.25,-0.12,11.17,975.66,34.42,20.0,0.0,-0.000494319,-0.000429481,0.00412564,32.8213748,-111.787022,325.445862,-8.82530755,0.264102598,0.169557026,,,,,,,,,,,,,,2022-11-16 16:14:38.377640+00:00
2022-11-16 09:14:38.577950-07:00,117.600559,2.68,1.63,-2.12,-0.14,11.05,975.67,34.69,19.0,0.0,-0.000370769,0.000471845,0.00336482,32.8213748,-111.787022,325.445129,-8.82809575,0.263354979,0.164608186,,,,,,,,,,,,,,2022-11-16 16:14:38.577950+00:00
2022-11-16 09:14:38.777740-07:00,117.800349,2.42,1.63,-1.79,-0.11,11.16,975.67,34.46,25.0,0.0,-2.46166e-05,-0.000677043,0.00556633,32.8213749,-111.787022,325.447876,-8.82490604,0.263252236,0.170151441,,,,,,,,,,,,,,2022-11-16 16:14:38.777740+00:00
2022-11-16 09:14:38.977458-07:00,118.000067,2.65,1.31,-2.31,-0.05,11.06,975.68,34.13,22.0,0.0,-0.000179276,-0.000140226,0.00481871,32.8213749,-111.787022,325.444427,-8.82431141,0.264639982,0.157097256,,,,,,,,,,,,,,2022-11-16 16:14:38.977458+00:00
2022-11-16 09:14:39.177453-07:00,118.200062,2.41,1.35,-2.0,-0.02,11.07,975.67,34.1,19.0,0.0,0.000131011,0.00059634,0.00529296,32.8213748,-111.787022,325.448212,-8.82502196,0.26536168,0.160938638,1.97365,12.1539,4298.6,25.3767,11833.0,0.16252,-1.0,18.0,-1194.0,95.0,,0.0,,2022-11-16 16:14:39.177453+00:00
2022-11-16 09:14:39.377750-07:00,118.400359,2.55,1.18,-2.26,-0.04,11.08,975.67,34.59,23.0,0.0,6.77287e-06,-0.000768006,0.00527773,32.8213748,-111.787022,325.450958,-8.82248516,0.262815343,0.165391553,,,,,,,,,,,,,,2022-11-16 16:14:39.377750+00:00
2022-11-16 09:14:39.578250-07:00,118.600859,2.76,1.35,-2.41,-0.12,11.12,975.68,34.54,25.0,0.0,-0.000152371,-0.000429844,0.00677367,32.8213748,-111.787022,325.457336,-8.82016628,0.262393074,0.152362357,,,,,,,,,,,,,,2022-11-16 16:14:39.578250+00:00
2022-11-16 09:14:39.777531-07:00,118.80014,2.77,1.46,-2.35,-0.24,11.17,975.68,34.49,19.0,0.0,5.64645e-05,0.000345581,0.00592455,32.8213747,-111.787022,325.448242,-8.81770801,0.261784876,0.156940801,,,,,,,,,,,,,,2022-11-16 16:14:39.777531+00:00
2022-11-16 09:14:39.977471-07:00,119.00008,2.59,1.22,-2.28,-0.14,11.23,975.7,34.34,20.0,0.0,0.000438118,-0.000687578,0.00535736,32.8213748,-111.787022,325.444672,-8.82054044,0.25961918,0.1601841,,,,,,,,,,,,,,2022-11-16 16:14:39.977471+00:00
2022-11-16 09:14:40.177777-07:00,119.200386,2.61,1.11,-2.36,-0.04,11.2,975.69,34.31,27.0,0.0,-0.000199932,0.000565192,0.0044433,32.8213748,-111.787022,325.441925,-8.82265489,0.260653976,0.15580912,1.97316,12.3377,4270.27,25.3772,11841.0,0.166045,-1.0,17.0,-1201.0,95.0,,0.0,,2022-11-16 16:14:40.177777+00:00
2022-11-16 09:14:40.378199-07:00,119.400808,2.44,1.17,-2.14,-0.05,11.11,975.69,34.56,23.0,0.0,-0.00053126,-0.000537429,0.00622524,32.8213748,-111.787022,325.444275,-8.82361554,0.260597802,0.170602796,,,,,,,,,,,,,,2022-11-16 16:14:40.378199+00:00
2022-11-16 09:14:40.577569-07:00,119.600178,2.59,1.09,-2.35,-0.0,11.07,975.69,34.66,19.0,0.0,8.77552e-06,-0.000312966,0.00773952,32.8213748,-111.787022,325.44635,-8.82435842,0.260334754,0.1652256,,,,,,,,,,,,,,2022-11-16 16:14:40.577569+00:00
2022-11-16 09:14:40.778124-07:00,119.800733,2.73,0.71,-2.62,-0.28,11.0,975.71,34.83,24.0,0.0,6.72113e-05,6.0703e-05,0.00708274,32.8213748,-111.787022,325.446594,-8.82581846,0.260958892,0.167466952,,,,,,,,,,,,,,2022-11-16 16:14:40.778124+00:00
2022-11-16 09:14:40.977613-07:00,120.000222,2.47,0.5,-2.42,-0.07,11.08,975.7,34.69,26.0,0.0,-0.000227258,-0.000233443,0.00769133,32.8213748,-111.787022,325.451599,-8.82629112,0.260924687,0.170000109,,,,,,,,,,,,,,2022-11-16 16:14:40.977613+00:00
2022-11-16 09:14:41.177531-07:00,120.20014,2.11,0.69,-1.99,0.04,11.19,975.7,34.38,19.0,0.0,-0.000494562,0.000223681,0.00799917,32.8213748,-111.787022,325.453186,-8.82271176,0.262842802,0.168403772,1.97375,12.0398,4240.96,25.3792,11850.0,0.160525,-1.0,17.0,-1214.0,95.0,,0.0,,2022-11-16 16:14:41.177531+00:00
