Timestamp,Seconds,S,Um,Vm,Wm,T,P,H,MD,Sts,Vx,Vy,Vz,Lat,Lon,Alt,Yaw,Roll,Pitch,CH4,C2H6,H20,T_a,Batt,R,C2C1,Power,Current,SOC,Lat_a,Lon_a,TS,Timestamp_UTC,Rho,Rho_err,Sc,V,U,W,WD,V_err,U_err,Sc_avg,WD_avg,V_avg,U_avg,W_avg,U_err_avg,V_err_avg,Nx,Ny,cross_wind,cross_wind_err,CH4_sub,CH4_res,CH4_adj,CH4_adj_err,BG_Samples_CH4,C2H6_sub,C2H6_res,C2H6_adj,C2H6_adj_err,BG_Samples_C2H6
2022-11-16 09:12:40.977391-07:00,0.0,3.25,1.37,-2.94,-0.17,10.64,975.62,35.57,25.0,0.0,0.000572142,-0.000639809,0.00399304,32.821374,-111.787019,326.287531,-11.1013414,0.285490717,0.146899627,,,,,,,,,,,,,,2022-11-16 16:12:40.977391+00:00,1.1976183902811735,0.014897094814375665,3.2443860691979247,-2.621840420625362,1.911019040925701,-0.16600696,323.91226966369265,0.2665683162003725,0.21109563248107638,,,,,,,,0.745425788143873,0.666588624542968,,,,,,,,,,,,
2022-11-16 09:12:41.177436-07:00,0.200045,3.12,1.31,-2.83,-0.17,10.65,975.63,35.51,18.0,0.0,-0.000180388,0.000251159,0.00485379,32.8213739,-111.787019,326.29287100000005,-11.0865738,0.285627725,0.150207878,,,,,,,,,,,,,,2022-11-16 16:12:41.177436+00:00,1.19758846592874,0.014896450420982123,3.118184002669036,-2.5250321385379673,1.829558464179669,-0.16514621000000002,324.0741009371578,0.2646922537269888,0.2081979019160291,,,,,,,,0.8122184403269535,0.5833534136292091,,,,,,,,,,,,
2022-11-16 09:12:41.378134-07:00,0.400743,3.27,1.56,-2.87,-0.13,10.62,975.63,35.58,20.0,0.0,0.000275194,0.000320171,0.00426077,32.8213739,-111.787019,326.30077500000004,-11.0829734,0.288327207,0.147460732,,,,,,,,,,,,,,2022-11-16 16:12:41.378134+00:00,1.197715074287544,0.014898530838117157,3.2665019422591217,-2.516274506741584,2.0828820287056615,-0.12573923,320.38325854134104,0.26535751071632036,0.2079459170540136,,,,,,,,0.7583643960181503,-0.6518308391385191,,,,,,,,,,,,
2022-11-16 09:12:41.578634-07:00,0.601243,3.11,1.54,-2.69,-0.11,10.62,975.63,35.58,25.0,0.0,8.14897e-05,0.000644907,0.00424702,32.8213738,-111.787019,326.299432,-11.0681646,0.288871324,0.152407047,1.975,20.2755,4105.74,25.1249,11823.0,0.0408409,-1.0,15.0,-1209.0,96.0,,0.0,2022-11-16 09:12:36.552,2022-11-16 16:12:41.578634+00:00,1.197715074287544,0.014898530838117157,3.099194600262931,-2.34367558892552,2.027854014512269,-0.10575298,319.1321599825735,0.26238540241516256,0.20289684528459964,3.1312663092052295,320.40612209341185,-2.411725849713309,1.9943946442669105,-0.11441433000000001,0.20489199208659387,0.2633722588291282,0.9921110664842252,-0.12536200285386828,2.280999780368579,0.20171445500697643,,,,,,,,,,
2022-11-16 09:12:41.777514-07:00,0.800123,3.11,1.56,-2.69,-0.09,10.59,975.64,35.65,20.0,0.0,-0.000108658,-0.00015623,0.0024568,32.8213738,-111.787019,326.294153,-11.059717,0.287471865,0.158236381,,,,,,,,,,,,,,2022-11-16 16:12:41.777514+00:00,1.1978539870418643,0.014900660876091312,3.1096602031916682,-2.3409390320372037,2.0469467573922793,-0.0875432,318.83313954435135,0.2623739975313072,0.20282164575514924,,,,,,,,0.8209636768233514,-0.570980421150046,,,,,,,,,,,,
2022-11-16 09:12:41.977718-07:00,1.000327,3.06,1.5,-2.67,-0.09,10.67,975.62,35.46,19.0,0.0,0.000495819,3.86714e-05,0.00210997,32.8213738,-111.787019,326.297632,-11.0573352,0.290277771,0.149039712,,,,,,,,,,,,,,2022-11-16 16:12:41.977718+00:00,1.197491801063682,0.014895014799753912,3.0627907976433892,-2.3327079823242722,1.9847319565446744,-0.08789003,319.6079514616356,0.26205212975586206,0.20259765042317782,,,,,,,,0.07775884070682564,-0.9969721975521336,,,,,,,,,,,,
2022-11-16 09:12:42.178287-07:00,1.200896,3.09,1.46,-2.72,-0.14,10.61,975.63,35.61,23.0,0.0,0.000529968,0.000115921,0.000829667,32.8213738,-111.787019,326.28746900000004,-11.0428362,0.289046806,0.155561018,,,,,,,,,,,,,,2022-11-16 16:12:42.178287+00:00,1.1977572830228937,0.014899224440072812,3.087315544575593,-2.389868705722707,1.954493499908701,-0.139170333,320.72285410389253,0.2628333008062242,0.20430458606051993,,,,,,,,0.21368016687004862,-0.9769036729823408,,,,,,,,,,,,
2022-11-16 09:12:42.378187-07:00,1.400796,3.19,1.51,-2.81,-0.14,10.66,975.63,35.52,23.0,0.0,0.000309809,-0.000132946,0.00340993,32.8213738,-111.787019,326.3034,-11.03202,0.285438442,0.148847799,,,,,,,,,,,,,,2022-11-16 16:12:42.378187+00:00,1.1975462690905054,0.014895757078151686,3.1903147406652455,-2.469255354054717,2.0201203283413753,-0.13659007,320.7130882319697,0.2642927861341206,0.20667778408068813,,,,,,,,0.3943470564045491,0.9189615873936556,,,,,,,,,,,,
2022-11-16 09:12:42.578380-07:00,1.600989,3.23,1.4,-2.9,-0.17,10.62,975.63,34.97,18.0,0.0,-0.000368372,0.000276888,0.00271788,32.8213738,-111.787019,326.298761,-11.0298292,0.287144371,0.147468843,1.9756,20.5178,4067.13,25.1276,11789.0,0.0508083,-1.0,14.0,-1184.0,96.0,,0.0,2022-11-16 09:12:37.576,2022-11-16 16:12:42.578380+00:00,1.197715074287544,0.014898530838117157,3.219806065680641,-2.578305445576578,1.9285984885154328,-0.16728212,323.20314068049635,0.265803451889482,0.20999963059649074,3.1818411812382705,320.5849776376946,-2.4571120622989224,2.019363816843618,-0.1413356046,0.20636086321056335,0.26409560513886016,0.6008454417476647,0.7993652201159703,-0.75080437994853,0.18446614963241134,,,,,,,,,,
2022-11-16 09:12:42.777926-07:00,1.800535,3.21,1.53,-2.81,-0.15,10.78,975.64,35.16,21.0,0.0,0.0003195,0.000328545,0.00339581,32.8213738,-111.787019,326.297998,-11.0150161,0.284971232,0.154503722,,,,,,,,,,,,,,2022-11-16 16:12:42.777926+00:00,1.1970524082811205,0.014887490962712979,3.199481618435582,-2.46557185656035,2.039028701819746,-0.14660419,320.40924102641117,0.2642716991900739,0.20663484837395865,,,,,,,,0.7169063018241472,-0.6971695306055944,,,,,,,,,,,,
2022-11-16 09:12:42.977676-07:00,2.000285,3.21,1.66,-2.75,-0.12,10.81,975.62,35.17,25.0,0.0,-4.73416e-05,-0.000188417,0.00296869,32.8213737,-111.787019,326.296686,-11.0096083,0.285417633,0.145792199,,,,,,,,,,,,,,2022-11-16 16:12:42.977676+00:00,1.1969014050496345,0.014885315766243901,3.212287936834291,-2.382558949580259,2.154578065632833,-0.11703131,317.8765641457031,0.2632767876744,0.20418746694115933,,,,,,,,0.9698543525360666,-0.2436853193502782,,,,,,,,,,,,
2022-11-16 09:12:43.178283-07:00,2.200892,3.19,1.58,-2.77,-0.12,10.79,975.62,34.53,19.0,0.0,0.000292435,0.000374398,0.00336266,32.8213737,-111.787019,326.29604500000005,-11.0014673,0.285466305,0.158590178,,,,,,,,,,,,,,2022-11-16 16:12:43.178283+00:00,1.1969857116922384,0.014886700566377012,3.1888408920636935,-2.4172014319934996,2.0798662149441602,-0.11663733999999999,319.2898519653802,0.26359382582293894,0.2052450217698442,,,,,,,,0.7880891517896484,-0.6155611170561964,,,,,,,,,,,,
2022-11-16 09:12:43.377832-07:00,2.400441,3.36,1.5,-3.0,-0.17,10.61,975.64,34.99,19.0,0.0,0.000244743,9.44648e-05,0.0029704,32.8213735,-111.787019,326.30242300000003,-10.9883305,0.282531261,0.152572026,,,,,,,,,,,,,,2022-11-16 16:12:43.377832+00:00,1.197769559780302,0.014899273468502502,3.354176256269414,-2.658990017996696,2.0445709677865014,-0.1670296,322.4423204239438,0.2674864583833868,0.21262095492770405,,,,,,,,0.3600841849085094,-0.9329198142277687,,,,,,,,,,,,
2022-11-16 09:12:43.578752-07:00,2.601361,3.41,1.51,-3.05,-0.19,10.6,975.62,34.97,25.0,0.0,9.02436e-05,0.000598811,0.00268658,32.8213735,-111.787019,326.302393,-10.9876213,0.282449661,0.151389518,1.97588,20.4897,4031.81,25.1303,11788.0,0.0448988,-1.0,14.0,-1195.0,96.0,,0.0,2022-11-16 09:12:38.600,2022-11-16 16:12:43.578752+00:00,1.1977872175432394,0.014899869074114336,3.4029004860797185,-2.7056884261269443,2.0637300838249866,-0.18731342,322.66587488713355,0.2683688887344229,0.21410684146757,3.3133370323691826,320.3370359432007,-2.549937419826147,2.1127268499942127,-0.139204406,0.20932045142356231,0.26587914046171607,0.9888339012323483,-0.14902186340807333,2.4691323591945746,0.20475711520727177,,,,,,,,,,
2022-11-16 09:12:43.777466-07:00,2.800075,3.26,1.6,-2.83,-0.13,10.65,975.62,35.47,24.0,0.0,0.000245158,-0.000213565,0.00276677,32.8213735,-111.787019,326.301935,-10.9758926,0.280049738,0.158358604,,,,,,,,,,,,,,2022-11-16 16:12:43.777466+00:00,1.1975761909016711,0.01489640141140385,3.2513060454307627,-2.4738119220315173,2.1097975200168753,-0.12723323,319.5407025102819,0.2645570958217044,0.20698713224098253,,,,,,,,0.6568512070817019,0.7540202197257785,,,,,,,,,,,,
2022-11-16 09:12:43.977354-07:00,2.999963,3.37,1.75,-2.88,-0.1,10.71,975.62,34.67,18.0,0.0,-0.0002514,0.000499165,0.00219156,32.8213735,-111.787019,326.30047,-10.9665343,0.277447587,0.148677363,,,,,,,,,,,,,,2022-11-16 16:12:43.977354+00:00,1.1973230570629685,0.014892242353382016,3.3694614820023268,-2.493995300982079,2.2656694633985395,-0.09780844000000001,317.7464299292641,0.26538943354612704,0.20764230671171077,,,,,,,,0.893122634942514,0.4498132489748839,,,,,,,,,,,,
2022-11-16 09:12:44.177901-07:00,3.20051,3.41,1.77,-2.92,-0.1,10.7,975.62,34.83,21.0,0.0,6.09093e-05,-5.56108e-05,0.00170899,32.8213735,-111.787019,326.296198,-10.9600849,0.279356963,0.151235478,,,,,,,,,,,,,,2022-11-16 16:12:44.177901+00:00,1.1973652386045244,0.014892935367881024,3.4146538239027757,-2.5302730133479394,2.2929411712944114,-0.09829101000000001,317.81703310226897,0.26606579256172985,0.20874008923961823,,,,,,,,0.6742558806602645,0.738497804597313,,,,,,,,,,,,
2022-11-16 09:12:44.377474-07:00,3.400083,3.25,1.9,-2.63,-0.1,10.85,975.61,34.39,26.0,0.0,0.000289723,2.95526e-05,0.00365444,32.8213735,-111.787019,326.294153,-10.9483648,0.280205522,0.145419739,,,,,,,,,,,,,,2022-11-16 16:12:44.377474+00:00,1.1967205610042677,0.014882498024602907,3.2447094073996596,-2.2212450249419526,2.3652081679290884,-0.09634556000000001,313.20214601577015,0.26126760361573653,0.19979429171319293,,,,,,,,0.1014764029622816,-0.994837946422349,,,,,,,,,,,,
2022-11-16 09:12:44.578801-07:00,3.60141,3.23,1.94,-2.58,-0.12,10.75,975.62,34.63,21.0,0.0,0.000138826,9.51809e-05,0.00415523,32.8213735,-111.787019,326.29143700000003,-10.941745,0.280085331,0.149328955,1.97495,20.4499,4016.58,25.1325,11801.0,0.0591474,-1.0,14.0,-1194.0,96.0,,0.0,2022-11-16 09:12:39.624,2022-11-16 16:12:44.578801+00:00,1.1971543606125192,0.014889470942444213,3.2280416265976655,-2.1647691507170874,2.3945829004548833,-0.11584477,312.1144532129062,0.26047528865272346,0.19826189153716509,3.237373619023989,317.45433304488705,-2.3767394283142442,2.185076718531497,-0.10651846599999999,0.20432656882109007,0.26319396520947763,0.565471492293329,-0.8247678409125537,3.1958568395058924,0.1905843935370492,,,,,,,,,,
2022-11-16 09:12:44.777597-07:00,3.800206,3.19,1.49,-2.81,-0.12,10.78,975.62,34.56,19.0,0.0,0.000441445,-0.000579496,0.00468717,32.8213735,-111.787019,326.297815,-10.9351948,0.282650833,0.147933257,,,,,,,,,,,,,,2022-11-16 16:12:44.777597+00:00,1.1970278694674539,0.014887393063405498,3.1813256387448026,-2.4769056637879365,1.9964396190294031,-0.11531282999999999,321.1304333404097,0.26417262078330045,0.20719591961371067,,,,,,,,0.7954818518719505,0.6059774115776694,,,,,,,,,,,,
2022-11-16 09:12:44.978074-07:00,4.000683,3.12,1.37,-2.8,-0.11,10.96,975.62,34.15,24.0,0.0,0.000538366,-0.000775505,0.00320184,32.8213735,-111.787019,326.29906600000004,-10.9212308,0.283313971,0.155571757,,,,,,,,,,,,,,2022-11-16 16:12:44.978074+00:00,1.1962694835728915,0.01487493800028623,3.1181375984750415,-2.4905042887763043,1.8762117339496986,-0.10679816,323.00759955308007,0.2639885204338979,0.20764065200176343,,,,,,,,0.8214588566128251,0.5702677852486059,,,,,,,,,,,,
2022-11-16 09:12:45.177442-07:00,4.200051,3.16,1.48,-2.79,-0.08,10.98,975.63,34.05,24.0,0.0,0.000509537,-0.00019304,0.00325301,32.8213735,-111.787019,326.295312,-10.9189201,0.281946424,0.146598404,,,,,,,,,,,,,,2022-11-16 16:12:45.177442+00:00,1.1961975385583232,0.014873604252436909,3.158713220807167,-2.4593423379772927,1.9821968812240554,-0.07674699,321.13165235486684,0.263819343347442,0.20673485379147669,,,,,,,,0.35428092639249104,0.9351390405680208,,,,,,,,,,,,
2022-11-16 09:12:45.377439-07:00,4.400048,3.45,1.48,-3.11,-0.2,10.59,975.63,34.99,19.0,0.0,0.000344318,7.86663e-05,0.00207191,32.8213734,-111.787019,326.286768,-10.9007649,0.281946379,0.153615994,,,,,,,,,,,,,,2022-11-16 16:12:45.377439+00:00,1.1978417094191034,0.014900611838403022,3.444338758140058,-2.7739244217664405,2.0417670736774833,-0.19792809,323.6448055658116,0.26936144582268123,0.21652258032405344,,,,,,,,0.22273073926054598,-0.9748800017378809,,,,,,,,,,,,
2022-11-16 09:12:45.578954-07:00,4.601563,3.32,1.42,-3.0,-0.19,10.6,975.63,35.06,22.0,0.0,0.00033043,-0.000559225,0.0018473,32.8213734,-111.787019,326.283563,-10.8936649,0.283534365,0.153704534,1.97544,20.0256,4012.72,25.1349,11819.0,-0.0113565,-1.0,13.0,-1205.0,96.0,,0.0,2022-11-16 09:12:40.648,2022-11-16 16:12:45.578954+00:00,1.1977994947333088,0.014899918106831824,3.319742663300142,-2.6781367160450955,1.9617020876540638,-0.1881527,323.7776838790571,0.26738613244339565,0.2134878284222227,3.2549643164336617,322.32002708591597,-2.5770517943058247,1.9871411866816353,-0.149049924,0.21043775794693148,0.2657995442280853,0.8609407796799571,0.5087051934903629,0.3998512509388108,0.17047324451333892,,,,,,,,,,
2022-11-16 09:12:45.778152-07:00,4.800761,3.28,1.48,-2.92,-0.16,10.57,975.61,35.0,27.0,0.0,6.20102e-05,0.000317547,0.00378325,32.8213733,-111.787019,326.291315,-10.8844308,0.284144292,0.151320309,,,,,,,,,,,,,,2022-11-16 16:12:45.778152+00:00,1.1979015907416186,0.014901901403142756,3.273439339581951,-2.5876854935288995,2.0048164246391282,-0.15621675000000002,322.2331676668223,0.2659797128204262,0.21073649943445041,,,,,,,,0.9814616435121033,-0.19165866094314918,,,,,,,,,,,,
2022-11-16 09:12:45.977474-07:00,5.000083,3.08,1.46,-2.71,-0.13,10.6,975.62,34.98,20.0,0.0,6.37945e-05,-0.000367443,0.00379491,32.8213733,-111.787019,326.28411300000005,-10.877213,0.284199639,0.161137235,,,,,,,,,,,,,,2022-11-16 16:12:45.977474+00:00,1.1977872175432394,0.014899869074114336,3.07858760033899,-2.386170002211394,1.9452234662134462,-0.12620509,320.8128259630222,0.2624510867064815,0.20470702776245422,,,,,,,,0.9852608846929035,0.17105843765847123,,,,,,,,,,,,
2022-11-16 09:12:46.177810-07:00,5.200419,3.24,1.57,-2.83,-0.12,10.62,975.62,34.93,19.0,0.0,0.000216702,0.00020007,0.00242301,32.8213732,-111.787019,326.27630000000005,-10.8715103,0.281609204,0.152357421,,,,,,,,,,,,,,2022-11-16 16:12:46.177810+00:00,1.1977027979627664,0.01489848181465708,3.236310563917577,-2.4828956082486178,2.075797549055358,-0.11757698999999999,320.10306158266326,0.2644293733280429,0.20759729921165085,,,,,,,,0.6783485391929921,-0.7347402666076861,,,,,,,,,,,,
2022-11-16 09:12:46.377955-07:00,5.400564,3.2,1.78,-2.66,-0.11,10.62,975.63,34.94,26.0,0.0,2.71266e-05,0.00043419,0.00172594,32.8213732,-111.787019,326.27855800000003,-10.8633172,0.281270353,0.151684551,,,,,,,,,,,,,,2022-11-16 16:12:46.377955+00:00,1.197715074287544,0.014898530838117157,3.200335146071142,-2.276426724645324,2.249450247171241,-0.10827406,315.3415072948676,0.26162579280034093,0.20162612375845304,,,,,,,,0.9980540486307825,-0.06235475933482207,,,,,,,,,,,,
2022-11-16 09:12:46.578650-07:00,5.601259,3.17,1.79,-2.62,-0.08,10.63,975.62,34.91,23.0,0.0,7.81486e-05,-0.000723215,0.00280506,32.8213732,-111.787019,326.27993200000003,-10.859741,0.279822688,0.152260344,1.9771,20.3141,4023.81,25.1376,11819.0,-0.0852352,-1.0,13.0,-1205.0,96.0,,0.0,2022-11-16 09:12:41.672,2022-11-16 16:12:46.578650+00:00,1.197660592634767,0.014897788282123802,3.1736550567698183,-2.2365568184952265,2.2516438477261778,-0.07719494,314.8074016941857,0.26098440794139727,0.20048659103988412,3.1715132524326597,316.6534322579337,-2.305694984483434,2.1752001330665935,-0.09780233199999999,0.20250034201752093,0.26185987811786854,0.994212453045899,0.10743183051803602,1.914906027362594,0.20018597998174154,,,,,,,,,,
2022-11-16 09:12:46.778279-07:00,5.800888,3.18,1.7,-2.69,-0.09,10.59,975.63,35.0,19.0,0.0,-0.000185767,-0.000227789,0.00198211,32.8213731,-111.787019,326.27562900000004,-10.8432849,0.280520488,0.14496513,,,,,,,,,,,,,,2022-11-16 16:12:46.778279+00:00,1.1978417094191034,0.014900611838403022,3.1821925878120485,-2.322389259169281,2.175513225613924,-0.08801789,316.870291241998,0.26208116504747,0.2029776501023001,,,,,,,,0.774966442190583,-0.6320023840765713,,,,,,,,,,,,
2022-11-16 09:12:46.977526-07:00,6.000135,3.07,1.67,-2.57,-0.1,10.63,975.62,34.96,22.0,0.0,-0.000128681,-0.000320916,0.00205222,32.8213731,-111.787019,326.280298,-10.844961,0.282755053,0.148099037,,,,,,,,,,,,,,2022-11-16 16:12:46.977526+00:00,1.197660592634767,0.014897788282123802,3.0650729075927137,-2.2102065118587206,2.1235957957662652,-0.09794778000000001,316.14489947595376,0.26017865147209157,0.19981404597531643,,,,,,,,0.9281626025570463,-0.3721749363062086,,,,,,,,,,,,
2022-11-16 09:12:47.177357-07:00,6.199966,3.12,1.68,-2.62,-0.13,10.6,975.62,35.03,26.0,0.0,6.47077e-05,-0.000727769,0.00388555,32.8213731,-111.787019,326.28008400000004,-10.8332665,0.280854636,0.147883752,,,,,,,,,,,,,,2022-11-16 16:12:47.177357+00:00,1.1977872175432394,0.014899869074114336,3.1129349098394,-2.258276185378162,2.142557449276609,-0.12611445000000002,316.50623002496116,0.26094683305472943,0.20117940491542957,,,,,,,,0.9960705736796902,0.0885630411030068,,,,,,,,,,,,
2022-11-16 09:12:47.377520-07:00,6.400129,3.06,1.64,-2.58,-0.11,10.67,975.63,34.82,20.0,0.0,0.000506773,-0.00056201,0.00279013,32.8213731,-111.787019,326.278436,-10.8171792,0.280059834,0.146770787,,,,,,,,,,,,,,2022-11-16 16:12:47.377520+00:00,1.197504075225764,0.01489506380008051,3.0578794117342967,-2.2269296909016423,2.0955692898325275,-0.10720987,316.74067845906995,0.26029414868719525,0.20036092660303267,,,,,,,,0.7426603997313078,0.6696682243252505,,,,,,,,,,,,
2022-11-16 09:12:47.578645-07:00,6.601254,3.05,1.64,-2.57,-0.09,10.65,975.63,34.78,20.0,0.0,0.00045817,-0.000418167,0.00157858,32.821373,-111.787019,326.275995,-10.8125777,0.280506002,0.14170836,1.97655,20.398,4027.56,25.1414,11838.0,-0.0704614,-1.0,12.0,-1200.0,96.0,,0.0,2022-11-16 09:12:42.696,2022-11-16 16:12:47.578645+00:00,1.19758846592874,0.014896450420982123,3.0493068399781236,-2.217131637042444,2.0934659080966336,-0.08842142,316.64329453668074,0.2601312258085926,0.20010806405758386,3.108728526099701,315.7206069989811,-2.2250098300112198,2.1701448399008454,-0.11338010600000001,0.20034477406721743,0.26049637678223275,0.6741268102883023,0.7386156264597433,-0.18047421068684866,0.1687777959544277,,,,,,,,,,
2022-11-16 09:12:47.777820-07:00,6.800429,3.31,1.86,-2.73,-0.08,10.66,975.62,34.88,26.0,0.0,0.000205323,-0.000588755,0.00233514,32.8213729,-111.787019,326.27993200000003,-10.80764,0.279386765,0.15051996,,,,,,,,,,,,,,2022-11-16 16:12:47.777820+00:00,1.197533994495945,0.014895708073199537,3.303968485685913,-2.333391846613595,2.339121682290783,-0.07766486,314.92973905051,0.2626852516786939,0.20339622840793412,,,,,,,,0.9442284334233433,0.32929115614437465,,,,,,,,,,,,
2022-11-16 09:12:47.978076-07:00,7.000685,3.02,1.75,-2.46,-0.17,10.79,975.62,34.54,22.0,0.0,0.000114287,-0.000742464,0.00251007,32.8213729,-111.787019,326.273096,-10.798213,0.278935814,0.148171968,,,,,,,,,,,,,,2022-11-16 16:12:47.978076+00:00,1.1969857116922384,0.014886700566377012,3.019552983260771,-2.089319790120256,2.180009870007673,-0.16748993,313.7830929236837,0.2584244246819527,0.19667924635210682,,,,,,,,0.9883593366507804,0.1521375090345224,,,,,,,,,,,,
2022-11-16 09:12:48.177451-07:00,7.20006,3.05,1.82,-2.44,-0.21,10.73,975.63,34.67,18.0,0.0,-0.000143848,-0.00145085,0.00309916,32.8213729,-111.787019,326.281091,-10.7932438,0.27462358,0.146500167,,,,,,,,,,,,,,2022-11-16 16:12:48.177451+00:00,1.1972509744630702,0.014890905491104408,3.0448846044593245,-2.057462457543322,2.2445869308790893,-0.20690084,312.509398945919,0.2581168508759999,0.19583602481095605,,,,,,,,0.9951208399362472,-0.0986636403371465,,,,,,,,,,,,
2022-11-16 09:12:48.377895-07:00,7.400504,2.93,1.55,-2.48,-0.08,10.71,975.62,34.76,22.0,0.0,0.000379186,-0.000785043,0.00416062,32.8213728,-111.787019,326.28215900000004,-10.7827679,0.273495048,0.150794703,,,,,,,,,,,,,,2022-11-16 16:12:48.377895+00:00,1.1973230570629685,0.014892242353382016,2.9253678589277867,-2.147013969533184,1.9869846815406262,-0.07583938,317.2168432441056,0.258702388468266,0.19827540947384684,,,,,,,,0.9004619260191778,0.43493484545369865,,,,,,,,,,,,
2022-11-16 09:12:48.578666-07:00,7.601275,2.83,1.25,-2.53,-0.13,10.75,975.63,34.59,25.0,0.0,0.000404259,-0.00120681,0.00286636,32.8213728,-111.787019,326.27450000000005,-10.7794421,0.272589204,0.143588122,1.97634,20.2238,4024.67,25.1431,11847.0,-0.0813813,-1.0,12.0,-1205.0,96.0,,0.0,2022-11-16 09:12:43.720,2022-11-16 16:12:48.578666+00:00,1.197166631315873,0.014889519905787034,2.8231562915818706,-2.2527774252258386,1.7015302874445524,-0.12713364,322.9361275443073,0.25946174495261104,0.20118557552820215,2.9749248034257896,317.1618423415255,-2.174954048563879,2.0223886933144084,-0.131320838,0.19908333365053804,0.25922812117107424,0.9482134169386183,0.31763393385718414,1.2268168828617285,0.18089817331349142,,,,,,,,,,
2022-11-16 09:12:48.778021-07:00,7.80063,3.12,1.66,-2.65,-0.1,10.69,975.63,34.77,19.0,0.0,-1.42495e-05,-5.57541e-05,0.00122114,32.8213728,-111.787019,326.274805,-10.7668472,0.277141248,0.138906827,,,,,,,,,,,,,,2022-11-16 16:12:48.778021+00:00,1.197419696415503,0.014893677438180687,3.127026564354382,-2.293294430061653,2.12581649989508,-0.09877886000000001,317.17038868817303,0.26133157246775207,0.20239917538696037,,,,,,,,0.9688576582931971,-0.24761833124109048,,,,,,,,,,,,
2022-11-16 09:12:48.977417-07:00,8.000026,2.95,1.62,-2.47,-0.15,10.7,975.63,34.73,20.0,0.0,7.57711e-05,-0.000381291,0.00204853,32.8213728,-111.787019,326.276178,-10.7679449,0.275157279,0.146931137,,,,,,,,,,,,,,2022-11-16 16:12:48.977417+00:00,1.197377511469355,0.01489298435433441,2.9541886978055825,-2.124221960455399,2.0530250668126935,-0.14795147,315.9764532851226,0.25852804909074223,0.19772048305272485,,,,,,,,0.9808208971933315,0.19491117881965675,,,,,,,,,,,,
2022-11-16 09:12:49.177586-07:00,8.200195,2.81,1.34,-2.47,-0.1,10.77,975.63,34.58,26.0,0.0,0.000495135,-0.00133615,0.00351453,32.8213727,-111.787019,326.281091,-10.7607517,0.274863307,0.149626149,,,,,,,,,,,,,,2022-11-16 16:12:49.177586+00:00,1.1970823000513398,0.014888134579189596,2.8114192629780748,-2.1777128900623506,1.778101470867303,-0.09648547,320.76837940322037,0.2585168694177445,0.19916707466612996,,,,,,,,0.9376882610463583,0.3474776612904154,,,,,,,,,,,,
2022-11-16 09:12:49.377626-07:00,8.400235,2.88,1.36,-2.53,-0.19,10.79,975.62,34.53,22.0,0.0,0.000144779,-0.000678754,0.00424592,32.8213727,-111.787019,326.285791,-10.7516923,0.269911664,0.147211696,,,,,,,,,,,,,,2022-11-16 16:12:49.377626+00:00,1.1969857116922384,0.014886700566377012,2.8729869158663734,-2.2325521677052103,1.8082490528724582,-0.18575408,320.9943592311569,0.2594200720123473,0.20072593208938552,,,,,,,,0.9779992609716657,0.20860835443211717,,,,,,,,,,,,
2022-11-16 09:12:49.579174-07:00,8.601783,2.76,1.14,-2.52,-0.07,10.95,975.64,34.18,19.0,0.0,-5.81573e-05,-0.000876469,0.00397775,32.8213726,-111.787019,326.288019,-10.7422519,0.271646039,0.146542375,1.97776,19.8803,4023.94,25.1457,11849.0,-0.250511,-1.0,11.0,-1206.0,96.0,,0.0,2022-11-16 09:12:44.744,2022-11-16 16:12:49.579174+00:00,1.1963361150413887,0.014875727141985493,2.7665471945710065,-2.2642290695963054,1.5896698085400491,-0.06602225,324.9280768812009,0.2592516242872426,0.20163563567071355,2.7207666225318916,322.8454803668103,-2.165964902075421,1.6445992991544636,-0.091974464,0.19896223280620315,0.2579825918089037,0.9978058104776053,-0.06620849324013638,1.7843960091811542,0.19809329705382234,,,,,,,,,,
2022-11-16 09:12:49.778086-07:00,8.800695,2.71,1.18,-2.43,-0.1,10.94,975.63,34.23,24.0,0.0,9.77601e-05,-0.000101676,0.00319271,32.8213726,-111.787019,326.28548600000005,-10.7370662,0.271653133,0.142836986,,,,,,,,,,,,,,2022-11-16 16:12:49.778086+00:00,1.1963659637107127,0.014876369738986641,2.701491439779863,-2.1677217364402357,1.6121533650891924,-0.09680729,323.36149997633066,0.25787848692992515,0.1990055191285386,,,,,,,,0.7208517833943884,0.6930892484933884,,,,,,,,,,,,
2022-11-16 09:12:49.977668-07:00,9.000277,2.45,1.04,-2.22,-0.02,11.06,975.65,33.88,24.0,0.0,-0.000277855,-2.56635e-05,0.00519677,32.8213726,-111.787019,326.290094,-10.7289213,0.271285244,0.150677028,,,,,,,,,,,,,,2022-11-16 16:12:49.977668+00:00,1.195885345117838,0.014868174015491183,2.4513882994641394,-1.9876086465730036,1.4348227984033146,-0.01480323,324.1750863421428,0.254845906397259,0.19427700247624807,,,,,,,,0.09197145613921927,-0.9957616437961605,,,,,,,,,,,,
2022-11-16 09:12:50.177703-07:00,9.200312,2.53,1.2,-2.22,-0.1,10.91,975.64,34.26,19.0,0.0,8.09124e-05,-0.000379398,0.00351285,32.8213726,-111.787019,326.289514,-10.7210484,0.272149788,0.14519026,,,,,,,,,,,,,,2022-11-16 16:12:50.177703+00:00,1.1965045774951013,0.014878493421080632,2.523914324159016,-1.9583951439693934,1.5921155660856288,-0.09648715000000001,320.8899405262471,0.254832015709089,0.19355137255952995,,,,,,,,0.978006425907265,0.2085747608990533,,,,,,,,,,,,
2022-11-16 09:12:50.377528-07:00,9.400137,2.47,1.44,-2.01,-0.14,10.97,975.64,34.17,21.0,0.0,-0.00015663,0.000109842,0.00286783,32.8213725,-111.787019,326.288019,-10.7174658,0.273612587,0.145338631,,,,,,,,,,,,,,2022-11-16 16:12:50.377528+00:00,1.1962519016023458,0.01487434438950198,2.4724005913597855,-1.7070367808675342,1.788516176309743,-0.13713217000000003,313.66470904317197,0.2520455213689776,0.1875315967909738,,,,,,,,0.574167279147883,0.8187380139922154,,,,,,,,,,,,
2022-11-16 09:12:50.578949-07:00,9.601558,2.71,1.47,-2.27,-0.08,10.96,975.62,34.19,26.0,0.0,0.00027582,-0.000674287,0.00303602,32.8213725,-111.787019,326.29253500000004,-10.7050498,0.273448835,0.150227048,1.97617,20.2501,4032.75,25.1488,11816.0,-0.315461,-1.0,14.0,-1206.0,96.0,,0.0,2022-11-16 09:12:45.768,2022-11-16 16:12:50.578949+00:00,1.1962694835728915,0.01487493800028623,2.70508219494366,-1.9581109502949383,1.8663523750182496,-0.07696398,316.37440738989955,0.2555021287314589,0.19359044357752336,2.759662454403185,317.105995737469,-2.020780229249855,1.8762348341422652,-0.10332131599999998,0.1953872599680836,0.25655706414372564,0.925558828550106,0.378603823135683,0.9714905946626203,0.17137259933203255,,,,,,,,,,
2022-11-16 09:12:50.778176-07:00,9.800785,3.06,1.58,-2.61,-0.1,10.87,975.63,34.35,20.0,0.0,0.000293083,0.000159242,0.00222517,32.8213725,-111.787019,326.291193,-10.7047739,0.275149391,0.141238984,,,,,,,,,,,,,,2022-11-16 16:12:50.778176+00:00,1.1966608218807702,0.014881211824538216,3.0510606358561034,-2.270937163550673,2.0376004031397015,-0.09777483000000001,318.099929815212,0.26060495427996516,0.20197381011269816,,,,,,,,0.4774155576109312,-0.8786776344889198,,,,,,,,,,,,
2022-11-16 09:12:50.977993-07:00,10.000602,3.05,1.65,-2.56,-0.11,10.9,975.63,34.24,18.0,0.0,0.000199373,-6.64946e-05,0.00175155,32.8213725,-111.787019,326.292841,-10.6941032,0.274372241,0.151642356,,,,,,,,,,,,,,2022-11-16 16:12:50.977993+00:00,1.196534436298456,0.014879136257744873,3.0458545256973575,-2.2094211075667354,2.096589650158003,-0.10824845,316.5009919128145,0.2598007006291375,0.20028907679969268,,,,,,,,0.3163859198483395,0.9486305654582926,,,,,,,,,,,,
2022-11-16 09:12:51.177573-07:00,10.200182,3.37,1.71,-2.9,-0.08,10.84,975.62,34.41,23.0,0.0,0.000104453,-0.000768483,0.000973281,32.8213724,-111.787019,326.28359400000005,-10.6862739,0.274000319,0.146226545,,,,,,,,,,,,,,2022-11-16 16:12:51.177573+00:00,1.1967749673505905,0.01488323905072198,3.367262467266398,-2.533387132539268,2.2181988549599105,-0.079026719,318.79505721168834,0.26540548502168426,0.20966203108704942,,,,,,,,0.9908887883650457,0.1346826235727969,,,,,,,,,,,,
2022-11-16 09:12:51.377668-07:00,10.400277,3.41,1.59,-3.01,-0.12,10.88,975.62,34.28,24.0,0.0,-3.96825e-05,-0.000246505,0.000291333,32.8213724,-111.78702,326.282526,-10.6763533,0.276782559,0.142840027,,,,,,,,,,,,,,2022-11-16 16:12:51.377668+00:00,1.196606425299772,0.014880471001055379,3.4043126836262596,-2.6635763281720077,2.120072166672718,-0.11970866699999999,321.48198276048265,0.2673339395807693,0.21370303847315233,,,,,,,,0.9872891598245968,-0.15893430999265656,,,,,,,,,,,,
2022-11-16 09:12:51.578470-07:00,10.601079,3.4,1.26,-3.15,-0.16,10.85,975.63,34.44,19.0,0.0,0.000199795,-0.0009929,0.00111818,32.8213724,-111.78702,326.283136,-10.6686409,0.275886036,0.13974689,1.97395,19.8427,4054.34,25.1515,11796.0,-0.154822,-1.0,15.0,-1199.0,96.0,,0.0,2022-11-16 09:12:46.792,2022-11-16 16:12:51.578470+00:00,1.196745093769635,0.014882595858591512,3.3935987918628188,-2.863280576880673,1.8215754440018852,-0.15888182,327.5361033996347,0.2698788771062386,0.22006233441742404,3.3689708551299864,323.1003673756037,-2.691144949090932,2.0191528280090263,-0.14050349720000002,0.21465072268860755,0.26750766830628075,0.9803492968759828,0.19726950122805628,1.44859423338423,0.20656002438924614,,,,,,,,,,
2022-11-16 09:12:51.778270-07:00,10.800879,3.48,1.44,-3.17,-0.19,10.82,975.63,34.42,21.0,0.0,-1.82473e-05,-0.000468349,0.00195489,32.8213724,-111.78702,326.28679800000003,-10.6621138,0.276665339,0.13422017,,,,,,,,,,,,,,2022-11-16 16:12:51.778270+00:00,1.196871523860184,0.014884672394133753,3.4821108080693706,-2.8493151743951453,2.001624019798695,-0.18804511000000002,324.9122266128628,0.2702452068998379,0.21964520024291623,,,,,,,,0.9992418869905716,-0.038931366319739064,,,,,,,,,,,,
2022-11-16 09:12:51.978168-07:00,11.000777,3.2,1.43,-2.86,-0.16,10.9,975.63,34.28,26.0,0.0,0.000243524,0.000194632,0.00314483,32.8213724,-111.78702,326.296594,-10.6528976,0.276382015,0.144478531,,,,,,,,,,,,,,2022-11-16 16:12:51.978168+00:00,1.196534436298456,0.014879136257744873,3.197569524825085,-2.546165533467566,1.9342936546119216,-0.15685517000000002,322.77646689335006,0.2646748329228738,0.21018100922249564,,,,,,,,0.624328827107592,-0.7811616450149473,,,,,,,,,,,,
2022-11-16 09:12:52.177503-07:00,11.200112,3.36,1.44,-3.03,-0.17,10.83,975.63,34.39,21.0,0.0,0.000563816,-0.000673411,0.00389249,32.8213724,-111.78702,326.292657,-10.6483664,0.279260126,0.145297329,,,,,,,,,,,,,,2022-11-16 16:12:52.177503+00:00,1.196829377528616,0.014883980151012985,3.3556489943807097,-2.712411262991825,1.9756531360244798,-0.16610751,323.93133307189726,0.26766389453561473,0.21530416014902803,,,,,,,,0.7667408338667833,0.6419567693242824,,,,,,,,,,,,
2022-11-16 09:12:52.377563-07:00,11.400172,3.46,1.37,-3.17,-0.14,10.84,975.64,34.43,19.0,0.0,0.000508272,0.000711403,0.00278962,32.8213724,-111.78702,326.295435,-10.6425564,0.274148991,0.133033622,,,,,,,,,,,,,,2022-11-16 16:12:52.377563+00:00,1.196799500979818,0.014883336894622323,3.4530699207141216,-2.8617461952405954,1.932382102837481,-0.13721038000000002,325.97097597037566,0.2702276987600448,0.2201449370380579,,,,,,,,0.8136647634460908,-0.5813343725655804,,,,,,,,,,,,
2022-11-16 09:12:52.578212-07:00,11.600821,3.55,1.58,-3.17,-0.16,10.74,975.63,34.6,23.0,0.0,4.31553e-06,-0.000331236,0.00189954,32.8213724,-111.78702,326.298334,-10.6299809,0.273634982,0.132189344,1.97724,20.5639,4082.88,25.1528,11787.0,-0.270843,-1.0,16.0,-1196.0,96.0,,0.0,2022-11-16 09:12:47.816,2022-11-16 16:12:52.578212+00:00,1.1972088014039817,0.014890212666101329,3.5422012190178758,-2.824474991543416,2.1376460179734025,-0.15810046,322.8804889451213,0.2702164378840226,0.2189416972180777,3.4913560997074087,322.9459353450764,-2.783788675129877,2.103939431241774,-0.162280508,0.2176377866492806,0.2693729087373916,0.9999151390407324,0.013027460119028578,2.06749519297834,0.21760085511625468,,,,,,,,,,
2022-11-16 09:12:52.777496-07:00,11.800105,3.58,1.68,-3.16,-0.19,10.73,975.62,34.63,24.0,0.0,-0.000457935,-0.000644223,0.00126066,32.8213724,-111.78702,326.28756100000004,-10.6303789,0.274888103,0.129490332,,,,,,,,,,,,,,2022-11-16 16:12:52.777496+00:00,1.1972387028952167,0.01489085651851908,3.5790441161299866,-2.7964975038925832,2.233642427947506,-0.18873934,321.38463885966115,0.27003008988020144,0.21803088755766192,,,,,,,,0.8150623481986061,-0.579373254947943,,,,,,,,,,,,
2022-11-16 09:12:52.977650-07:00,12.000259,3.53,1.7,-3.09,-0.16,10.76,975.63,34.6,18.0,0.0,2.03718e-06,-5.94249e-05,-0.00124485,32.8213724,-111.78702,326.282892,-10.6204366,0.273346098,0.134315113,,,,,,,,,,,,,,2022-11-16 16:12:52.977650+00:00,1.1971244641984304,0.014888827210152725,3.526816248294349,-2.7238134219809633,2.2403734714259986,-0.16124485,320.5622398783266,0.2687264226270743,0.21576725128357724,,,,,,,,0.9994129037547815,0.03426146243866085,,,,,,,,,,,,
2022-11-16 09:12:53.177776-07:00,12.200385,3.65,1.52,-3.31,-0.26,10.62,975.63,34.87,20.0,0.0,-0.000243916,-0.00014223,0.000252968,32.8213723,-111.78702,326.28685900000005,-10.6147812,0.275815212,0.126526849,,,,,,,,,,,,,,2022-11-16 16:12:53.177776+00:00,1.197715074287544,0.014898530838117157,3.642295928091594,-2.973509565877494,2.103463926343317,-0.259747032,324.724369873029,0.272866836838641,0.22387063382965322,,,,,,,,0.503727444518773,-0.8638626404924492,,,,,,,,,,,,
2022-11-16 09:12:53.378219-07:00,12.400828,3.44,1.39,-3.13,-0.19,10.61,975.63,34.9,25.0,0.0,-7.85088e-05,0.000263932,0.000431589,32.8213723,-111.78702,326.283716,-10.604527,0.276708606,0.132794978,,,,,,,,,,,,,,2022-11-16 16:12:53.378219+00:00,1.1977572830228937,0.014899224440072812,3.4245008595527033,-2.8204778814305587,1.9421922297852474,-0.189568411,325.44854813242415,0.2694485443994103,0.21890770934675532,,,,,,,,0.9584941568762375,0.28511217307247794,,,,,,,,,,,,
2022-11-16 09:12:53.579274-07:00,12.601883,3.41,1.4,-3.1,-0.2,10.6,975.64,34.97,20.0,0.0,1.36478e-05,-0.000799214,0.00183649,32.8213723,-111.78702,326.28875100000005,-10.5966605,0.280290448,0.140671796,1.97078,20.369,4096.64,25.1552,11787.0,-0.142707,-1.0,14.0,-1200.0,96.0,,0.0,2022-11-16 09:12:48.840,2022-11-16 16:12:53.579274+00:00,1.1978117719233778,0.014899967139890526,3.4021335755595494,-2.7904803448090756,1.9462097294957261,-0.19816351000000001,325.1063028562512,0.2688869953735538,0.21793385827712314,3.4131888269754627,324.27115708368126,-2.771205538938221,1.991603032484577,-0.19519933539999998,0.21738289988147966,0.2687502198566098,0.999854227981471,0.017074038408545662,1.9439970426806177,0.21731954193511038,,,,,,,,,,
2022-11-16 09:12:53.778116-07:00,12.800725,3.37,1.48,-3.02,-0.18,10.64,975.63,34.82,19.0,0.0,-0.000243277,5.90596e-05,0.000602145,32.8213723,-111.78702,326.28600500000005,-10.5949375,0.281582921,0.144570499,,,,,,,,,,,,,,2022-11-16 16:12:53.778116+00:00,1.1976306657407814,0.014897143828580633,3.362960537106254,-2.6963353080695214,2.0097958803300457,-0.179397855,323.29987048293407,0.26742802257578896,0.21498363681022067,,,,,,,,0.23591450397271685,0.9717738146375972,,,,,,,,,,,,
2022-11-16 09:12:53.977674-07:00,13.000283,3.23,1.45,-2.89,-0.15,10.66,975.65,34.75,25.0,0.0,-0.000129816,-0.000972579,0.000880131,32.8213723,-111.78702,326.282861,-10.5912647,0.280435311,0.145624286,,,,,,,,,,,,,,2022-11-16 16:12:53.977674+00:00,1.197570818279626,0.014895855089079193,3.234053234567214,-2.575224594504454,1.9563533964685493,-0.149119869,322.776694073768,0.26512070009565497,0.21121866114364593,,,,,,,,0.9912093592177041,-0.13230270669653102,,,,,,,,,,,,
2022-11-16 09:12:54.177889-07:00,13.200498,3.35,1.53,-2.97,-0.16,10.59,975.63,34.95,24.0,0.0,0.000295717,-0.000533102,-0.000695658,32.8213723,-111.78702,326.281,-10.5837338,0.281550026,0.14155336,,,,,,,,,,,,,,2022-11-16 16:12:54.177889+00:00,1.1978417094191034,0.014900611838403022,3.3415304327507873,-2.6389874729857175,2.0497733412316883,-0.160695658,322.1625408651569,0.26652034689963583,0.21321303440790296,,,,,,,,0.8744710028548986,0.48507779290124986,,,,,,,,,,,,
2022-11-16 09:12:54.378139-07:00,13.400748,3.38,1.54,-3.01,-0.16,10.62,975.63,34.88,18.0,0.0,0.000602553,-0.000226506,0.00058772,32.8213722,-111.78702,326.283044,-10.5729321,0.27640653,0.146784448,,,,,,,,,,,,,,2022-11-16 16:12:54.378139+00:00,1.197715074287544,0.014898530838117157,3.3816272343507876,-2.6765532243565913,2.0667524257368832,-0.15941228,322.3257794228376,0.26722473616459763,0.21442264706899747,,,,,,,,0.35187052811301517,0.9360486800618159,,,,,,,,,,,,
2022-11-16 09:12:54.579043-07:00,13.601652,3.46,1.51,-3.12,-0.18,10.71,975.62,34.67,22.0,0.0,5.40793e-05,-0.000199212,0.000909272,32.8213722,-111.78702,326.282709,-10.5668186,0.27923088,0.147612998,1.97416,20.4333,4098.11,25.1576,11802.0,-0.0628981,-1.0,14.0,-1204.0,96.0,,0.0,2022-11-16 09:12:49.864,2022-11-16 16:12:54.579043+00:00,1.1973230570629685,0.014892242353382016,3.4663863246329867,-2.7903824257558307,2.056599151423435,-0.179090728,323.6086236846119,0.26922772607765383,0.2180390500424903,3.3743467607730677,322.4938588350365,-2.6770214714399296,2.053928783779773,-0.15285162119999998,0.21447500271759162,0.26719300317741745,0.9650721237874889,0.26198434283045585,1.2808517025323896,0.2005944054936348,,,,,,,,,,
2022-11-16 09:12:54.778159-07:00,13.800768,3.28,1.51,-2.91,-0.13,10.86,975.62,34.38,26.0,0.0,0.000307796,-9.53747e-05,0.00207138,32.8213722,-111.78702,326.29058200000003,-10.5587215,0.278374709,0.149139243,,,,,,,,,,,,,,2022-11-16 16:12:54.778159+00:00,1.1966906903908108,0.014881854896723303,3.2787093599839805,-2.5841249932990924,2.0179774741690077,-0.12792862,322.0132505941774,0.26543219045132593,0.21161708334867807,,,,,,,,0.29597968634915545,0.955194234315019,,,,,,,,,,,,
2022-11-16 09:12:54.977876-07:00,14.000485,3.41,1.55,-3.03,-0.14,10.64,975.64,34.84,20.0,0.0,5.68624e-05,-7.94226e-06,0.00286918,32.8213722,-111.78702,326.29305400000004,-10.5481569,0.278303951,0.155042949,,,,,,,,,,,,,,2022-11-16 16:12:54.977876+00:00,1.1976429412003895,0.01489719284312672,3.4034804521467983,-2.6950592408024145,2.078541526337852,-0.13713082000000001,322.3590996083986,0.2675600162938741,0.21508319871988926,,,,,,,,0.13833222267787493,0.9903858824564286,,,,,,,,,,,,
2022-11-16 09:12:55.178139-07:00,14.200748,3.42,1.56,-3.04,-0.15,10.59,975.63,34.94,20.0,0.0,-7.53824e-05,0.00018793,0.00106362,32.8213722,-111.78702,326.292932,-10.5469118,0.279281582,0.148526752,,,,,,,,,,,,,,2022-11-16 16:12:55.178139+00:00,1.1978417094191034,0.014900611838403022,3.416704397996191,-2.7029091841575656,2.09001217352512,-0.14893638,322.2871754577739,0.26774018522988535,0.21533923381616654,,,,,,,,0.9281179521899,0.37228626998967673,,,,,,,,,,,,
2022-11-16 09:12:55.377430-07:00,14.400039,3.43,1.41,-3.11,-0.2,10.73,975.63,34.72,25.0,0.0,0.000512098,-0.000963226,0.000847051,32.8213722,-111.78702,326.291711,-10.537138,0.278482016,0.154753478,,,,,,,,,,,,,,2022-11-16 16:12:55.377430+00:00,1.1972509744630702,0.014890905491104408,3.4157864313756403,-2.800667321014992,1.9554691257518335,-0.19915294900000002,325.0766605554622,0.26901427948027024,0.21843246403613856,,,,,,,,0.8829697633923909,0.4694298637014749,,,,,,,,,,,,
2022-11-16 09:12:55.578487-07:00,14.601096,3.54,1.39,-3.24,-0.2,10.76,975.63,34.61,23.0,0.0,0.000250432,-2.57378e-05,0.000637638,32.8213721,-111.78702,326.288049,-10.5316266,0.278783071,0.150659886,1.97412,20.1861,4083.86,25.1604,11820.0,-0.0229453,-1.0,14.0,-1216.0,96.0,,0.0,2022-11-16 09:12:50.888,2022-11-16 16:12:55.578487+00:00,1.1971244641984304,0.014888827210152725,3.5257385101658967,-2.9313834776624446,1.959036229617632,-0.19936236200000002,326.24529228792574,0.2714551236234454,0.22272451643592842,3.415772720349527,325.1820051880667,-2.803361761797246,1.94936946795087,-0.1806365502,0.21857870223864398,0.2690601927312235,0.10223510070695785,0.9947602646785999,-2.5893789042842688,0.2662577728177539,,,,,,,,,,
2022-11-16 09:12:55.778280-07:00,14.800889,3.42,1.32,-3.15,-0.18,10.67,975.62,34.81,18.0,0.0,8.10531e-05,-0.000505518,0.00198539,32.8213721,-111.78702,326.289056,-10.5228691,0.283002592,0.15220186,,,,,,,,,,,,,,2022-11-16 16:12:55.778280+00:00,1.197491801063682,0.014895014799753912,3.41585880456666,-2.8564601881105025,1.8731595144235005,-0.17801461,326.74463940144375,0.2697452957900522,0.2202876956578158,,,,,,,,0.9873887101546504,0.15831467101673122,,,,,,,,,,,,
2022-11-16 09:12:55.977893-07:00,15.000502,3.31,1.34,-3.02,-0.18,10.66,975.63,34.79,22.0,0.0,0.000463455,-0.000698795,0.00228355,32.8213721,-111.78702,326.302301,-10.5166944,0.283291907,0.14781561,,,,,,,,,,,,,,2022-11-16 16:12:55.977893+00:00,1.1975462690905054,0.014895757078151686,3.3047754576432453,-2.7253886380407266,1.8691702964362649,-0.17771645,325.5562582377279,0.26734607953246425,0.21610960124717069,,,,,,,,0.8333735242434168,0.552710203533558,,,,,,,,,,,,
2022-11-16 09:12:56.178258-07:00,15.200867,3.33,1.43,-3.01,-0.21,10.78,975.63,34.52,27.0,0.0,0.000163917,0.000253283,0.00406324,32.8213721,-111.78702,326.30385700000005,-10.5157158,0.284329499,0.145193222,,,,,,,,,,,,,,2022-11-16 16:12:56.178258+00:00,1.1970401388742873,0.01488744201288885,3.3323076332132473,-2.698210958296915,1.9554876084746016,-0.20593676,324.0678459402496,0.2671642360771337,0.2152883447954293,,,,,,,,0.8395278249381842,-0.5433166950817557,,,,,,,,,,,,
2022-11-16 09:12:56.377823-07:00,15.400432,3.15,1.29,-2.86,-0.25,10.73,975.65,34.64,21.0,0.0,0.000470954,-0.000651565,0.00206642,32.8213721,-111.78702,326.29494600000004,-10.5121623,0.285305815,0.152885989,,,,,,,,,,,,,,2022-11-16 16:12:56.377823+00:00,1.1972755175987766,0.014891003437297767,3.138270940618208,-2.5772968340046702,1.7906103780996567,-0.24793358,325.20985839175415,0.26450557672098707,0.21153529626056766,,,,,,,,0.8104552466662803,0.5858005574861624,,,,,,,,,,,,
2022-11-16 09:12:56.578428-07:00,15.601037,3.01,1.27,-2.72,-0.2,10.75,975.64,34.66,19.0,0.0,0.000310663,-0.000206021,0.000794909,32.8213721,-111.78702,326.290948,-10.4990768,0.282666646,0.148008523,1.97756,19.6221,4079.87,25.1629,11820.0,0.000948092,-1.0,14.0,-1216.0,96.0,,0.0,2022-11-16 09:12:51.912,2022-11-16 16:12:56.578428+00:00,1.197178902019227,0.014889568869470708,3.002230937244368,-2.4432483594204757,1.7446856607241172,-0.199205091,324.46995872373816,0.2621100864673273,0.20757558890063,3.0827493302609885,324.83431200304375,-2.519000505668035,1.7751135980161337,-0.1624427834,0.20987199354025954,0.26350117182493243,0.5526785395695369,0.8333945235596907,-1.1182540353462493,0.193916602915204,,,,,,,,,,
2022-11-16 09:12:56.777617-07:00,15.800226,2.95,1.32,-2.63,-0.13,10.92,975.63,34.15,25.0,0.0,0.000362437,0.000167928,0.000267236,32.821372,-111.78702,326.288141,-10.4951905,0.282118177,0.145784169,,,,,,,,,,,,,,2022-11-16 16:12:56.777617+00:00,1.1964501940739125,0.0148777528693046,2.9427538931242183,-2.345390755988092,1.7773414633163063,-0.129732764,322.8450835606346,0.2606269760586014,0.20475757707543327,,,,,,,,0.42039792920945906,-0.9073398377214563,,,,,,,,,,,,
2022-11-16 09:12:56.977827-07:00,16.000436,3.0,1.12,-2.78,-0.03,11.08,975.63,33.91,24.0,0.0,0.000278017,-0.00106885,0.000594278,32.821372,-111.78702,326.29091800000003,-10.484249,0.281541193,0.150441626,,,,,,,,,,,,,,2022-11-16 16:12:56.977827+00:00,1.1957766830755951,0.014866695048292602,2.9981832471049006,-2.5308556206300232,1.6074428794659872,-0.029405722,327.57881339884227,0.2630989838006129,0.2102031606692374,,,,,,,,0.9677969223940809,0.2517322327485008,,,,,,,,,,,,
2022-11-16 09:12:57.177450-07:00,16.200059,3.21,1.0,-3.05,0.01,11.03,975.64,33.89,19.0,0.0,2.97245e-05,-0.000444966,-0.000109841,32.821372,-111.78702,326.288965,-10.4776077,0.281237993,0.150422349,,,,,,,,,,,,,,2022-11-16 16:12:57.177450+00:00,1.1959993324064275,0.014870197679465909,3.2101555771007733,-2.8177381930819716,1.5380020495559634,0.009890159,331.37302615263155,0.2678515507336611,0.21917419582862258,,,,,,,,0.9977762041806049,0.06665317975118619,,,,,,,,,,,,
2022-11-16 09:12:57.378091-07:00,16.4007,2.79,0.97,-2.61,0.1,11.03,975.65,33.95,21.0,0.0,0.000123775,-0.00108862,-0.000306144,32.8213719,-111.78702,326.28512,-10.4707005,0.280690337,0.146370793,,,,,,,,,,,,,,2022-11-16 16:12:57.378091+00:00,1.1960115910195677,0.014870246514334011,2.785418982500878,-2.3913461086498526,1.428293631128219,0.09969385600000001,329.1511415987227,0.2602689686497139,0.2061232865799798,,,,,,,,0.9935982713992918,0.1129711249494281,,,,,,,,,,,,
2022-11-16 09:12:57.578588-07:00,16.601197,2.51,0.79,-2.37,0.18,11.21,975.64,33.59,25.0,0.0,-7.97392e-05,-0.00100456,-0.000101182,32.8213719,-111.78702,326.28145800000004,-10.4661124,0.278362381,0.142179992,1.97677,19.8286,4076.64,25.1646,11833.0,-0.0547156,-1.0,13.0,-1223.0,96.0,,0.0,2022-11-16 09:12:52.936,2022-11-16 16:12:57.578588+00:00,1.1952422643243021,0.014857771459694332,2.499040323040072,-2.1880671111942616,1.2072965058717877,0.179898818,331.1116704452265,0.2565462982579953,0.20041849178655097,2.711286954132559,330.33283368487724,-2.351141735350282,1.3475364021328013,0.1461619118,0.20544398701708375,0.25975370863418024,0.9968644364389811,-0.07912834740592357,1.5293530761284904,0.20416411965947126,,,,,,,,,,
2022-11-16 09:12:57.777536-07:00,16.800145,2.1,0.6,-1.97,0.4,11.29,975.67,33.36,20.0,0.0,0.000219633,-0.000540464,-0.000173534,32.8213719,-111.78702,326.28512,-10.4599391,0.279842994,0.141210062,,,,,,,,,,,,,,2022-11-16 16:12:57.777536+00:00,1.1949428394083286,0.014852401530251013,2.0599254648491607,-1.8288743753690124,0.9478984333000215,0.39982646600000005,332.60246940703064,0.25103869813425633,0.19124468253375904,,,,,,,,0.9264250300723526,0.37647930043422134,,,,,,,,,,,,
2022-11-16 09:12:57.978128-07:00,17.000737,3.0,1.13,-2.78,0.04,10.96,975.64,34.11,19.0,0.0,0.00043185,-0.000924081,0.00150026,32.8213718,-111.78702,326.27846700000003,-10.456186,0.28063048,0.141651424,,,,,,,,,,,,,,2022-11-16 16:12:57.978128+00:00,1.1962940068398105,0.01487503573349571,3.0018944231719105,-2.5296828884563123,1.6161913908080152,0.041500260000000004,327.4258608207747,0.2630630273952745,0.21025927835650635,,,,,,,,0.9059530060439318,0.42337825976302046,,,,,,,,,,,,
2022-11-16 09:12:58.178229-07:00,17.200838,3.19,1.07,-3.0,0.01,10.83,975.66,34.35,25.0,0.0,0.000849622,2.87103e-05,0.000783729,32.8213719,-111.78702,326.279291,-10.4479318,0.282944569,0.146570363,,,,,,,,,,,,,,2022-11-16 16:12:58.178229+00:00,1.1968661792683388,0.014884126932243932,3.1855070140760744,-2.756195780632685,1.5971348582854397,0.010783729,329.9089623714633,0.26691147353728895,0.21731339449341347,,,,,,,,0.03377257419700026,-0.9994295439059765,,,,,,,,,,,,
2022-11-16 09:12:58.377746-07:00,17.400355,3.27,1.12,-3.07,-0.06,10.76,975.65,34.6,24.0,0.0,0.00088326,-0.00107079,0.00228208,32.8213719,-111.78702,326.287256,-10.4416346,0.280971028,0.147454302,,,,,,,,,,,,,,2022-11-16 16:12:58.377746+00:00,1.1971490047407303,0.014888925128620055,3.2692906888375113,-2.8172498184310104,1.6587239278041679,-0.05771792,329.5115222027559,0.2681822806718708,0.21924541779960846,,,,,,,,0.771423405800193,0.6363221896049444,,,,,,,,,,,,
2022-11-16 09:12:58.579189-07:00,17.601798,3.32,1.13,-3.12,-0.03,10.77,975.65,34.57,18.0,0.0,0.000339551,-3.69407e-05,0.00309956,32.8213719,-111.78702,326.28756100000004,-10.4381205,0.277279751,0.144597926,1.97473,20.4102,4094.56,25.1679,11856.0,-0.0500414,-1.0,11.0,-1208.0,96.0,,0.0,2022-11-16 09:12:53.960,2022-11-16 16:12:58.579189+00:00,1.1971068397292925,0.014888232488417204,3.318531338185527,-2.863678465938897,1.6769006787038017,-0.026900439999999998,329.6477947156606,0.26910569573538207,0.22078741762800871,3.2607706201584366,329.39581045599334,-2.8062030293156797,1.660266422369998,-0.0354275082,0.21892766968084687,0.26799830059284224,0.1081546188460388,0.9941340847301575,-2.6101765980214346,0.26487579145547646,,,,,,,,,,
2022-11-16 09:12:58.777857-07:00,17.800466,3.22,1.09,-3.03,0.03,10.77,975.65,34.53,21.0,0.0,0.000414113,-0.000649806,0.00348662,32.8213719,-111.78702,326.29244400000005,-10.4333277,0.275716094,0.150197366,,,,,,,,,,,,,,2022-11-16 16:12:58.777857+00:00,1.1971068397292925,0.014888232488417204,3.220863094702327,-2.783163248224725,1.6210988275076412,0.03348662,329.7806413591127,0.26744076100425895,0.2181929933711461,,,,,,,,0.8433085599996251,0.5374296908725446,,,,,,,,,,,,
2022-11-16 09:12:58.977615-07:00,18.000224,3.31,1.21,-3.08,-0.14,10.76,975.64,34.52,26.0,0.0,7.4202e-05,-0.000550868,0.00321047,32.8213719,-111.78702,326.29699100000005,-10.4260769,0.277850821,0.144045266,,,,,,,,,,,,,,2022-11-16 16:12:58.977615+00:00,1.1971367344695802,0.014888876169215977,3.309660964990739,-2.8107278333510823,1.74747381954894,-0.13678953000000002,328.13013163097423,0.26835129201541047,0.2190991251120577,,,,,,,,0.991049551404172,0.13349451921929079,,,,,,,,,,,,
2022-11-16 09:12:59.177572-07:00,18.200181,3.37,1.22,-3.14,-0.13,10.77,975.63,34.58,21.0,0.0,0.000246035,-0.00083374,0.00122865,32.8213719,-111.78702,326.288995,-10.4226627,0.278571227,0.14718172,,,,,,,,,,,,,,2022-11-16 16:12:59.177572+00:00,1.1970823000513398,0.014888134579189596,3.3695180910262845,-2.868315743988643,1.7681676839429832,-0.12877135,328.3483241063291,0.269465392281242,0.22095763797220608,,,,,,,,0.9591105824409766,0.2830316071567461,,,,,,,,,,,,
2022-11-16 09:12:59.377892-07:00,18.400501,3.31,1.19,-3.08,-0.22,10.74,975.65,34.61,19.0,0.0,0.000363768,-0.000929509,0.00122752,32.8213719,-111.78702,326.28985,-10.4198789,0.278572916,0.144879459,,,,,,,,,,,,,,2022-11-16 16:12:59.377892+00:00,1.1972333436751583,0.014890310603051533,3.302875868980933,-2.8149126914824807,1.727789207405641,-0.21877248,328.4584597293358,0.26834515737011566,0.219239665921692,,,,,,,,0.9312267705893655,0.364440258118805,,,,,,,,,,,,
2022-11-16 09:12:59.579125-07:00,18.601734,3.16,1.18,-2.93,-0.07,10.76,975.64,34.56,25.0,0.0,0.000118899,-8.51139e-05,0.00097275,32.8213719,-111.78702,326.285272,-10.4136709,0.276910893,0.15418549,1.97383,19.3556,4132.13,25.1695,11862.0,0.0280419,-1.0,13.0,-1198.0,96.0,,0.0,2022-11-16 09:12:54.984,2022-11-16 16:12:59.579125+00:00,1.1971367344695802,0.014888876169215977,3.1588219615992728,-2.6685337291220774,1.6902910760042769,-0.06902725000000001,327.649189684618,0.26561890574208535,0.21466118427324318,3.167268490046413,328.3770845775065,-2.6966483748636896,1.6608175842973032,-0.11722854323999998,0.21558625404241966,0.26605621794677214,0.5820803626270921,0.8131312633541482,-1.2259997981495974,0.1904741775273567,,,,,,,,,,
2022-11-16 09:12:59.777669-07:00,18.800278,3.02,1.03,-2.83,-0.05,10.81,975.66,34.49,22.0,0.0,-4.68549e-06,-0.000546269,8.72068e-05,32.8213719,-111.78702,326.283228,-10.4097717,0.276329309,0.154479643,,,,,,,,,,,,,,2022-11-16 16:12:59.777669+00:00,1.1969504774919808,0.014885511510804238,3.012079626455397,-2.5978588672530183,1.5243861000227426,-0.0499127932,329.5962042137188,0.2638614369878606,0.2124807038899548,,,,,,,,0.9999632173545063,-0.008576942230444315,,,,,,,,,,,,
2022-11-16 09:12:59.978072-07:00,19.000681,2.99,1.11,-2.78,-0.12,10.82,975.65,34.46,18.0,0.0,-0.000126636,0.000348617,0.000341157,32.8213719,-111.78702,326.28112200000004,-10.399388,0.277091885,0.143649928,,,,,,,,,,,,,,2022-11-16 16:12:59.978072+00:00,1.1968960592173141,0.014884770257179927,2.993046902170177,-2.5336208424722306,1.5934538541108734,-0.119658843,327.8332451535306,0.2629901973525571,0.21059207815500205,,,,,,,,0.9399092430911665,0.34142439097374166,,,,,,,,,,,,
2022-11-16 09:13:00.178315-07:00,19.200924,3.13,1.28,-2.86,-0.15,10.88,975.64,34.34,21.0,0.0,-3.15138e-05,-0.000258881,-0.000305842,32.8213719,-111.78702,326.275659,-10.3989777,0.279575424,0.14234317,,,,,,,,,,,,,,2022-11-16 16:13:00.178315+00:00,1.1966309554739236,0.014880568808040496,3.133564269760613,-2.582240456205679,1.7751786555316205,-0.150305842,325.4931593904264,0.26436914345438767,0.21204628744619242,,,,,,,,0.9926721425343368,-0.12083880765834053,,,,,,,,,,,,
2022-11-16 09:13:00.377932-07:00,19.400541,3.31,1.32,-3.03,-0.17,10.83,975.63,34.39,26.0,0.0,7.94348e-05,-0.00056806,-0.000823525,32.8213719,-111.78702,326.276453,-10.3938262,0.278740837,0.137114644,,,,,,,,,,,,,,2022-11-16 16:13:00.377932+00:00,1.196829377528616,0.014883980151012985,3.3055572656755214,-2.7427031644169455,1.8450713234337324,-0.170823525,326.07048872030657,0.2673996823567777,0.21703004997605077,,,,,,,,0.9903641402797141,0.1384877960255807,,,,,,,,,,,,
2022-11-16 09:13:00.578901-07:00,19.60151,3.26,1.36,-2.96,-0.12,10.9,975.64,34.33,21.0,0.0,-0.000489983,0.000198425,0.000578687,32.8213719,-111.78702,326.27672700000005,-10.3846132,0.28050249,0.134122399,1.976,20.0809,4130.45,25.1733,11852.0,0.0789684,-1.0,12.0,-1191.0,96.0,,0.0,2022-11-16 09:12:56.008,2022-11-16 16:13:00.578901+00:00,1.1965467005219454,0.014879185152182292,3.257039812859998,-2.6661697194860867,1.8707879007120432,-0.119421313,324.94357380401476,0.26612201852842116,0.21468489717537823,3.229351217743978,326.8324426840842,-2.7020166105206984,1.7660638087521536,-0.09982009119999999,0.2158101700185518,0.26642508502146955,0.3753529287745376,0.9268819659807698,-1.841553245054285,0.23089919515200608,,,,,,,,,,
2022-11-16 09:13:00.778093-07:00,19.800702,3.15,1.11,-2.95,0.03,10.94,975.65,34.13,20.0,0.0,0.000594556,-5.08817e-05,0.00055154,32.8213719,-111.78702,326.280328,-10.3783142,0.278472537,0.133759144,,,,,,,,,,,,,,2022-11-16 16:13:00.778093+00:00,1.196390488704075,0.01487646749131395,3.152269904626727,-2.7018250533465125,1.6238678926330514,0.03055154,328.99302614467797,0.2659357455316553,0.2158077626657068,,,,,,,,0.08526765019214358,0.9963580821324782,,,,,,,,,,,,
2022-11-16 09:13:00.977424-07:00,20.000033,3.3,1.18,-3.08,-0.09,10.88,975.64,34.23,25.0,0.0,0.000122463,4.8526e-05,0.000898684,32.8213719,-111.78702,326.28121300000004,-10.3730994,0.279526366,0.139761324,,,,,,,,,,,,,,2022-11-16 16:13:00.977424+00:00,1.1966309554739236,0.014880568808040496,3.29832483579703,-2.817144659148268,1.7154132714503214,-0.089101316,328.6619653609953,0.2682988352361059,0.21948185282943072,,,,,,,,0.368383556924752,-0.9296738971206344,,,,,,,,,,,,
2022-11-16 09:13:01.178202-07:00,20.200811,3.36,1.27,-3.1,-0.14,10.89,975.65,34.26,24.0,0.0,-0.000252527,0.000219433,0.00115798,32.8213719,-111.78702,326.290521,-10.3669043,0.281629198,0.138398577,,,,,,,,,,,,,,2022-11-16 16:13:01.178202+00:00,1.196601091170049,0.014879925847222995,3.349738712603788,-2.8206371250858684,1.806863484412646,-0.13884202,327.3569034456569,0.2686644329017551,0.21961787009400136,,,,,,,,0.6559136651197318,0.7548359185340879,,,,,,,,,,,,
2022-11-16 09:13:01.378204-07:00,20.400813,3.24,1.32,-2.96,-0.15,10.87,975.64,34.3,19.0,0.0,-0.000448501,0.000236552,-0.000330708,32.8213719,-111.78702,326.287256,-10.3616557,0.278802539,0.145724964,,,,,,,,,,,,,,2022-11-16 16:13:01.378204+00:00,1.196673087399685,0.014881260732814598,3.240538958683089,-2.6740756040698557,1.830413179165107,-0.150330708,325.6082368329238,0.26609653792886967,0.21500150551533295,,,,,,,,0.4665166450291758,0.8845124193083566,,,,,,,,,,,,
2022-11-16 09:13:01.578441-07:00,20.60105,3.19,1.09,-3.0,-0.06,10.8,975.66,34.46,22.0,0.0,-4.49356e-05,0.000125168,-0.00156905,32.821372,-111.78702,326.28585200000003,-10.354194,0.279186944,0.150613662,1.97396,19.6103,4119.84,25.1751,11830.0,0.082705,-1.0,14.0,-1194.0,96.0,,0.0,2022-11-16 09:12:57.032,2022-11-16 16:13:01.578441+00:00,1.1969926310569567,0.014886203897023368,3.1917495922641184,-2.7551125536960437,1.6114032009973887,-0.06156905,329.67759753229524,0.26681118094688144,0.21756347525367073,3.1638662414040666,327.7162404727145,-2.6735140827962653,1.6901696773496333,-0.0944566534,0.21504124714418724,0.265655345207819,0.9411863076216322,0.3378880500188758,0.6874160977447135,0.19288972547204963,,,,,,,,,,
2022-11-16 09:13:01.777649-07:00,20.800258,3.0,1.08,-2.8,-0.03,10.85,975.64,34.3,25.0,0.0,9.9373e-05,-3.5825e-05,-0.000657319,32.821372,-111.78702,326.283228,-10.349021,0.281548421,0.152478644,,,,,,,,,,,,,,2022-11-16 16:13:01.777649+00:00,1.1967573601523187,0.014882644776096726,3.0011488783138263,-2.5604691261552737,1.5655326390113964,-0.030657319,328.55737765078214,0.26326837005820475,0.21154628731996367,,,,,,,,0.33914449654393275,0.9407342932326653,,,,,,,,,,,,
2022-11-16 09:13:01.977801-07:00,21.00041,3.03,1.15,-2.81,-0.09,10.95,975.65,34.18,20.0,0.0,0.00069885,0.000517971,-0.00088417,32.8213721,-111.78702,326.284662,-10.3455737,0.282769196,0.155046177,,,,,,,,,,,,,,2022-11-16 16:13:01.977801+00:00,1.1963483771064438,0.014875776013709752,3.0361550651555125,-2.557276004974283,1.6366358831616283,-0.09088417,327.3810869019141,0.263436204203384,0.21147709753796756,,,,,,,,0.5954534319079705,-0.8033898246984585,,,,,,,,,,,,
2022-11-16 09:13:02.178009-07:00,21.200618,3.2,1.3,-2.92,-0.14,10.89,975.64,34.26,19.0,0.0,0.000494322,-1.94472e-05,-0.000798545,32.8213721,-111.78702,326.280023,-10.3442277,0.283938409,0.153229981,,,,,,,,,,,,,,2022-11-16 16:13:02.178009+00:00,1.1965888265147815,0.014879876947832655,3.1966053251917024,-2.6391297475595206,1.8036850558205468,-0.14079854500000002,325.6497629537855,0.26536164420563,0.21396449198894466,,,,,,,,0.0393107488059283,0.9992270337757667,,,,,,,,,,,,
2022-11-16 09:13:02.378262-07:00,21.400871,3.18,1.29,-2.91,-0.12,10.96,975.63,34.09,25.0,0.0,-0.00012367,0.000621938,-0.000374849,32.8213721,-111.78702,326.27837500000004,-10.3349253,0.281073029,0.155901195,,,,,,,,,,,,,,2022-11-16 16:13:02.378262+00:00,1.196281745206351,0.014874986866720803,3.182527973047465,-2.6307373496901016,1.7910067828389447,-0.12037484899999999,325.7529542680214,0.2651731949643726,0.2137541272567559,,,,,,,,0.9807976982779761,0.1950278827568614,,,,,,,,,,,,
2022-11-16 09:13:02.578710-07:00,21.601319,2.93,1.21,-2.66,-0.11,11.05,975.65,33.86,23.0,0.0,-6.31213e-06,0.000151925,-0.000794393,32.8213721,-111.78702,326.27459100000004,-10.3293098,0.281155016,0.163905033,1.9788,19.8806,4120.67,25.1775,11814.0,0.0189149,-1.0,15.0,-1190.0,96.0,,0.0,2022-11-16 09:12:58.056,2022-11-16 16:13:02.578710+00:00,1.1959274241236477,0.014868864784018106,2.922148140520766,-2.3997789763169592,1.6673363847694618,-0.110794393,325.2089109344798,0.2608836941337361,0.20685068231785647,3.0421940275446246,324.04831003154425,-2.4621086987550127,1.7825599484565289,-0.10872200539999999,0.20876214425678752,0.26230740178115797,0.9991380113135331,0.04151185792563663,1.678816695447818,0.20840288836282012,,,,,,,,,,
2022-11-16 09:13:02.778335-07:00,21.800944,2.95,1.27,-2.66,-0.1,11.05,975.64,33.85,19.0,0.0,0.000135859,-0.000418714,-0.000867815,32.8213721,-111.78702,326.27837500000004,-10.3230263,0.279942859,0.15296499,,,,,,,,,,,,,,2022-11-16 16:13:02.778335+00:00,1.1959151663731826,0.014868815958358348,2.9480451365289486,-2.389780598085716,1.726244136854653,-0.100867815,324.1577545336544,0.2608749178117775,0.20656444297555906,,,,,,,,0.9511829027474072,0.3086277458703551,,,,,,,,,,,,
2022-11-16 09:13:02.977444-07:00,22.000053,2.97,1.49,-2.56,-0.07,10.95,975.64,34.13,22.0,0.0,8.51848e-05,0.000598575,-0.000774425,32.821372,-111.78702,326.284021,-10.3183136,0.282040133,0.159365648,,,,,,,,,,,,,,2022-11-16 16:13:02.977444+00:00,1.1963361150413887,0.014875727141985493,2.9616435624342397,-2.251116822122767,1.9245273819990376,-0.070774425,319.4721674677799,0.2592435577902737,0.20267697674482155,,,,,,,,0.9900248200316296,-0.1408930648447232,,,,,,,,,,,,
2022-11-16 09:13:03.177959-07:00,22.200568,3.03,1.75,-2.47,-0.06,10.96,975.62,34.06,26.0,0.0,0.000111506,0.000123801,0.000947391,32.8213721,-111.78702,326.28457000000003,-10.3141196,0.281093797,0.156931583,,,,,,,,,,,,,,2022-11-16 16:13:03.177959+00:00,1.1962694835728915,0.01487493800028623,3.027103979631476,-2.1166351577748577,2.1640734997619933,-0.059052609,314.3650804706408,0.2578196182252416,0.19902148849541076,,,,,,,,0.743040123155821,-0.6692468717749694,,,,,,,,,,,,
2022-11-16 09:13:03.377850-07:00,22.400459,2.87,1.42,-2.49,-0.1,10.99,975.63,34.02,20.0,0.0,-0.000412265,-0.000170211,0.00287763,32.8213722,-111.787021,326.290765,-10.3057873,0.279658247,0.154842912,,,,,,,,,,,,,,2022-11-16 16:13:03.377850+00:00,1.1961554396796523,0.014872913042016274,2.866309203643266,-2.1959587093195805,1.8421438048788634,-0.09712237,320.00741655596084,0.25811802552744817,0.2011777528859529,,,,,,,,0.38162154130305953,-0.9243186675673478,,,,,,,,,,,,
2022-11-16 09:13:03.578684-07:00,22.601293,2.91,1.42,-2.54,-0.12,10.98,975.64,34.06,19.0,0.0,-0.000386931,-0.000272018,0.00236541,32.8213722,-111.787021,326.28472300000004,-10.304589,0.277731683,0.154785628,1.97551,19.2961,4131.18,25.1793,11789.0,0.0199354,-1.0,16.0,-1180.0,96.0,,0.0,2022-11-16 09:12:59.080,2022-11-16 16:13:03.578684+00:00,1.1962097993286824,0.014873653109995546,2.909946533129436,-2.2452925872708716,1.8510672659896774,-0.11763459,320.49709981494686,0.258904212389213,0.20253550276007712,2.953721121460844,319.47108666005266,-2.241721585736357,1.9155312417808212,-0.092367521,0.2025283337239828,0.2590642844047851,0.5751161129091185,-0.8180717918815599,2.935542076471876,0.1858677493511485,,,,,,,,,,
