Timestamp,Seconds,S,Um,Vm,Wm,T,P,H,MD,Sts,Vx,Vy,Vz,Lat,Lon,Alt,Yaw,Roll,Pitch,CH4,C2H6,H2O,T_a,Batt,R,C2C1,Power,Current,SOC,Lat_a,Lon_a,TS,Timestamp_UTC,Rho,Rho_err,Sc,V,U,W,WD,V_err,U_err,Sc_avg,WD_avg,V_avg,U_avg,W_avg,U_err_avg,V_err_avg,Nx,Ny,cross_wind,cross_wind_err,CH4_sub,CH4_res,CH4_adj,CH4_adj_err,BG_Samples_CH4,C2H6_sub,C2H6_res,C2H6_adj,C2H6_adj_err,BG_Samples_C2H6,x_dist,y_dist,s_dist,z_dist,velocity_s,velocity_z,x_src_dist,y_src_dist,s_src_dist,collecting,group,transect_num
2022-11-16 09:12:41.578634-07:00,0.601243,3.11,1.54,-2.69,-0.11,10.62,975.63,35.58,25.0,0.0,8.14897e-05,0.000644907,0.00424702,32.8213738,-111.787019,326.299432,-11.0681646,0.288871324,0.152407047,1.975,20.2755,4105.74,25.1249,11823.0,0.0408409,-1.0,15.0,-1209.0,96.0,,0.0,2022-11-16 09:12:36.552,2022-11-16 16:12:41.578634+00:00,1.197715074287544,0.014898530838117157,3.099194600262931,-2.34367558892552,2.027854014512269,-0.10575298,319.1321599825735,0.26238540241516256,0.20289684528459964,3.1312663092052295,320.40612209341185,-2.411725849713309,1.9943946442669105,-0.11441433000000001,0.20489199208659387,0.2633722588291282,0.9921110664842252,-0.12536200285386828,2.280999780368579,0.20171445500697643,,,,,,,,,,,0.06679472470152678,0.37421275011211086,0.3801272386904441,-0.010102000000017597,0.3801272386904441,-0.010102000000017597,-22.398494494037823,-100.75654051767161,103.216147054076,False,,
2022-11-16 09:12:42.578380-07:00,1.600989,3.23,1.4,-2.9,-0.17,10.62,975.63,34.97,18.0,0.0,-0.000368372,0.000276888,0.00271788,32.8213738,-111.787019,326.298761,-11.0298292,0.287144371,0.147468843,1.9756,20.5178,4067.13,25.1276,11789.0,0.0508083,-1.0,14.0,-1184.0,96.0,,0.0,2022-11-16 09:12:37.576,2022-11-16 16:12:42.578380+00:00,1.197715074287544,0.014898530838117157,3.219806065680641,-2.578305445576578,1.9285984885154328,-0.16728212,323.20314068049635,0.265803451889482,0.20999963059649074,3.1818411812382705,320.5849776376946,-2.4571120622989224,2.019363816843618,-0.1413356046,0.20636086321056335,0.26409560513886016,0.6008454417476647,0.7993652201159703,-0.75080437994853,0.18446614963241134,,,,,,,,,,,0.06679472469450008,0.3742127500727443,0.38012723865045533,-0.010773000000028787,-3.9988790057066126e-11,-0.0006710000000111904,-22.39849449404485,-100.75654051771097,103.21614705411595,False,,
2022-11-16 09:12:43.578752-07:00,2.601361,3.41,1.51,-3.05,-0.19,10.6,975.62,34.97,25.0,0.0,9.02436e-05,0.000598811,0.00268658,32.8213735,-111.787019,326.302393,-10.9876213,0.282449661,0.151389518,1.97588,20.4897,4031.81,25.1303,11788.0,0.0448988,-1.0,14.0,-1195.0,96.0,,0.0,2022-11-16 09:12:38.600,2022-11-16 16:12:43.578752+00:00,1.1977872175432394,0.014899869074114336,3.4029004860797185,-2.7056884261269443,2.0637300838249866,-0.18731342,322.66587488713355,0.2683688887344229,0.21410684146757,3.3133370323691826,320.3370359432007,-2.549937419826147,2.1127268499942127,-0.139204406,0.20932045142356231,0.26587914046171607,0.9888339012323483,-0.14902186340807333,2.4691323591945746,0.20475711520727177,,,,,,,,,,,0.03339736201219336,0.37421275154959305,0.375700102757094,-0.007141000000046915,-0.004427135893361356,0.003631999999981872,-22.43189185672716,-100.75654051623412,103.22339961981213,False,,
2022-11-16 09:12:44.578801-07:00,3.60141,3.23,1.94,-2.58,-0.12,10.75,975.62,34.63,21.0,0.0,0.000138826,9.51809e-05,0.00415523,32.8213735,-111.787019,326.29143700000003,-10.941745,0.280085331,0.149328955,1.97495,20.4499,4016.58,25.1325,11801.0,0.0591474,-1.0,14.0,-1194.0,96.0,,0.0,2022-11-16 09:12:39.624,2022-11-16 16:12:44.578801+00:00,1.1971543606125192,0.014889470942444213,3.2280416265976655,-2.1647691507170874,2.3945829004548833,-0.11584477,312.1144532129062,0.26047528865272346,0.19826189153716509,3.237373619023989,317.45433304488705,-2.3767394283142442,2.185076718531497,-0.10651846599999999,0.20432656882109007,0.26319396520947763,0.565471492293329,-0.8247678409125537,3.1958568395058924,0.1905843935370492,,,,,,,,,,,0.033397361954827884,0.3742127509068209,0.375700102111767,-0.018097000000011576,-6.453269585371402e-10,-0.01095599999996466,-22.43189185678452,-100.7565405168769,103.223399620452,False,,
2022-11-16 09:12:45.578954-07:00,4.601563,3.32,1.42,-3.0,-0.19,10.6,975.63,35.06,22.0,0.0,0.00033043,-0.000559225,0.0018473,32.8213734,-111.787019,326.283563,-10.8936649,0.283534365,0.153704534,1.97544,20.0256,4012.72,25.1349,11819.0,-0.0113565,-1.0,13.0,-1205.0,96.0,,0.0,2022-11-16 09:12:40.648,2022-11-16 16:12:45.578954+00:00,1.1977994947333088,0.014899918106831824,3.319742663300142,-2.6781367160450955,1.9617020876540638,-0.1881527,323.7776838790571,0.26738613244339565,0.2134878284222227,3.2549643164336617,322.32002708591597,-2.5770517943058247,1.9871411866816353,-0.149049924,0.21043775794693148,0.2657995442280853,0.8609407796799571,0.5087051934903629,0.3998512509388108,0.17047324451333892,,,,,,,,,,,0.022264908178449,0.37421275086611994,0.374874524403811,-0.025971000000026834,-0.0008255777079559934,-0.007874000000015258,-22.4430243105609,-100.7565405169176,103.22581943071067,False,,
2022-11-16 09:12:46.578650-07:00,5.601259,3.17,1.79,-2.62,-0.08,10.63,975.62,34.91,23.0,0.0,7.81486e-05,-0.000723215,0.00280506,32.8213732,-111.787019,326.27993200000003,-10.859741,0.279822688,0.152260344,1.9771,20.3141,4023.81,25.1376,11819.0,-0.0852352,-1.0,13.0,-1205.0,96.0,,0.0,2022-11-16 09:12:41.672,2022-11-16 16:12:46.578650+00:00,1.197660592634767,0.014897788282123802,3.1736550567698183,-2.2365568184952265,2.2516438477261778,-0.07719494,314.8074016941857,0.26098440794139727,0.20048659103988412,3.1715132524326597,316.6534322579337,-2.305694984483434,2.1752001330665935,-0.09780233199999999,0.20250034201752093,0.26185987811786854,0.994212453045899,0.10743183051803602,1.914906027362594,0.20018597998174154,,,,,,,,,,,0.0,0.3742127514956044,0.3742127514956044,-0.02960200000001123,-0.0006617729082066259,-0.0036309999999843967,-22.46528921873935,-100.75654051628811,103.23066248209402,False,,
2022-11-16 09:12:47.578645-07:00,6.601254,3.05,1.64,-2.57,-0.09,10.65,975.63,34.78,20.0,0.0,0.00045817,-0.000418167,0.00157858,32.821373,-111.787019,326.275995,-10.8125777,0.280506002,0.14170836,1.97655,20.398,4027.56,25.1414,11838.0,-0.0704614,-1.0,12.0,-1200.0,96.0,,0.0,2022-11-16 09:12:42.696,2022-11-16 16:12:47.578645+00:00,1.19758846592874,0.014896450420982123,3.0493068399781236,-2.217131637042444,2.0934659080966336,-0.08842142,316.64329453668074,0.2601312258085926,0.20010806405758386,3.108728526099701,315.7206069989811,-2.2250098300112198,2.1701448399008454,-0.11338010600000001,0.20034477406721743,0.26049637678223275,0.6741268102883023,0.7386156264597433,-0.18047421068684866,0.1687777959544277,,,,,,,,,,,-0.022264907443884124,0.3742127521071363,0.37487452559900863,-0.03353900000001886,0.0006617741034042335,-0.003937000000007629,-22.487554126183234,-100.75654051567658,103.23551010803016,False,,
2022-11-16 09:12:48.578666-07:00,7.601275,2.83,1.25,-2.53,-0.13,10.75,975.63,34.59,25.0,0.0,0.000404259,-0.00120681,0.00286636,32.8213728,-111.787019,326.27450000000005,-10.7794421,0.272589204,0.143588122,1.97634,20.2238,4024.67,25.1431,11847.0,-0.0813813,-1.0,12.0,-1205.0,96.0,,0.0,2022-11-16 09:12:43.720,2022-11-16 16:12:48.578666+00:00,1.197166631315873,0.014889519905787034,2.8231562915818706,-2.2527774252258386,1.7015302874445524,-0.12713364,322.9361275443073,0.25946174495261104,0.20118557552820215,2.9749248034257896,317.1618423415255,-2.174954048563879,2.0223886933144084,-0.131320838,0.19908333365053804,0.25922812117107424,0.9482134169386183,0.31763393385718414,1.2268168828617285,0.18089817331349142,,,,,,,,,,,-0.044529815585478756,0.37421275286193667,0.3768528743164707,-0.03503399999999601,0.001978348717462053,-0.0014949999999771535,-22.509819034324828,-100.75654051492178,103.24036230802915,False,,
2022-11-16 09:12:49.579174-07:00,8.601783,2.76,1.14,-2.52,-0.07,10.95,975.64,34.18,19.0,0.0,-5.81573e-05,-0.000876469,0.00397775,32.8213726,-111.787019,326.288019,-10.7422519,0.271646039,0.146542375,1.97776,19.8803,4023.94,25.1457,11849.0,-0.250511,-1.0,11.0,-1206.0,96.0,,0.0,2022-11-16 09:12:44.744,2022-11-16 16:12:49.579174+00:00,1.1963361150413887,0.014875727141985493,2.7665471945710065,-2.2642290695963054,1.5896698085400491,-0.06602225,324.9280768812009,0.2592516242872426,0.20163563567071355,2.7207666225318916,322.8454803668103,-2.165964902075421,1.6445992991544636,-0.091974464,0.19896223280620315,0.2579825918089037,0.9978058104776053,-0.06620849324013638,1.7843960091811542,0.19809329705382234,,,,,,,,,,,-0.06679472387386255,0.37421275449758595,0.3801272428622501,-0.021515000000022155,0.0032743685457793936,0.013518999999973857,-22.532083942613212,-100.75654051328613,103.24521908060652,False,,
2022-11-16 09:12:50.578949-07:00,9.601558,2.71,1.47,-2.27,-0.08,10.96,975.62,34.19,26.0,0.0,0.00027582,-0.000674287,0.00303602,32.8213725,-111.787019,326.29253500000004,-10.7050498,0.273448835,0.150227048,1.97617,20.2501,4032.75,25.1488,11816.0,-0.315461,-1.0,14.0,-1206.0,96.0,,0.0,2022-11-16 09:12:45.768,2022-11-16 16:12:50.578949+00:00,1.1962694835728915,0.01487493800028623,2.70508219494366,-1.9581109502949383,1.8663523750182496,-0.07696398,316.37440738989955,0.2555021287314589,0.19359044357752336,2.759662454403185,317.105995737469,-2.020780229249855,1.8762348341422652,-0.10332131599999998,0.1953872599680836,0.25655706414372564,0.925558828550106,0.378603823135683,0.9714905946626203,0.17137259933203255,,,,,,,,,,,-0.07792717767196379,0.3742127551837879,0.3822405409714665,-0.016998999999998432,0.0021132981092163994,0.004516000000023723,-22.543216396411314,-100.75654051259993,103.24764918177371,False,,
2022-11-16 09:12:51.578470-07:00,10.601079,3.4,1.26,-3.15,-0.16,10.85,975.63,34.44,19.0,0.0,0.000199795,-0.0009929,0.00111818,32.8213724,-111.78702,326.283136,-10.6686409,0.275886036,0.13974689,1.97395,19.8427,4054.34,25.1515,11796.0,-0.154822,-1.0,15.0,-1199.0,96.0,,0.0,2022-11-16 09:12:46.792,2022-11-16 16:12:51.578470+00:00,1.196745093769635,0.014882595858591512,3.3935987918628188,-2.863280576880673,1.8215754440018852,-0.15888182,327.5361033996347,0.2698788771062386,0.22006233441742404,3.3689708551299864,323.1003673756037,-2.691144949090932,2.0191528280090263,-0.14050349720000002,0.21465072268860755,0.26750766830628075,0.9803492968759828,0.19726950122805628,1.44859423338423,0.20656002438924614,,,,,,,,,,,-0.08905963129153881,0.28065956599266206,0.29445103142793416,-0.026398000000028787,-0.08778950954353232,-0.009399000000030355,-22.554348850030888,-100.85009370179105,103.34137628127915,False,,
2022-11-16 09:12:52.578212-07:00,11.600821,3.55,1.58,-3.17,-0.16,10.74,975.63,34.6,23.0,0.0,4.31553e-06,-0.000331236,0.00189954,32.8213724,-111.78702,326.298334,-10.6299809,0.273634982,0.132189344,1.97724,20.5639,4082.88,25.1528,11787.0,-0.270843,-1.0,16.0,-1196.0,96.0,,0.0,2022-11-16 09:12:47.816,2022-11-16 16:12:52.578212+00:00,1.1972088014039817,0.014890212666101329,3.5422012190178758,-2.824474991543416,2.1376460179734025,-0.15810046,322.8804889451213,0.2702164378840226,0.2189416972180777,3.4913560997074087,322.9459353450764,-2.783788675129877,2.103939431241774,-0.162280508,0.2176377866492806,0.2693729087373916,0.9999151390407324,0.013027460119028578,2.06749519297834,0.21760085511625468,,,,,,,,,,,-0.08905963150374291,0.280659566661395,0.29445103212952833,-0.011200000000030741,7.015941716481677e-10,0.015197999999998046,-22.554348850243095,-100.85009370112232,103.34137628067285,False,,
2022-11-16 09:12:53.579274-07:00,12.601883,3.41,1.4,-3.1,-0.2,10.6,975.64,34.97,20.0,0.0,1.36478e-05,-0.000799214,0.00183649,32.8213723,-111.78702,326.28875100000005,-10.5966605,0.280290448,0.140671796,1.97078,20.369,4096.64,25.1552,11787.0,-0.142707,-1.0,14.0,-1200.0,96.0,,0.0,2022-11-16 09:12:48.840,2022-11-16 16:12:53.579274+00:00,1.1978117719233778,0.014899967139890526,3.4021335755595494,-2.7904803448090756,1.9462097294957261,-0.19816351000000001,325.1063028562512,0.2688869953735538,0.21793385827712314,3.4131888269754627,324.27115708368126,-2.771205538938221,1.991603032484577,-0.19519933539999998,0.21738289988147966,0.2687502198566098,0.999854227981471,0.017074038408545662,1.9439970426806177,0.21731954193511038,,,,,,,,,,,-0.10019208582229204,0.28065956655567104,0.2980071246810027,-0.020782999999994445,0.003556092551474377,-0.009582999999963704,-22.565481304561644,-100.85009370122805,103.34380652004744,False,,
2022-11-16 09:12:54.579043-07:00,13.601652,3.46,1.51,-3.12,-0.18,10.71,975.62,34.67,22.0,0.0,5.40793e-05,-0.000199212,0.000909272,32.8213722,-111.78702,326.282709,-10.5668186,0.27923088,0.147612998,1.97416,20.4333,4098.11,25.1576,11802.0,-0.0628981,-1.0,14.0,-1204.0,96.0,,0.0,2022-11-16 09:12:49.864,2022-11-16 16:12:54.579043+00:00,1.1973230570629685,0.014892242353382016,3.4663863246329867,-2.7903824257558307,2.056599151423435,-0.179090728,323.6086236846119,0.26922772607765383,0.2180390500424903,3.3743467607730677,322.4938588350365,-2.6770214714399296,2.053928783779773,-0.15285162119999998,0.21447500271759162,0.26719300317741745,0.9650721237874889,0.26198434283045585,1.2808517025323896,0.2005944054936348,,,,,,,,,,,-0.11132453946104473,0.2806595666057558,0.3019320211795105,-0.02682500000003074,0.003924896498507802,-0.006042000000036296,-22.576613758200395,-100.85009370117797,103.34623790116088,False,,
2022-11-16 09:12:55.578487-07:00,14.601096,3.54,1.39,-3.24,-0.2,10.76,975.63,34.61,23.0,0.0,0.000250432,-2.57378e-05,0.000637638,32.8213721,-111.78702,326.288049,-10.5316266,0.278783071,0.150659886,1.97412,20.1861,4083.86,25.1604,11820.0,-0.0229453,-1.0,14.0,-1216.0,96.0,,0.0,2022-11-16 09:12:50.888,2022-11-16 16:12:55.578487+00:00,1.1971244641984304,0.014888827210152725,3.5257385101658967,-2.9313834776624446,1.959036229617632,-0.19936236200000002,326.24529228792574,0.2714551236234454,0.22272451643592842,3.415772720349527,325.1820051880667,-2.803361761797246,1.94936946795087,-0.1806365502,0.21857870223864398,0.2690601927312235,0.10223510070695785,0.9947602646785999,-2.5893789042842688,0.2662577728177539,,,,,,,,,,,-0.12245699400537316,0.2806595671566644,0.30621154128706224,-0.021485000000041055,0.004279520107551726,0.005339999999989686,-22.587746212744722,-100.85009370062706,103.34867042394218,False,,
2022-11-16 09:12:56.578428-07:00,15.601037,3.01,1.27,-2.72,-0.2,10.75,975.64,34.66,19.0,0.0,0.000310663,-0.000206021,0.000794909,32.8213721,-111.78702,326.290948,-10.4990768,0.282666646,0.148008523,1.97756,19.6221,4079.87,25.1629,11820.0,0.000948092,-1.0,14.0,-1216.0,96.0,,0.0,2022-11-16 09:12:51.912,2022-11-16 16:12:56.578428+00:00,1.197178902019227,0.014889568869470708,3.002230937244368,-2.4432483594204757,1.7446856607241172,-0.199205091,324.46995872373816,0.2621100864673273,0.20757558890063,3.0827493302609885,324.83431200304375,-2.519000505668035,1.7751135980161337,-0.1624427834,0.20987199354025954,0.26350117182493243,0.5526785395695369,0.8333945235596907,-1.1182540353462493,0.193916602915204,,,,,,,,,,,-0.12245699406102996,0.28065956728422436,0.3062115414262356,-0.018586000000027525,1.3917333951951605e-10,0.0028990000000135296,-22.58774621280038,-100.8500937004995,103.34867042382987,False,,
2022-11-16 09:12:57.578588-07:00,16.601197,2.51,0.79,-2.37,0.18,11.21,975.64,33.59,25.0,0.0,-7.97392e-05,-0.00100456,-0.000101182,32.8213719,-111.78702,326.28145800000004,-10.4661124,0.278362381,0.142179992,1.97677,19.8286,4076.64,25.1646,11833.0,-0.0547156,-1.0,13.0,-1223.0,96.0,,0.0,2022-11-16 09:12:52.936,2022-11-16 16:12:57.578588+00:00,1.1952422643243021,0.014857771459694332,2.499040323040072,-2.1880671111942616,1.2072965058717877,0.179898818,331.1116704452265,0.2565462982579953,0.20041849178655097,2.711286954132559,330.33283368487724,-2.351141735350282,1.3475364021328013,0.1461619118,0.20544398701708375,0.25975370863418024,0.9968644364389811,-0.07912834740592357,1.5293530761284904,0.20416411965947126,,,,,,,,,,,-0.14472190134178864,0.28065956749853355,0.3157755873344967,-0.028075999999998658,0.009564045908261098,-0.009489999999971133,-22.61001112008114,-100.85009370028519,103.3535388954171,False,,
2022-11-16 09:12:58.579189-07:00,17.601798,3.32,1.13,-3.12,-0.03,10.77,975.65,34.57,18.0,0.0,0.000339551,-3.69407e-05,0.00309956,32.8213719,-111.78702,326.28756100000004,-10.4381205,0.277279751,0.144597926,1.97473,20.4102,4094.56,25.1679,11856.0,-0.0500414,-1.0,11.0,-1208.0,96.0,,0.0,2022-11-16 09:12:53.960,2022-11-16 16:12:58.579189+00:00,1.1971068397292925,0.014888232488417204,3.318531338185527,-2.863678465938897,1.6769006787038017,-0.026900439999999998,329.6477947156606,0.26910569573538207,0.22078741762800871,3.2607706201584366,329.39581045599334,-2.8062030293156797,1.660266422369998,-0.0354275082,0.21892766968084687,0.26799830059284224,0.1081546188460388,0.9941340847301575,-2.6101765980214346,0.26487579145547646,,,,,,,,,,,-0.14472190148026132,0.280659567767074,0.31577558763663677,-0.021973000000002685,3.0214009072437875e-10,0.006102999999995973,-22.61001112021961,-100.85009370001664,103.35353889518535,False,,
2022-11-16 09:12:59.579125-07:00,18.601734,3.16,1.18,-2.93,-0.07,10.76,975.64,34.56,25.0,0.0,0.000118899,-8.51139e-05,0.00097275,32.8213719,-111.78702,326.285272,-10.4136709,0.276910893,0.15418549,1.97383,19.3556,4132.13,25.1695,11862.0,0.0280419,-1.0,13.0,-1198.0,96.0,,0.0,2022-11-16 09:12:54.984,2022-11-16 16:12:59.579125+00:00,1.1971367344695802,0.014888876169215977,3.1588219615992728,-2.6685337291220774,1.6902910760042769,-0.06902725000000001,327.649189684618,0.26561890574208535,0.21466118427324318,3.167268490046413,328.3770845775065,-2.6966483748636896,1.6608175842973032,-0.11722854323999998,0.21558625404241966,0.26605621794677214,0.5820803626270921,0.8131312633541482,-1.2259997981495974,0.1904741775273567,,,,,,,,,,,-0.14472190142832556,0.28065956766635486,0.3157755875233157,-0.024262000000021544,-1.1332107474615327e-10,-0.0022890000000188593,-22.610011120167677,-100.85009370011736,103.35353889527227,False,,
2022-11-16 09:13:00.578901-07:00,19.60151,3.26,1.36,-2.96,-0.12,10.9,975.64,34.33,21.0,0.0,-0.000489983,0.000198425,0.000578687,32.8213719,-111.78702,326.27672700000005,-10.3846132,0.28050249,0.134122399,1.976,20.0809,4130.45,25.1733,11852.0,0.0789684,-1.0,12.0,-1191.0,96.0,,0.0,2022-11-16 09:12:56.008,2022-11-16 16:13:00.578901+00:00,1.1965467005219454,0.014879185152182292,3.257039812859998,-2.6661697194860867,1.8707879007120432,-0.119421313,324.94357380401476,0.26612201852842116,0.21468489717537823,3.229351217743978,326.8324426840842,-2.7020166105206984,1.7660638087521536,-0.09982009119999999,0.2158101700185518,0.26642508502146955,0.3753529287745376,0.9268819659807698,-1.841553245054285,0.23089919515200608,,,,,,,,,,,-0.14472190123444564,0.28065956729036307,0.3157755871002799,-0.03280699999999115,-4.230357730783396e-10,-0.008544999999969605,-22.610011119973795,-100.85009370049336,103.35353889559674,False,,
2022-11-16 09:13:01.578441-07:00,20.60105,3.19,1.09,-3.0,-0.06,10.8,975.66,34.46,22.0,0.0,-4.49356e-05,0.000125168,-0.00156905,32.821372,-111.78702,326.28585200000003,-10.354194,0.279186944,0.150613662,1.97396,19.6103,4119.84,25.1751,11830.0,0.082705,-1.0,14.0,-1194.0,96.0,,0.0,2022-11-16 09:12:57.032,2022-11-16 16:13:01.578441+00:00,1.1969926310569567,0.014886203897023368,3.1917495922641184,-2.7551125536960437,1.6114032009973887,-0.06156905,329.67759753229524,0.26681118094688144,0.21756347525367073,3.1638662414040666,327.7162404727145,-2.6735140827962653,1.6901696773496333,-0.0944566534,0.21504124714418724,0.265655345207819,0.9411863076216322,0.3378880500188758,0.6874160977447135,0.19288972547204963,,,,,,,,,,,-0.13358944770233955,0.2806595673759345,0.31083103657302763,-0.023682000000007974,-0.004944550527252289,0.009124999999983174,-22.59887866644169,-100.85009370040778,103.35110408874007,False,,
2022-11-16 09:13:02.578710-07:00,21.601319,2.93,1.21,-2.66,-0.11,11.05,975.65,33.86,23.0,0.0,-6.31213e-06,0.000151925,-0.000794393,32.8213721,-111.78702,326.27459100000004,-10.3293098,0.281155016,0.163905033,1.9788,19.8806,4120.67,25.1775,11814.0,0.0189149,-1.0,15.0,-1190.0,96.0,,0.0,2022-11-16 09:12:58.056,2022-11-16 16:13:02.578710+00:00,1.1959274241236477,0.014868864784018106,2.922148140520766,-2.3997789763169592,1.6673363847694618,-0.110794393,325.2089109344798,0.2608836941337361,0.20685068231785647,3.0421940275446246,324.04831003154425,-2.4621086987550127,1.7825599484565289,-0.10872200539999999,0.20876214425678752,0.26230740178115797,0.9991380113135331,0.04151185792563663,1.678816695447818,0.20840288836282012,,,,,,,,,,,-0.1224569937469981,0.28065956656449376,0.30621154064097883,-0.03494299999999839,-0.0046194959320488005,-0.011260999999990418,-22.587746212486348,-100.85009370121922,103.34867042446355,False,,
2022-11-16 09:13:03.578684-07:00,22.601293,2.91,1.42,-2.54,-0.12,10.98,975.64,34.06,19.0,0.0,-0.000386931,-0.000272018,0.00236541,32.8213722,-111.787021,326.28472300000004,-10.304589,0.277731683,0.154785628,1.97551,19.2961,4131.18,25.1793,11789.0,0.0199354,-1.0,16.0,-1180.0,96.0,,0.0,2022-11-16 09:12:59.080,2022-11-16 16:13:03.578684+00:00,1.1962097993286824,0.014873653109995546,2.909946533129436,-2.2452925872708716,1.8510672659896774,-0.11763459,320.49709981494686,0.258904212389213,0.20253550276007712,2.953721121460844,319.47108666005266,-2.241721585736357,1.9155312417808212,-0.092367521,0.2025283337239828,0.2590642844047851,0.5751161129091185,-0.8180717918815599,2.935542076471876,0.1858677493511485,,,,,,,,,,,-0.11132453949619567,0.18710637858971912,0.2177198888549214,-0.024810999999999694,-0.08849165178605742,0.010131999999998698,-22.576613758235546,-100.943646889194,103.43753349765663,False,,
2022-11-16 09:13:04.578698-07:00,23.601307,3.48,1.85,-2.94,-0.1,10.72,975.63,34.65,26.0,0.0,-5.15087e-05,1.8387e-05,0.00104713,32.8213721,-111.787021,326.28832400000005,-10.2703058,0.272666825,0.1421577,1.97438,18.6709,4130.63,25.1815,11792.0,0.0529351,-1.0,16.0,-1181.0,96.0,,0.0,2022-11-16 09:13:00.104,2022-11-16 16:13:04.578698+00:00,1.1972931504934523,0.014891598380805079,3.4735808931242254,-2.5630349545394875,2.34448630682426,-0.09895287000000001,317.54989156020656,0.2656348479850115,0.21186849126277166,3.588341017362064,317.87254976531966,-2.657702861415823,2.4065316782605883,-0.11890675619999999,0.21477962512160173,0.26754405567262457,0.33619102970500736,0.9417938158354444,-1.6939537562774407,0.23854344989710388,,,,,,,,,,,-0.12245699401065278,0.18710637890597928,0.22361688757657133,-0.0212099999999964,0.005896998721649921,0.003601000000003296,-22.58774621275,-100.94364688887774,103.43996387372745,False,,
2022-11-16 09:13:05.579248-07:00,24.601857,3.49,1.69,-3.05,-0.17,10.76,975.63,34.51,18.0,0.0,-0.000962188,0.00031583,-0.00108842,32.8213722,-111.787021,326.273523,-10.2398785,0.271733752,0.152137106,1.97884,19.7021,4130.57,25.184,11804.0,0.0293093,-1.0,14.0,-1189.0,96.0,,0.0,2022-11-16 09:13:01.128,2022-11-16 16:13:05.579248+00:00,1.1971244641984304,0.014888827210152725,3.4860652793413,-2.7006733184530756,2.2043172999422262,-0.17108842000000002,320.7783235225635,0.26760884405664875,0.21620198631710666,3.295750594155168,320.1430061847237,-2.5146392325478306,2.122343085672736,-0.111007521,0.21062242109457907,0.2641682558476718,0.3118703177036689,0.9501246786266593,-1.7273249802815558,0.2393527168125114,,,,,,,,,,,-0.1113245393007188,0.1871063782611755,0.2177198884726229,-0.036011000000030435,-0.005896999103948419,-0.014801000000034037,-22.576613758040068,-100.94364688952254,103.43753349793457,False,,
2022-11-16 09:13:06.582971-07:00,25.60558,3.12,1.36,-2.81,-0.12,11.01,975.63,33.95,25.0,0.0,-0.000332772,2.46308e-05,0.000750989,32.8213722,-111.787021,326.28774400000003,-10.2118268,0.274604651,0.15192533,1.97685,19.8006,4100.85,25.1862,11819.0,0.0406891,-1.0,13.0,-1207.0,96.0,,0.0,2022-11-16 09:13:02.152,2022-11-16 16:13:06.582971+00:00,1.1960712508114315,0.014871530814573803,3.1215946878155085,-2.524350722535079,1.8363024872374993,-0.119249011,323.966524921078,0.26326805971125794,0.2108857960179238,3.0473398892735366,320.19902981490384,-2.3421583957171244,1.9457219542591049,-0.1192970354,0.205712427335627,0.26065904354674735,0.07381512196683944,0.9972719427362933,-2.1921451501257434,0.25924122094918944,,,,,,,,,,,-0.11132453954892206,0.18710637867833793,0.21771988895803962,-0.021790000000009968,4.854167068302218e-10,0.014221000000020467,-22.57661375828827,-100.94364688910538,103.43753349758164,False,,
2022-11-16 09:13:07.579232-07:00,26.601841,3.03,1.38,-2.69,-0.16,10.71,975.62,34.66,19.0,0.0,-0.000476008,0.000129838,-0.000860322,32.8213724,-111.787021,326.299188,-10.1816968,0.280997718,0.150395736,1.97498,19.7528,4103.39,25.1887,11839.0,0.0666573,-1.0,14.0,-1212.0,96.0,,0.0,2022-11-16 09:13:03.176,2022-11-16 16:13:07.579232+00:00,1.1973230570629685,0.014892242353382016,3.022934050468029,-2.40356533151712,1.8333041129632697,-0.160860322,322.665654114791,0.2611785875733734,0.20742577077689767,3.027277864672347,320.46004599962333,-2.331972704828231,1.9264668802951312,-0.11585672799999999,0.20539753179380726,0.26028995320581505,0.2631506757072333,0.9647547470081848,-1.7428306755992828,0.24268249244342813,,,,,,,,,,,-0.08905963151566701,0.18710637859278423,0.2072206912347623,-0.010346000000026834,-0.010499197723277315,0.011443999999983134,-22.554348850255018,-100.94364688919093,103.43267616835922,False,,
2022-11-16 09:13:08.578673-07:00,27.601282,2.54,1.34,-2.16,-0.07,11.12,975.63,33.75,23.0,0.0,9.52934e-05,-3.89527e-05,-0.00238784,32.8213723,-111.787021,326.28591300000005,-10.1585647,0.286767408,0.153542956,1.97679,19.0639,4096.05,25.1913,11854.0,-0.0319368,-1.0,12.0,-1218.0,96.0,,0.0,2022-11-16 09:13:04.200,2022-11-16 16:13:08.578673+00:00,1.1956084237892721,0.01486393317005544,2.5419817516781653,-1.8898377883516482,1.7000542225420177,-0.07238784000000001,318.02618690095375,0.2529875757194841,0.19375166538201674,2.6412058833385545,319.76564344365516,-2.0136631915116334,1.6998796157683311,-0.12099586699999998,0.19704660229817658,0.2548509965576461,0.3783751787959607,0.9256523235379063,-1.220759758497548,0.22017929050929846,,,,,,,,,,,-0.10019208577771285,0.1871063784139995,0.21224337656495043,-0.023620999999991454,0.005022685330188126,-0.01327499999996462,-22.565481304517064,-100.94364688936972,103.43510426267413,False,,
2022-11-16 09:13:09.578582-07:00,28.601191,2.7,1.34,-2.34,-0.08,10.67,975.64,34.72,23.0,0.0,8.67001e-05,-0.00052029,-0.00325591,32.8213724,-111.787021,326.288202,-10.1217409,0.28560849,0.139633431,1.97518,18.8272,4098.26,25.193,11862.0,-0.00979615,-1.0,12.0,-1206.0,96.0,,0.0,2022-11-16 09:13:05.326,2022-11-16 16:13:09.578582+00:00,1.1975163493878462,0.014895112800748156,2.696970956210351,-2.0686098749277795,1.7304639620614617,-0.08325591,320.08634816075926,0.25552471033624374,0.1983735703983512,2.663108403368576,319.30623900420153,-2.0188133552056824,1.7359170464256137,-0.06556033019999999,0.1970885344484919,0.2548200590723085,0.9863985042638884,0.16437150235355177,1.3804705939538398,0.1918871466837834,,,,,,,,,,,-0.08905963136227352,0.18710637827051813,0.20722069087785194,-0.02133200000002944,-0.005022685687098488,0.002288999999962016,-22.554348850101626,-100.9436468895132,103.43267616864028,False,,
2022-11-16 09:13:10.578885-07:00,29.601494,2.98,1.52,-2.56,-0.06,10.84,975.64,34.43,20.0,0.0,0.000386098,-0.000421202,-0.00040572,32.8213724,-111.787021,326.28841600000004,-10.0969382,0.285410021,0.140695248,1.97644,18.5852,4091.88,25.1957,11853.0,-0.0579279,-1.0,12.0,-1211.0,96.0,,0.0,2022-11-16 09:13:06.350,2022-11-16 16:13:10.578885+00:00,1.196799500979818,0.014883336894622323,2.9778181818225598,-2.2542958742235437,1.9456493094727336,-0.060405719999999996,319.2030105095325,0.25891348643552936,0.20345014584964416,2.9408967122568765,321.7497917868522,-2.3069484329200365,1.8210570895403237,-0.090084195,0.20495009764172006,0.2594165867262189,0.7371574819458772,0.6757209829591011,-0.2164476041234522,0.1625839585091677,,,,,,,,,,,-0.08905963136526152,0.18710637827679566,0.20722069088480433,-0.021118000000001302,6.952383113656424e-12,0.00021400000002813613,-22.554348850104613,-100.94364688950692,103.43267616863481,False,,
2022-11-16 09:13:11.591596-07:00,30.614205,3.39,1.48,-3.04,-0.17,10.9,975.63,34.19,26.0,0.0,0.000456901,-0.000587184,-0.000968069,32.8213725,-111.787021,326.292261,-10.0703841,0.277792537,0.137417988,1.97546,18.8795,4081.66,25.1983,11850.0,-0.0355197,-1.0,12.0,-1206.0,96.0,,0.0,2022-11-16 09:13:07.374,2022-11-16 16:13:11.591596+00:00,1.196534436298456,0.014879136257744873,3.381867687402287,-2.734962445104595,1.989223335616991,-0.170968069,323.97043792474045,0.2672485036030865,0.2177588293745477,3.1252351018005027,321.1547550605712,-2.429721314406474,1.9553728213191435,-0.11432332139999998,0.20864562245515872,0.2618516385113446,0.789220407286774,0.6141100461009399,0.05110386603638695,0.16322176144173972,,,,,,,,,,,-0.07792717766861626,0.18710637817895842,0.20268557367174284,-0.017273000000045613,-0.00453511721306149,0.0038449999999556894,-22.543216396407967,-100.94364688960476,103.43024921592566,False,,
2022-11-16 09:13:12.578938-07:00,31.601547,2.95,1.55,-2.5,-0.06,10.84,975.63,34.38,19.0,0.0,0.000370084,-0.00046436,-0.000104674,32.8213726,-111.787021,326.295953,-10.0506311,0.279453667,0.142472157,1.97351,18.6521,4074.87,25.2006,11821.0,0.053409,-1.0,15.0,-1181.0,96.0,,0.0,2022-11-16 09:13:08.398,2022-11-16 16:13:12.578938+00:00,1.1967872341652044,0.014883287972501836,2.942106029157525,-2.1915956936859007,1.9628795689553842,-0.060104674,318.15112083272516,0.25788022281497414,0.20187973155016628,2.967525114492011,320.59814535166925,-2.2917477028255266,1.8788213381553796,-0.0980591406,0.20473497486206466,0.2592790047039988,0.7820208700894072,0.6232522432728232,0.040940600805465355,0.16068713161282014,,,,,,,,,,,-0.0667947239569472,0.18710637807663305,0.19867141683050615,-0.013581000000044696,-0.004014156841236682,0.0036920000000009168,-22.532083942696296,-100.94364688970708,103.42782340451036,False,,
2022-11-16 09:13:13.578517-07:00,32.601126,2.76,1.27,-2.45,-0.11,11.08,975.63,33.76,24.0,0.0,0.000147612,-0.000279607,0.00162542,32.8213726,-111.787021,326.27681900000005,-10.0247752,0.276125398,0.150910296,1.97515,18.5899,4084.82,25.2025,11799.0,0.0647042,-1.0,17.0,-1173.0,96.0,,0.0,2022-11-16 09:13:09.422,2022-11-16 16:13:13.578517+00:00,1.1957766830755951,0.014866695048292602,2.7599131774038717,-2.1918004319293116,1.6772392832872767,-0.10837458,322.57557003483186,0.2570504313308955,0.201974259975442,2.735524783840559,322.64499297965733,-2.1735971977330015,1.6516954921407347,-0.08022012780000001,0.20164661247493623,0.25678388967808063,0.8843303843722576,0.46686161897934497,0.44587540268814463,0.1673332994916163,,,,,,,,,,,-0.06679472375657643,0.18710637751535145,0.19867141623453174,-0.03271499999999605,-5.959744087125074e-10,-0.019133999999951357,-22.532083942495927,-100.94364689026837,103.42782340501452,False,,
2022-11-16 09:13:14.584844-07:00,33.607453,2.37,0.89,-2.19,0.15,11.47,975.66,32.92,20.0,0.0,0.000526716,0.000370089,0.000191125,32.8213728,-111.787021,326.29607500000003,-9.99502429,0.276263666,0.148670186,1.97715,19.0005,4099.55,25.2057,11799.0,0.0493649,-1.0,17.0,-1173.0,96.0,,0.0,2022-11-16 09:13:10.446,2022-11-16 16:13:14.584844+00:00,1.1941748913942198,0.014839956494875553,2.3639039953778282,-2.0019211453615657,1.2571212459892231,0.15019112499999998,327.87292852550695,0.2531117877109173,0.19710060467555945,2.3909793368050734,327.43016463390154,-2.0129798763074787,1.2892910186456574,0.13309320399999996,0.197437557839248,0.25339813933965444,0.5749083317274163,-0.8182178255882715,2.388280165985969,0.18176339061454028,,,,,,,,,,,-0.04452981573610067,0.18710637765895693,0.1923322673140087,-0.013459000000011656,-0.006339148920523036,0.019255999999984397,-22.509819034475452,-100.94364689012475,103.42297520591363,False,,
2022-11-16 09:13:15.608736-07:00,34.631345,2.55,1.0,-2.35,-0.01,11.18,975.67,33.53,22.0,0.0,0.00016267,-0.000257467,5.12852e-05,32.8213729,-111.787021,326.273096,-9.96912732,0.278312082,0.145698257,1.9745,18.875,4141.09,25.2071,11780.0,0.0797273,-1.0,11.0,-1192.0,96.0,,0.0,2022-11-16 09:13:11.470,2022-11-16 16:13:15.608736+00:00,1.1954051322101256,0.014859987347309995,2.554223082880139,-2.141657724054604,1.391889992102456,-0.0099487148,326.9796594406823,0.25541830266030485,0.2008076109491742,2.4983590488408383,327.9629862980408,-2.116696440068787,1.3265785253278897,0.01085061624,0.20016473856594166,0.2549084277741169,0.845401035985304,0.5341320888647064,-0.009104631398374252,0.16048225906328353,,,,,,,,,,,-0.033397361858794626,0.18710637677425765,0.1900636209502432,-0.03643800000003239,-0.002268646363765503,-0.022979000000020733,-22.498686580598147,-100.94364689100946,103.42055281958606,False,,
2022-11-16 09:13:17.656394-07:00,36.679003,2.48,0.94,-2.29,-0.0,11.16,975.66,33.57,19.0,0.0,5.12102e-05,-4.57445e-05,-0.000633698,32.8213729,-111.787021,326.27614700000004,-9.9164154,0.282248806,0.160598088,1.97281,18.0255,4215.45,25.2113,11793.0,0.121059,-1.0,14.0,-1164.0,96.0,,0.0,2022-11-16 09:13:13.518,2022-11-16 16:13:17.656394+00:00,1.1954769708720159,0.014861318646668118,2.47548516498867,-2.09395455762079,1.3203715812975165,-0.000633698,327.765960200894,0.25442744262999134,0.19972494965225376,2.425340528572389,326.20691799248243,-2.01423988999141,1.3473377585618063,0.0279635824,0.1977155567590713,0.25339102545727255,0.666186789423276,0.7457849298543835,-0.6046111394221019,0.16601865142270633,,,,,,,,,,,-0.033397361874769625,0.18710637686375645,0.19006362104115654,-0.03338700000000472,9.091333241784127e-11,0.0030510000000276705,-22.49868658061412,-100.94364689091996,103.42055281950219,False,,
2022-11-16 09:14:37.177992-07:00,116.200601,2.86,1.67,-2.32,-0.04,11.14,975.68,34.55,19.0,0.0,-0.000689984,-2.88428e-05,0.00219843,32.821375,-111.787022,326.286157,-8.83851931,0.2649542,0.15976807,1.97682,12.0945,4305.56,25.3704,11777.0,0.133128,-1.0,13.0,-1200.0,95.0,,0.0,,2022-11-16 16:14:37.177992+00:00,1.195585581251494,0.014862796540055661,2.858084816909041,-2.0358837613348815,2.00594768899364,-0.03780157,315.4243569427887,0.2530140686498912,0.20178134921264676,2.946048003646684,317.16708298556193,-2.1521373424061316,2.0023507858888725,-0.075833656,0.20479804634323714,0.25488622307128345,0.041765653645565795,-0.9991274344024182,2.2338889508002384,0.2544418580252041,,,,,,,,,,,0.20038417227123875,0.09355318636710788,0.2211470442404065,-0.02337700000003906,0.03108342319924995,0.010009999999965657,-22.26490504646811,-101.03720008141661,103.46130579603397,False,,
2022-11-16 09:14:37.978200-07:00,117.000809,2.72,1.55,-2.23,-0.03,10.88,975.68,35.09,22.0,0.0,-4.34061e-05,-0.000315798,0.00405845,32.8213749,-111.787022,326.29940200000004,-8.83154509,0.266236376,0.165672379,1.97433,12.0097,4322.09,25.3736,11791.0,0.13333,-1.0,16.0,-1171.0,95.0,,0.0,,2022-11-16 16:14:37.978200+00:00,1.1966800158222273,0.014880764426097056,2.7159673920429075,-1.9659055830752843,1.8739514703091373,-0.02594155,316.37181559505274,0.25158862708786883,0.20005520786310035,2.9228830928627807,315.81999823549825,-2.0947464480546016,2.033441541153569,-0.08807328,0.20340405396534425,0.254066200081523,0.9906856650479196,-0.13616869342312624,2.2997402724181195,0.1996881288823107,,,,,,,,,,,0.18925171821640016,0.09355318666668772,0.2111123198284549,-0.010131999999998698,-0.010034724411951579,0.013245000000040363,-22.27603750052295,-101.03720008111704,103.46370207447818,False,,
2022-11-16 09:14:38.177377-07:00,117.199986,2.91,1.72,-2.34,-0.15,11.06,975.67,34.69,26.0,0.0,-0.000197606,0.000522296,0.00365959,32.8213749,-111.787022,326.29821200000004,-8.82962894,0.265768052,0.173488137,1.97433,12.0097,4322.09,25.3736,11791.0,0.13333,-1.0,16.0,-1171.0,95.0,,0.0,,2022-11-16 16:14:38.177377+00:00,1.195909859756184,0.014868271658624335,2.903626535826565,-2.04773210061269,2.058601540773862,-0.14634041,314.8483387744892,0.2533191429452803,0.20212407752955022,2.8432241322682588,315.66884246084237,-2.033967090473927,1.9813975144770288,-0.10209459400000001,0.20190155658883352,0.25299000393934545,0.9352978229814664,0.35386152987592434,1.1334540753988671,0.17943835808261138,,,,,,,,,,,0.18925171818109215,0.09355318664923383,0.21111231978906847,-0.011322000000006938,-3.938643855505575e-11,-0.00119000000000824,-22.276037500558257,-101.03720008113449,103.46370207450282,False,,
2022-11-16 09:14:39.177453-07:00,118.200062,2.41,1.35,-2.0,-0.02,11.07,975.67,34.1,19.0,0.0,0.000131011,0.00059634,0.00529296,32.8213748,-111.787022,326.29821200000004,-8.82502196,0.26536168,0.160938638,1.97365,12.1539,4298.6,25.3767,11833.0,0.16252,-1.0,18.0,-1194.0,95.0,,0.0,,2022-11-16 16:14:39.177453+00:00,1.1958677828488673,0.014867580945300855,2.4126376046905804,-1.7686131266568728,1.6409837963197875,-0.014707040000000001,317.1437165633319,0.24818555488300964,0.19544094369439133,2.560464093348174,318.63649922393745,-1.919569370184579,1.6782088230078571,-0.06245412,0.19924217694668667,0.2505747033935371,0.9767075946296085,-0.2145746364155006,2.0510102024878782,0.1904184367242835,,,,,,,,,,,0.1781192644203741,0.09355318675454755,0.20119311894194195,-0.011322000000006938,-0.009919200847126525,0.0,-22.287169954318976,-101.03720008102917,103.46609949537394,False,,
2022-11-16 09:14:40.177777-07:00,119.200386,2.61,1.11,-2.36,-0.04,11.2,975.69,34.31,27.0,0.0,-0.000199932,0.000565192,0.0044433,32.8213748,-111.787022,326.29192500000005,-8.82265489,0.260653976,0.15580912,1.97316,12.3377,4270.27,25.3772,11841.0,0.166045,-1.0,17.0,-1201.0,95.0,,0.0,,2022-11-16 16:14:40.177777+00:00,1.1953455549381726,0.014858705045156208,2.6074265719270717,-2.161262852061159,1.4586350510980548,-0.035556700000000004,325.98460908286904,0.25363014523981187,0.20508244165046322,2.598061793799083,323.4326242737236,-2.0834021747403577,1.5477579187238204,-0.088062006,0.20307358890444646,0.2526236396023613,0.9427532252365048,0.3334911637602532,0.7643575539274177,0.182662178549278,,,,,,,,,,,0.17811926424480795,0.09355318666233534,0.2011931187436327,-0.017608999999993102,-1.9830925790387255e-10,-0.006286999999986165,-22.287169954494544,-101.03720008112138,103.46609949550181,False,,
2022-11-16 09:14:41.177531-07:00,120.20014,2.11,0.69,-1.99,0.04,11.19,975.7,34.38,19.0,0.0,-0.000494562,0.000223681,0.00799917,32.8213748,-111.787022,326.30318600000004,-8.82271176,0.262842802,0.168403772,1.97375,12.0398,4240.96,25.3792,11850.0,0.160525,-1.0,17.0,-1214.0,95.0,,0.0,,2022-11-16 16:14:41.177531+00:00,1.1953998459567825,0.014859443694098612,2.105799515802461,-1.86039945277467,0.9865624546219,0.04799917,332.06316997069877,0.24804082534138983,0.1975595532703734,2.3219964106030293,330.68007170426773,-2.0192632868925258,1.1126031005638413,-0.0011896180000000116,0.2018873926890822,0.2508678234579418,0.4120922751753849,0.9111421166540239,-1.3813406822224765,0.2110685237451506,,,,,,,,,,,0.1781192645592744,0.09355318682750184,0.2011931190988356,-0.006348000000002685,3.5520292263058195e-10,0.011260999999990418,-22.287169954180076,-101.03720008095621,103.46609949527279,False,,
2022-11-16 09:14:41.978120-07:00,121.000729,2.13,0.71,-2.0,0.22,11.44,975.7,33.86,19.0,0.0,-0.00029132,-0.000234974,0.00430192,32.8213748,-111.787022,326.304529,-8.81468987,0.259697873,0.158551024,1.97299,11.9751,4231.16,25.3812,11852.0,0.206359,-1.0,14.0,-1216.0,95.0,,0.0,,2022-11-16 16:14:41.978120+00:00,1.194349738920382,0.014842215696518748,2.122354930190694,-1.8678133930635252,1.0078013586006254,0.22430192,331.6503816499828,0.24816478124035807,0.19775054491525396,2.293932377077522,326.33259306283935,-1.9091493769251233,1.2631112543538436,0.16028203400000002,0.19914954094425036,0.24959391564084,0.6278148046489951,-0.7783627503057583,2.2790107051700694,0.17037544148002048,,,,,,,,,,,0.17811926459677802,0.09355318684719979,0.2011931191411975,-0.005005000000039672,4.23618917722024e-11,0.0013429999999630127,-22.287169954142573,-101.03720008093651,103.46609949524546,False,,
2022-11-16 09:14:42.177726-07:00,121.200335,2.32,0.96,-2.1,0.22,11.44,975.69,33.81,24.0,0.0,-0.000304311,-9.75929e-06,0.00449555,32.8213748,-111.787022,326.30465100000004,-8.81394725,0.26150212,0.154707281,1.97299,11.9751,4231.16,25.3812,11852.0,0.206359,-1.0,14.0,-1216.0,95.0,,0.0,,2022-11-16 16:14:42.177726+00:00,1.1943374979678463,0.014842167048271192,2.308866498846288,-1.9281137574857572,1.27013457857381,0.22449555,326.6253205221118,0.2495989037106111,0.19919991442159748,2.4533591737365397,327.7544014813562,-2.077678033315007,1.2993356591776257,0.11782251800000001,0.2036373999346953,0.2524268958450673,0.032053639827275215,-0.9994861500660344,2.1182588558288007,0.25216763020589034,,,,,,,,,,,0.1781192646001849,0.09355318684898918,0.2011931191450457,-0.004883000000006632,3.848199536804486e-12,0.00012200000003304012,-22.287169954139166,-101.03720008093472,103.46609949524299,False,,
2022-11-16 09:14:42.978014-07:00,122.000623,3.15,1.3,-2.86,-0.15,10.97,975.68,34.88,27.0,0.0,-0.000803585,6.65498e-05,0.00405276,32.8213748,-111.787022,326.30208700000003,-8.80255525,0.264957235,0.150467106,1.9765,12.0311,4228.39,25.3847,11852.0,0.131192,-1.0,14.0,-1216.0,95.0,,0.0,,2022-11-16 16:14:42.978014+00:00,1.1963009464099223,0.014874539841571,3.141095801256179,-2.627308223873416,1.7215499787796797,-0.14594724,326.76508318141464,0.26241626461487805,0.21831067112216884,3.102992043013557,327.2076657392571,-2.607614141801128,1.6804579792620733,-0.10876404399999999,0.21771472799546068,0.26192942992198154,0.08253358508032686,0.9965882837630535,-2.4600234806885135,0.26014944811604096,,,,,,,,,,,0.1781192645285845,0.09355318681138267,0.20119311906417012,-0.007447000000013304,-8.087558400760031e-11,-0.002564000000006672,-22.287169954210768,-101.03720008097234,103.46609949529514,False,,
2022-11-16 09:14:44.177767-07:00,123.200376,2.56,1.08,-2.32,-0.0,11.19,975.69,34.38,20.0,0.0,-0.000120083,0.000122646,0.0021859,32.8213748,-111.787022,326.301843,-8.79568558,0.26045556,0.156536978,1.97504,11.8891,4238.75,25.387,11826.0,0.0455774,-1.0,14.0,-1223.0,95.0,,0.0,,2022-11-16 16:14:44.177767+00:00,1.1953875942416452,0.014859394931134638,2.5588936328211362,-2.127449583622668,1.4219335052091182,0.0021859,326.24223397457195,0.25293931256725827,0.20427274799144954,2.679561628858211,324.37077964479477,-2.167990975291329,1.565749517940485,-0.01763674508,0.20542657322186475,0.2540097585904932,0.7145333608297703,0.699601369539335,-0.3979491901911252,0.16265451922655294,,,,,,,,,,,0.17811926452177074,0.09355318680780388,0.20119311905647366,-0.007691000000022541,-7.696454584760204e-12,-0.00024400000000923683,-22.28716995421758,-101.03720008097591,103.4660994953001,False,,
2022-11-16 09:14:44.978122-07:00,124.000731,2.38,0.97,-2.18,-0.04,11.19,975.68,34.39,23.0,0.0,-0.000752853,0.000598477,0.00204196,32.8213749,-111.787022,326.29238300000003,-8.78307947,0.255013509,0.171365259,1.97377,11.0067,4229.5,25.3878,11796.0,0.100194,-1.0,14.0,-1217.0,95.0,,0.0,,2022-11-16 16:14:44.978122+00:00,1.195375342526508,0.014859346168510418,2.3851529996848027,-2.005724624747531,1.2907453511776785,-0.03795804,327.2374755481182,0.2507339361645022,0.20122389786492195,2.4112703702121947,327.39522398279144,-2.0323147982599026,1.2932389233346555,0.0342331304,0.20199360135842276,0.25121198065828143,0.6222794151781478,0.782795202748166,-0.7861303136536516,0.17266734340136108,,,,,,,,,,,0.18925171800814225,0.09355318656373915,0.211112319596141,-0.017151000000012573,0.009919200539667328,-0.009459999999990032,-22.27603750073121,-101.03720008121998,103.46370207462355,False,,
2022-11-16 09:14:45.177301-07:00,124.19991,2.19,1.04,-1.92,0.21,11.32,975.69,34.04,26.0,0.0,-0.000621303,-0.000451903,0.00359502,32.8213749,-111.787022,326.296198,-8.78409307,0.257891204,0.160153364,1.97377,11.0067,4229.5,25.3878,11796.0,0.100194,-1.0,14.0,-1217.0,95.0,,0.0,,2022-11-16 16:14:45.177301+00:00,1.1948413138350946,0.014850431425450936,2.1835591380929884,-1.7391119417604604,1.3203863690509516,0.21359502,322.79313294067475,0.24699769305865887,0.19489413453431345,2.511521666213369,326.4981949220221,-2.0911683104043766,1.385091048905496,0.012927704000000002,0.20360724527965166,0.2524309907132012,0.5882110906727596,-0.8087074333833977,2.505869273637598,0.1794937933253882,,,,,,,,,,,0.18925171812133557,0.09355318661969424,0.21111231972240935,-0.013336000000037984,1.2626835688145377e-10,0.0038149999999745887,-22.276037500618013,-101.03720008116402,103.46370207454453,False,,
2022-11-16 09:14:46.177562-07:00,125.200171,3.2,1.42,-2.86,-0.15,10.93,975.68,34.98,19.0,0.0,-0.000436,0.000725941,0.0015735,32.8213748,-111.787022,326.297968,-8.77812196,0.260143203,0.152956345,1.97475,11.5492,4229.71,25.3903,11780.0,0.147652,-1.0,15.0,-1194.0,95.0,,0.0,,2022-11-16 16:14:46.177562+00:00,1.1964693920514897,0.014877305678306743,3.192273057205935,-2.6090700593987846,1.8393913930731949,-0.1484265,324.8162073689604,0.2623859753445534,0.217857553005445,3.276347294711889,322.9947412753919,-2.6087161641108816,1.9647301427280996,-0.12487431168,0.217962364853057,0.2627901518915522,0.8572660047701436,0.5148737680882919,0.3411368386193874,0.17467477679004942,,,,,,,,,,,0.17811926441356035,0.09355318675096878,0.20119311893424552,-0.011566000000016174,-0.009919200788163829,0.0017700000000218097,-22.28716995432579,-101.03720008103275,103.4660994953789,False,,
2022-11-16 09:14:47.177664-07:00,126.200273,3.29,1.28,-3.02,-0.14,10.97,975.67,34.94,27.0,0.0,-0.000258829,3.72144e-05,0.00423759,32.8213748,-111.787022,326.288904,-8.76576521,0.260785205,0.14200949,1.97424,11.9857,4238.14,25.3934,11803.0,0.138182,-1.0,17.0,-1178.0,95.0,,0.0,,2022-11-16 16:14:47.177664+00:00,1.1962886852080283,0.014874490978043293,3.2798931889370575,-2.789621998558338,1.7250241841768723,-0.13576241,328.2685131522048,0.2654842085303428,0.22339711853089794,3.4059220537863943,327.18654264150916,-2.8597221883670754,1.847538162274733,-0.1457696482,0.22561894227996068,0.26727858225465073,0.14231636674564926,0.9898212221185793,-2.5676787927302427,0.2619050041717863,,,,,,,,,,,0.1781192641604457,0.09355318661802593,0.201193118648342,-0.020630000000039672,-2.859035230784457e-10,-0.009064000000023498,-22.287169954578903,-101.0372000811657,103.46609949556324,False,,
2022-11-16 09:14:48.177848-07:00,127.200457,3.5,1.38,-3.21,-0.19,10.83,975.67,34.67,19.0,0.0,-0.00044549,0.000602842,-0.00128199,32.8213747,-111.787022,326.292993,-8.77000373,0.25936716,0.146074452,1.97398,11.3296,4240.51,25.3948,11829.0,0.136933,-1.0,14.0,-1190.0,95.0,,0.0,,2022-11-16 16:14:48.177848+00:00,1.1968784465149132,0.014884175860002211,3.493319052979335,-2.96146047357265,1.8528437250279077,-0.19128199,327.96776052190415,0.2693542411823832,0.2288660763404084,3.4388775455182397,326.5234191077774,-2.868253837181866,1.8954578381254379,-0.1625780184,0.2258923396193432,0.267597992883092,0.8042328080175515,0.5943143869268219,-0.18025514116074692,0.17401251840749915,,,,,,,,,,,0.16698680981487538,0.09355318678331356,0.19140740165798947,-0.016541000000017902,-0.009785716990352522,0.00408900000002177,-22.298302408924474,-101.0372000810004,103.46849805872296,False,,
2022-11-16 09:14:48.977966-07:00,128.000575,3.24,1.35,-2.94,-0.14,11.03,975.68,34.19,18.0,0.0,-4.51881e-05,0.000275923,0.000624479,32.8213747,-111.787022,326.29982900000005,-8.75950952,0.259648853,0.151849677,1.97329,11.3693,4217.01,25.3979,11841.0,0.126774,-1.0,15.0,-1215.0,95.0,,0.0,,2022-11-16 16:14:48.977966+00:00,1.196048366858988,0.01487039302097926,3.2348800563490228,-2.6998446242234864,1.7819337765518108,-0.139375521,326.5746518497252,0.2639035852414671,0.22064843722236704,3.241664068405143,326.0291536966821,-2.6869322044171544,1.8123508951954304,-0.127518846,0.22026420509371417,0.26376072957148144,0.9868534484891899,0.16161766984149298,1.3542690088961142,0.21462145178372022,,,,,,,,,,,0.16698680999384144,0.09355318688357803,0.19140740186312802,-0.009704999999996744,2.0513854503967366e-10,0.0068360000000211585,-22.29830240874551,-101.03720008090013,103.46849805858646,False,,
2022-11-16 09:14:49.177831-07:00,128.20044,3.24,1.35,-2.94,-0.13,11.1,975.68,34.58,25.0,0.0,0.000321548,2.24262e-05,0.000816532,32.8213747,-111.787022,326.305475,-8.75637103,0.262507187,0.143024203,1.97329,11.3693,4217.01,25.3979,11841.0,0.126774,-1.0,15.0,-1215.0,95.0,,0.0,,2022-11-16 16:14:49.177831+00:00,1.1957538254845637,0.014865557995372626,3.235293631350493,-2.7001957284058657,1.7821526055183312,-0.129183468,326.5748425851218,0.2638999448951952,0.2206608927849286,3.167735923070715,326.75869269235926,-2.6479149798927355,1.7374392510504726,-0.11522132599999999,0.21908759002538963,0.2627908375908525,0.06957547357479946,-0.997576690524013,2.7623814211296347,0.26152088418917274,,,,,,,,,,,0.1669868101416534,0.09355318696638863,0.19140740203255638,-0.004059000000040669,1.6942836023048358e-10,0.005645999999956075,-22.298302408597696,-101.03720008081733,103.46849805847376,False,,
2022-11-16 09:14:49.977880-07:00,129.000489,3.1,1.18,-2.87,-0.11,10.97,975.69,34.94,26.0,0.0,0.000106437,-0.000109653,0.00278398,32.8213747,-111.787022,326.297327,-8.75018821,0.269633767,0.148849186,1.97535,11.2459,4199.91,25.4001,11837.0,0.0700409,-1.0,13.0,-1213.0,95.0,,0.0,,2022-11-16 16:14:49.977880+00:00,1.1963132076118168,0.014874588705439009,3.1032602126843294,-2.6571963271122696,1.6029758659476607,-0.10721602,328.89916902931543,0.2625421767703844,0.2193667964311666,3.06246955093744,328.4973227148027,-2.6110042187289713,1.6000646188469456,-0.111827186,0.21797937923323313,0.2616751292742045,0.7175509682712705,0.6965059999260322,-0.6704521876266836,0.16944333898375188,,,,,,,,,,,0.16698680992833922,0.09355318684688088,0.19140740178804658,-0.012207000000046264,-2.4450980129486766e-10,-0.008148000000005595,-22.29830240881101,-101.03720008093684,103.46849805863643,False,,
2022-11-16 09:14:50.177700-07:00,129.200309,3.12,1.21,-2.87,-0.13,10.94,975.69,35.02,21.0,0.0,0.000310826,-0.00068305,0.00256315,32.8213747,-111.787022,326.297235,-8.75154591,0.26525158,0.138204076,1.97535,11.2459,4199.91,25.4001,11837.0,0.0700409,-1.0,13.0,-1213.0,95.0,,0.0,,2022-11-16 16:14:50.177700+00:00,1.1964395386908,0.014876663000053103,3.1153874591099386,-2.6531672396349166,1.6328939398832722,-0.12743685,328.3897467204452,0.2625438473657345,0.2192233800996015,3.05266247536317,328.0846508974958,-2.5910573102246266,1.6129713174893876,-0.111411014,0.21739557922599242,0.261339987211493,0.9101913404245996,0.4141880295422245,0.3949276037791838,0.18559739946257234,,,,,,,,,,,0.16698680992593068,0.09355318684553152,0.1914074017852858,-0.01229900000004136,-2.760763839759761e-12,-9.1999999995096e-05,-22.29830240881342,-101.03720008093819,103.46849805863827,False,,
2022-11-16 09:14:51.177594-07:00,130.200203,3.03,1.51,-2.63,-0.05,11.08,975.67,34.67,22.0,0.0,-2.38741e-05,-3.43077e-05,0.00121284,32.8213746,-111.787022,326.30370500000004,-8.73805084,0.260704363,0.141903928,1.97345,12.6004,4186.74,25.4017,11811.0,0.0245361,-1.0,11.0,-1207.0,95.0,,0.0,,2022-11-16 16:14:51.177594+00:00,1.1958257089023154,0.014866890296378773,3.032667519743461,-2.3701134027229798,1.891992268361542,-0.04878716,321.4006556289779,0.2580921703446296,0.21102338339067217,3.041574107908886,322.30869917482016,-2.4037481049997353,1.8586581410851017,-0.078796774,0.21199530257455076,0.25860133497994003,0.8208168792107339,-0.5711914309605419,2.8986182946485872,0.16588804930943726,,,,,,,,,,,0.15585435632500977,0.09355318704574156,0.18177672896137892,-0.005829000000005635,-0.009630672823906894,0.006470000000035725,-22.309434862414342,-101.03720008073797,103.47089776374507,False,,
2022-11-16 09:14:52.177417-07:00,131.200026,3.11,1.65,-2.63,-0.02,11.09,975.69,34.67,25.0,0.0,-0.000242341,-9.17951e-05,-0.000266925,32.8213746,-111.787022,326.298486,-8.72956412,0.263621955,0.148351541,1.97575,11.1863,4181.43,25.4041,11796.0,-0.0718271,-1.0,11.0,-1200.0,95.0,,0.0,,2022-11-16 16:14:52.177417+00:00,1.1958081499671736,0.014866297328729237,3.1046493224772775,-2.349203192238745,2.02980092056682,-0.020266925,319.1717365712693,0.25807973883711266,0.2104632870717726,3.067511664590858,319.6384731529551,-2.337767084828614,1.9856166832718727,-0.044480378200000004,0.21018951843172906,0.2577888494977904,0.35422458785498234,-0.9351603826932404,2.8895414129659436,0.22698019759199742,,,,,,,,,,,0.15585435619748553,0.09355318696919382,0.1817767288126443,-0.0110480000000166,-1.487346079631635e-10,-0.005219000000010965,-22.309434862541863,-101.03720008081453,103.47089776384733,False,,
2022-11-16 09:14:52.978031-07:00,132.00064,2.89,1.71,-2.33,-0.12,11.16,975.68,34.41,21.0,0.0,0.000398915,-2.76261e-05,-0.000139835,32.8213746,-111.787022,326.27657500000004,-8.72538586,0.267286658,0.153977982,1.97495,11.1938,4183.72,25.4057,11796.0,-0.130174,-1.0,11.0,-1200.0,95.0,,0.0,,2022-11-16 16:14:52.978031+00:00,1.195501476887859,0.014861416198476548,2.8904573296451637,-2.043657098872335,2.044066837637205,-0.120139835,314.99425687687915,0.2529774082549962,0.20235019937149704,2.9494544237706175,316.61736104899046,-2.142663635765783,2.020580605278802,-0.0684894346,0.20500753881827255,0.25458514850477143,0.06908762535663031,0.9976105953840816,-1.9979468295237481,0.25337187766883756,,,,,,,,,,,0.1558543556620988,0.09355318664782239,0.18177672818820972,-0.03295900000000529,-6.244345873707147e-10,-0.02191099999998869,-22.30943486307725,-101.0372000811359,103.47089776427657,False,,
2022-11-16 09:14:54.977875-07:00,134.000484,2.78,1.38,-2.41,-0.1,11.24,975.69,34.26,24.0,0.0,-0.000354598,-0.000330734,0.00120242,32.8213746,-111.787022,326.287347,-8.70785533,0.262605871,0.15093807,1.97514,11.7718,4217.78,25.4098,11775.0,-0.295145,-1.0,13.0,-1169.0,95.0,,0.0,,2022-11-16 16:14:54.977875+00:00,1.1951774272888265,0.014855946144043926,2.7771769171092253,-2.1736240471632464,1.7286035203359882,-0.09879758000000001,321.5060566039172,0.25425656579924716,0.20575692481538146,2.81935098652233,322.7172825806037,-2.2450867521672726,1.6850848547364579,-0.06083629394000001,0.20811080123630926,0.2555997528768439,0.6820711768378303,-0.7312857920998173,2.79114785383315,0.16750407524622699,,,,,,,,,,,0.1558543559253084,0.09355318680581669,0.18177672849519752,-0.02218700000003082,3.0698779629467765e-10,0.010771999999974469,-22.309434862814044,-101.0372000809779,103.47089776406554,False,,
2022-11-16 09:14:55.177391-07:00,134.2,3.04,1.24,-2.77,-0.06,11.35,975.7,34.02,19.0,0.0,-2.93085e-06,-0.000371667,-9.10932e-05,32.8213746,-111.787022,326.282983,-8.70725396,0.258958367,0.14380294,1.97514,11.7718,4217.78,25.4098,11775.0,-0.295145,-1.0,13.0,-1169.0,95.0,,0.0,,2022-11-16 16:14:55.177391+00:00,1.1947275648483358,0.014848413154762022,3.035191305666059,-2.5507280647186845,1.6450448631716124,-0.0600910932,327.18075590243956,0.26060053016811585,0.21630880268023445,2.915147716450824,325.5874892844601,-2.404664481533983,1.634480125464259,-0.05519630714,0.21232602375228407,0.2580783410817717,0.9999689094124207,-0.0078854428242167,1.6533911527973326,0.21231282188230868,,,,,,,,,,,0.1558543558186758,0.09355318674180935,0.18177672837082928,-0.026551000000040403,-1.2436823793038343e-10,-0.0043640000000095824,-22.309434862920675,-101.0372000810419,103.47089776415103,False,,
2022-11-16 09:14:56.977868-07:00,136.000477,2.64,1.59,-2.11,-0.08,11.25,975.68,34.25,26.0,0.0,-0.000303903,-0.000902943,-0.00213641,32.8213746,-111.787023,326.287286,-8.69528919,0.263880466,0.151332609,1.97396,10.8465,4249.59,25.414,11812.0,-0.327011,-1.0,16.0,-1174.0,95.0,,0.0,,2022-11-16 16:14:56.977868+00:00,1.1951231536356794,0.014855207844362499,2.6424201508126504,-1.846275799089949,1.8904099891598962,-0.08213641,314.32330803527896,0.2495174397467087,0.19763134230769946,2.6358754946760614,313.4159562687796,-1.8120073153981704,1.91390021709324,-0.10374963379999999,0.1968705110376841,0.2490959726566213,0.9477591735860069,-0.31898675346096933,2.3919228188647574,0.17864562498921036,,,,,,,,,,,0.1558543559238179,0.0,0.1558543559238179,-0.02224800000004734,-0.02592237244701137,0.004302999999993062,-22.309434862815532,-101.13075326778372,103.56225248809315,False,,
2022-11-16 09:14:57.977859-07:00,137.000468,2.42,1.33,-2.02,0.12,11.42,975.7,33.91,18.0,0.0,0.000120275,-8.78755e-05,-0.000425768,32.8213746,-111.787023,326.276971,-8.69541388,0.263780074,0.160492567,1.97277,11.0329,4264.52,25.4158,11832.0,-0.280931,-1.0,14.0,-1183.0,95.0,,0.0,,2022-11-16 16:14:57.977859+00:00,1.1944336795844661,0.014843592460676397,2.418678427395591,-1.7957983191692461,1.6202202726844637,0.119574232,317.94232482985785,0.24820871126867292,0.1964838895923774,2.2967867932913046,317.369300842268,-1.6797579698165364,1.5598171366137146,0.09922136606000001,0.19392566182002785,0.2465088309945806,0.5899388231170757,0.807447945677763,-0.4361204361124704,0.17431301781259895,,,,,,,,,,,0.1558543556717749,0.0,0.1558543556717749,-0.032563000000038755,-2.5204299758385673e-10,-0.010314999999991414,-22.309434863067576,-101.13075326778372,103.56225248814745,False,,
2022-11-16 09:14:58.977723-07:00,138.000332,2.32,1.65,-1.62,0.2,11.65,975.69,32.83,25.0,0.0,0.000233842,0.000489665,-0.00287808,32.8213746,-111.787023,326.286584,-8.68857933,0.267183096,0.160579785,1.97384,10.3091,4291.67,25.4183,11844.0,-0.0473493,-1.0,13.0,-1198.0,95.0,,0.0,,2022-11-16 16:14:58.977723+00:00,1.1934568418071259,0.014827726582803563,2.312239902306269,-1.3516640026952784,1.8760217988166032,0.19712192,305.7725548564105,0.24299774399723997,0.18741500655039106,2.2706200823026874,312.2776151129375,-1.505326242713648,1.6828601580546636,0.15316847819999999,0.1903905109917293,0.24452273422271645,0.9023819765166087,-0.4309370817857042,2.167283573796878,0.16154712822774553,,,,,,,,,,,0.1558543559066648,0.0,0.1558543559066648,-0.022950000000037107,2.3488988531994437e-10,0.009613000000001648,-22.309434862832685,-101.13075326778372,103.56225248809685,False,,
2022-11-16 09:14:59.977917-07:00,139.000526,2.58,1.68,-1.95,-0.1,11.61,975.69,32.9,19.0,0.0,-0.000512225,-0.00110722,0.00316521,32.8213744,-111.787023,326.30523100000005,-8.68312252,0.268809794,0.163214555,1.97349,10.1951,4319.16,25.4204,11852.0,-0.116781,-1.0,14.0,-1209.0,95.0,,0.0,,2022-11-16 16:14:59.977917+00:00,1.193624485695566,0.014830474972684766,2.574219409603182,-1.6751281133853515,1.954623076842128,-0.09683479,310.596848549376,0.24720028459923307,0.19382136705051123,2.54867731393412,312.2601303571593,-1.714518010611733,1.8802187835396413,-0.0498724768,0.1948592918578338,0.24768707435045792,0.9075846406619358,-0.41986917014058667,2.426330943331285,0.16634085065996437,,,,,,,,,,,0.13358944881635995,0.0,0.13358944881635995,-0.004302999999993062,-0.022264907090304847,0.018647000000044045,-22.33169976992299,-101.13075326778372,103.56705108828447,False,,
2022-11-16 09:15:00.978192-07:00,140.000801,2.53,1.62,-1.93,0.13,11.62,975.71,33.46,23.0,0.0,-0.000481345,-0.000112829,-0.00274645,32.8213745,-111.787023,326.286981,-8.68109795,0.272507534,0.163417874,1.97594,10.203,4363.25,25.422,11849.0,-0.182477,-1.0,11.0,-1212.0,95.0,,0.0,,2022-11-16 16:15:00.978192+00:00,1.1936070367385387,0.014829884911418664,2.5194946858091147,-1.663488014459122,1.8922634852396263,0.12725355,311.3186891133686,0.2469206667220044,0.1935990650055247,2.4675588899617735,310.79119830191195,-1.6110157870996182,1.866425691337578,0.147126106,0.19253491935468547,0.24617981499639932,0.22821771640283198,-0.9736101241872316,1.994452689658289,0.23357331064501372,,,,,,,,,,,0.1447219014671015,0.0,0.1447219014671015,-0.022553000000016254,0.011132452650741559,-0.018250000000023192,-22.32056731727225,-101.13075326778372,103.56465121784667,False,,
2022-11-16 09:15:01.978024-07:00,141.000633,3.01,1.89,-2.34,-0.15,11.39,975.69,33.4,21.0,0.0,0.00075826,0.000391019,-0.00253635,32.8213743,-111.787023,326.29314600000004,-8.67079409,0.272386789,0.161969307,1.97912,10.3911,4385.06,25.4242,11823.0,-0.33011,-1.0,11.0,-1217.0,95.0,,0.0,,2022-11-16 16:15:01.978024+00:00,1.194547369602409,0.014845609416504764,3.00823585335112,-2.0279342070199173,2.221928396997896,-0.15253635,312.3864242212948,0.2530443876760481,0.20214486310171972,2.738741318300184,308.953452200992,-1.7214749603576678,2.122289189341493,0.0028649354000000017,0.19516400404296133,0.24835613070962542,0.45832727046949256,-0.888783501840569,2.5027215548953414,0.20042327156665105,,,,,,,,,,,0.12245699410322854,0.0,0.12245699410322854,-0.016388000000006286,-0.022264907363872974,0.006165000000009968,-22.342832224636123,-101.13075326778372,103.5694521001612,False,,
