Timestamp,Seconds,S,Um,Vm,Wm,T,P,H,MD,Sts,Vx,Vy,Vz,Lat,Lon,Alt,Yaw,Roll,Pitch,CH4,C2H6,H2O,T_a,Batt,R,C2C1,Power,Current,SOC,Lat_a,Lon_a,TS,Timestamp_UTC,Rho,Rho_err,Sc,V,U,W,WD,V_err,U_err,Sc_avg,WD_avg,V_avg,U_avg,W_avg,U_err_avg,V_err_avg,Nx,Ny,cross_wind,cross_wind_err,CH4_sub,CH4_res,CH4_adj,CH4_adj_err,BG_Samples_CH4,C2H6_sub,C2H6_res,C2H6_adj,C2H6_adj_err,BG_Samples_C2H6
2023-04-19 07:42:19.184490-07:00,0.0,4.46,-4.41,-0.23,0.63,18.8,887.32,48.36,84.0,0.0,-0.00226603,0.000716003,0.00100999,32.6911164,-103.075249,1154.6124499999999,101.874733,-0.126345473,0.23765594,,,,,,,,,,,,,,2023-04-19 14:42:19.184490+00:00,1.0587822222789205,0.013963874019846705,4.416351530145679,4.3636689382737215,0.6801133986072964,0.63100999,188.8587419492195,0.24225712423344822,0.2719905686326911,,,,,,,,0.3012899968701002,0.9535325572763705,,,,,,,,,,,,
2023-04-19 07:42:19.394306-07:00,0.209816,5.04,-5.0,-0.21,0.6,18.59,887.32,48.92,91.0,0.0,0.000871841,0.00055378,0.000729047,32.6911164,-103.075249,1154.60476,101.877559,-0.128981512,0.245461421,,,,,,,,,,,,,,2023-04-19 14:42:19.394306+00:00,1.0595443538573075,0.013976640047296731,5.00509782820305,4.936724542212902,0.8244725976014613,0.600729047,189.48135073552538,0.24223743752003712,0.2954679619036594,,,,,,,,0.5361669431248568,-0.8441119647891189,,,,,,,,,,,,
2023-04-19 07:42:19.604317-07:00,0.419827,4.6,-4.56,0.08,0.63,18.82,887.32,48.28,87.0,0.0,-0.00105289,0.0021911,0.00213131,32.6911164,-103.075249,1154.60269,101.870308,-0.125900201,0.234627179,2.48027,94.3067,13392.0,26.5951,11642.0,0.946195,0.162529,14.0,-1180.0,74.0,,0.0,,2023-04-19 14:42:19.604317+00:00,1.058709695497246,0.01396265944322342,4.562603343904456,4.448222987777571,1.015215014080911,0.63213131,192.85637332673102,0.24210210527635342,0.275343654258136,4.389302888945574,189.58574296523145,4.323790019716562,0.7382937752004904,0.48270142940000005,0.27061096735591067,0.24225372002961265,0.9013364965348571,0.4331195216268477,2.5381689897072794,0.2244942647768411,,,,,,,,,,
2023-04-19 07:42:19.814369-07:00,0.629879,4.18,-4.17,-0.1,0.3,19.12,887.32,47.39,79.0,0.0,-0.00157924,0.00146309,0.00496664,32.6911164,-103.075249,1154.6028099999999,101.875997,-0.132685237,0.248866089,,,,,,,,,,,,,,2023-04-19 14:42:19.814369+00:00,1.0576229848918153,0.013944466519223974,4.172349990144938,4.102784850857359,0.7587232089753339,0.30496664,190.47727538693135,0.24212821459479045,0.26161222964292086,,,,,,,,0.679615766579023,0.7335682720900673,,,,,,,,,,,,
2023-04-19 07:42:20.024190-07:00,0.8397,3.8,-3.77,-0.37,0.24,18.9,887.32,48.04,80.0,0.0,-0.00143739,0.00216865,0.00467016,32.6911164,-103.075249,1154.5921899999998,101.885401,-0.130969747,0.241225492,,,,,,,,,,,,,,2023-04-19 14:42:20.024190+00:00,1.0584196877052934,0.013957803282558237,3.790111752329742,3.7675487794612583,0.4129446567374496,0.24467016,186.2549734277501,0.24254371852343407,0.24864042234214623,,,,,,,,0.8335332875566552,0.5524692376368067,,,,,,,,,,,,
2023-04-19 07:42:20.234428-07:00,1.049938,4.0,-3.95,-0.06,0.6,18.6,887.33,48.96,88.0,0.0,-0.00299178,0.00251771,0.00499513,32.6911164,-103.075249,1154.59438,101.888723,-0.129052464,0.245202192,,,,,,,,,,,,,,2023-04-19 14:42:20.234428+00:00,1.0595199775390334,0.013976074142253006,3.952356639818434,3.8801491335278,0.7520410293995446,0.6049951299999999,190.9689273730741,0.24214205601658614,0.25290840176632245,,,,,,,,0.6438837781945035,0.7651233104395471,,,,,,,,,,,,
2023-04-19 07:42:20.444687-07:00,1.260197,2.48,-2.35,-0.66,0.42,19.3,887.33,46.85,91.0,0.0,-0.000545235,0.00165492,0.00694557,32.6911164,-103.075249,1154.5846199999999,101.893516,-0.131430859,0.245905868,,,,,,,,,,,,,,2023-04-19 14:42:20.444687+00:00,1.0569839406634058,0.013933616128722445,2.4426093661070136,2.4372275351258468,-0.16205695732703398,0.42694557,176.19586937499434,0.243481606433781,0.20296922657955793,,,,,,,,0.9497803035773287,0.3129175209804612,,,,,,,,,,,,
2023-04-19 07:42:20.654287-07:00,1.469797,2.8,-2.74,0.2,0.57,18.46,887.35,49.44,83.0,0.0,-0.00297847,0.00277367,0.0061571,32.6911164,-103.075249,1154.5709499999998,101.899165,-0.133298844,0.245787512,2.47935,94.7724,13368.8,26.5973,11689.0,0.957604,0.166339,12.0,-1229.0,74.0,,0.0,,2023-04-19 14:42:20.654287+00:00,1.0600525385013457,0.013984682501009201,2.7491325324246167,2.6426585378985274,0.7576843227277458,0.5761571,195.99828069547982,0.2422816403513293,0.20924085446031546,3.0466428872717026,192.4939208158723,2.9375708613625773,0.6755749634677961,0.498264818,0.21962781179956553,0.2426835966620481,0.68149903613003,0.7318190102435438,2.6101738867195188,0.16521928059777286,,,,,,,,,,
2023-04-19 07:42:20.863505-07:00,1.679015,2.96,-2.87,0.58,0.39,18.11,887.33,50.48,78.0,0.0,-0.00153345,0.00269649,0.00511729,32.6911164,-103.075249,1154.56326,101.897633,-0.13600663,0.25296088,,,,,,,,,,,,,,2023-04-19 14:42:20.863505+00:00,1.0613024563860916,0.014005951505297742,2.929889906427552,2.6914667420566536,1.1576966961121513,0.39511729,203.2742799960244,0.24318813680458287,0.21079593395704105,,,,,,,,0.8692690956825784,0.4943391945731113,,,,,,,,,,,,
2023-04-19 07:42:21.063001-07:00,1.878511,3.19,-3.15,0.23,0.48,18.46,887.34,49.32,83.0,0.0,-0.00211097,0.00148191,0.008109,32.6911164,-103.075249,1154.57083,101.900386,-0.134584362,0.246847589,,,,,,,,,,,,,,2023-04-19 14:42:21.063001+00:00,1.0600405922283023,0.013984639905815648,3.1592259915808985,3.036352358204057,0.8725097264265733,0.48810899999999996,196.03224663978887,0.24232454370396136,0.22222464223459093,,,,,,,,0.5745627887502543,0.8184605071617876,,,,,,,,,,,,
2023-04-19 07:42:21.263239-07:00,2.078749,3.37,-3.2,0.8,0.68,18.22,887.33,50.14,91.0,0.0,-6.64923e-05,-0.00013249,0.00758572,32.6911164,-103.075249,1154.5654499999998,101.901658,-0.13619748,0.25404617,,,,,,,,,,,,,,2023-04-19 14:42:21.263239+00:00,1.0609017862065862,0.01399923305228988,3.2983362728768797,2.966091165690757,1.4426799249267288,0.6875857200000001,205.93786944004034,0.24412736996184967,0.21989151183239972,,,,,,,,0.8937588949018961,-0.44854769844882886,,,,,,,,,,,,
2023-04-19 07:42:21.462916-07:00,2.278426,3.13,-2.99,0.74,0.53,18.22,887.32,50.23,87.0,0.0,0.00039313,0.000874465,0.00551095,32.6911164,-103.075249,1154.56155,101.903564,-0.135861679,0.249144929,,,,,,,,,,,,,,2023-04-19 14:42:21.462916+00:00,1.060889830093458,0.013999190361961926,3.0811694294247665,2.773941834903687,1.3412127904970592,0.53551095,205.80396636310792,0.24384986260193592,0.2134909641363486,,,,,,,,0.9120694720176891,-0.4100357035836927,,,,,,,,,,,,
2023-04-19 07:42:21.663021-07:00,2.478531,3.65,-3.53,0.53,0.77,18.19,887.34,50.23,79.0,0.0,-0.00136573,0.00135179,0.00463794,32.6911164,-103.075249,1154.57217,101.908187,-0.131934198,0.247379068,2.48306,93.8564,13391.6,26.5991,11658.0,0.954747,0.157606,14.0,-1213.0,74.0,,0.0,,2023-04-19 14:42:21.663021+00:00,1.0610229872303671,0.014001107410953628,3.570355749403274,3.346022140980286,1.2456227395831838,0.77463794,200.4187752795471,0.243045154229072,0.2330553133964403,3.5368089306582666,205.3777429371618,3.191115124323938,1.5124881020948933,0.5527776839999999,0.22786747181836287,0.24437526863163006,0.7034702964007478,0.7107246598239321,3.3319946646774348,0.16719342102155235,,,,,,,,,,
2023-04-19 07:42:21.863411-07:00,2.678921,3.67,-3.48,1.15,0.27,18.54,887.32,49.12,80.0,0.0,9.2251e-05,0.000496838,0.0035657,32.6911164,-103.075249,1154.5705799999998,101.912983,-0.126525235,0.242414516,,,,,,,,,,,,,,2023-04-19 14:42:21.863411+00:00,1.0597259755025226,0.013979683073567556,3.665567899875622,3.1681556231325834,1.8436859754882249,0.2735657,210.1969654176523,0.2462296770394706,0.22677468806838494,,,,,,,,0.9831954548665696,-0.1825560120338944,,,,,,,,,,,,
2023-04-19 07:42:22.063372-07:00,2.878882,4.1,-3.97,0.89,0.49,18.29,887.32,49.91,88.0,0.0,-0.0012273,0.000645546,0.00258811,32.6911163,-103.075249,1154.57583,101.914905,-0.124265872,0.237679259,,,,,,,,,,,,,,2023-04-19 14:42:22.063372+00:00,1.0606350185092328,0.013994918418518206,4.068615301710792,3.701364856912378,1.6892390799792696,0.49258810999999997,204.53113818546126,0.2446242793258222,0.24612488165824073,,,,,,,,0.46551976511141063,0.8850374841161346,,,,,,,,,,,,
2023-04-19 07:42:22.263210-07:00,3.07872,4.47,-4.24,1.05,0.98,18.06,887.32,50.63,91.0,0.0,0.000151608,-0.00015271,0.00275285,32.6911163,-103.075249,1154.58169,101.924125,-0.121635607,0.236870221,,,,,,,,,,,,,,2023-04-19 14:42:22.263210+00:00,1.0614727165768032,0.014008964759026101,4.368005999138258,3.931409895582795,1.9035473835503773,0.98275285,205.8357782125384,0.24559006773806905,0.2548927909805958,,,,,,,,0.7096627118122141,0.704541578236043,,,,,,,,,,,,
2023-04-19 07:42:22.463365-07:00,3.278875,4.1,-3.98,0.37,0.9,17.49,887.3,52.48,83.0,0.0,-0.000382251,0.000282473,0.00299743,32.6911162,-103.075249,1154.5929199999998,101.934731,-0.123910334,0.234844839,,,,,,,,,,,,,,2023-04-19 14:42:22.463365+00:00,1.0635304930118583,0.014043813036690266,3.9973179637570477,3.8177350412142994,1.1846729753224063,0.90299743,197.2395244230053,0.24267246810614218,0.25049189724473814,,,,,,,,0.5943089473666611,0.8042368277316896,,,,,,,,,,,,
2023-04-19 07:42:22.663815-07:00,3.479325,4.06,-4.04,0.04,0.41,18.03,887.29,50.78,78.0,0.0,-0.000967973,0.000304015,0.00364594,32.6911162,-103.075249,1154.59951,101.936909,-0.124018288,0.242432632,,,,,,,,,,,,,,2023-04-19 14:42:22.663815+00:00,1.0615461873627459,0.014010670705065554,4.040285368663416,3.9446694686091783,0.873778372162107,0.41364594,192.48984062929992,0.24226293919677747,0.25535484423786065,,,,,,,,0.2996426262434905,0.9540515167106564,,,,,,,,,,,,
2023-04-19 07:42:22.862975-07:00,3.678485,2.38,-2.36,-0.1,-0.31,18.72,887.3,48.59,83.0,0.0,0.000127323,0.000321984,0.00269965,32.6911162,-103.075249,1154.6042699999998,101.937637,-0.124552535,0.243787529,,,,,,,,,,,,,,2023-04-19 14:42:22.862975+00:00,1.0590485575392006,0.01396864949291515,2.362456291863179,2.3299677119781625,0.3904487061102481,-0.30730035,189.51305626745858,0.24229065485848547,0.19969537535430507,,,,,,,,0.9299340558159908,-0.3677263273599292,,,,,,,,,,,,
2023-04-19 07:42:23.063351-07:00,3.878861,2.79,-2.76,0.4,0.0,18.32,887.31,49.88,91.0,0.0,5.09747e-05,5.58828e-06,0.00188875,32.6911162,-103.075249,1154.60635,101.941404,-0.12626109,0.24309698,,,,,,,,,,,,,,2023-04-19 14:42:23.063351+00:00,1.0605138990004073,0.01399304574622481,2.788857718744046,2.6175139178328704,0.9624698776322628,0.00188875,200.18866810993939,0.2427606696184239,0.20840749753431206,,,,,,,,0.1089756011875597,-0.9940444247345337,,,,,,,,,,,,
2023-04-19 07:42:23.263029-07:00,4.078539,4.48,-4.44,0.17,0.59,18.08,887.31,50.64,88.0,0.0,-0.00110727,-0.000127478,0.000754464,32.6911163,-103.075249,1154.60684,101.943495,-0.128336629,0.244145504,,,,,,,,,,,,,,2023-04-19 14:42:23.263029+00:00,1.0613878588800902,0.014007699455250076,4.4428593915376435,4.30857516411354,1.0840570225584167,0.590754464,194.12273565145733,0.24236409116266627,0.2696570729283646,,,,,,,,0.11437271662178101,-0.993437910335897,,,,,,,,,,,,
2023-04-19 07:42:23.462914-07:00,4.278424,3.77,-3.76,0.26,0.24,18.21,887.32,50.23,80.0,0.0,-0.000415252,0.000619231,-0.000389983,32.6911163,-103.075249,1154.6062299999999,101.945117,-0.12891196,0.246342791,,,,,,,,,,,,,,2023-04-19 14:42:23.462914+00:00,1.0609262417433103,0.013999800855866376,3.7694604547836446,3.625387944093106,1.0321794296545934,0.23961001699999998,195.89211344837022,0.2424870868787175,0.2432034964064391,,,,,,,,0.8305421452338946,0.5569557836940742,,,,,,,,,,,,
2023-04-19 07:42:23.663634-07:00,4.479144,3.36,-3.34,0.12,0.28,18.22,887.33,50.19,79.0,0.0,-0.000229347,0.000372003,-0.000108996,32.6911163,-103.075249,1154.60305,101.946298,-0.125612843,0.242648959,,,,,,,,,,,,,,2023-04-19 14:42:23.663634+00:00,1.0609017862065862,0.01399923305228988,3.3424604553732804,3.243195046208586,0.8085343455798557,0.27989100400000005,193.99858625915832,0.24232696247723562,0.2293225144564733,,,,,,,,0.8512269386073387,0.5247977696114743,,,,,,,,,,,,
2023-04-19 07:42:23.863450-07:00,4.67896,4.19,-4.14,0.58,0.27,18.41,887.31,49.6,87.0,0.0,-0.000457779,0.00065131,-0.000106737,32.6911163,-103.075249,1154.60439,101.95045,-0.129845906,0.245132662,,,,,,,,,,,,,,2023-04-19 14:42:23.863450+00:00,1.0601865349898774,0.013987558631135068,4.180886961004873,3.930827145779118,1.4242239046956626,0.269893263,199.91654992376772,0.24332386187918237,0.25477336465662614,,,,,,,,0.8181315958227733,0.5750310356115418,,,,,,,,,,,,
2023-04-19 07:42:24.063348-07:00,4.878858,4.05,-3.89,1.08,0.32,18.26,887.32,50.12,91.0,0.0,-0.000428893,0.000304589,-0.000193049,32.6911163,-103.07525,1154.60305,101.955662,-0.128838051,0.245886604,,,,,,,,,,,,,,2023-04-19 14:42:24.063348+00:00,1.0607442084840288,0.013996748927088848,4.0372124964897935,3.5821964129032597,1.8619757251898776,0.319806951,207.46478152939045,0.24585965747204006,0.24158224619164217,,,,,,,,0.5790166670110105,0.8153157053089684,,,,,,,,,,,,
2023-04-19 07:42:24.263054-07:00,5.078564,4.13,-3.99,0.76,0.73,18.4,887.32,49.67,84.0,0.0,9.22666e-05,-2.15369e-05,-0.000897665,32.6911163,-103.07525,1154.59854,101.958255,-0.12872342,0.245252191,,,,,,,,,,,,,,2023-04-19 14:42:24.263054+00:00,1.0602348475195709,0.013988210712782292,4.061751890109699,3.7459195501348823,1.5703232599458607,0.729102335,202.74387065166465,0.24407948661802675,0.24771755274578425,,,,,,,,0.22730995760188122,0.9738224597815718,,,,,,,,,,,,
2023-04-19 07:42:24.463590-07:00,5.2791,3.94,-3.88,0.61,0.3,18.52,887.32,49.26,79.0,0.0,0.00120159,0.000655431,-0.00193679,32.6911163,-103.07525,1154.5928,101.96538,-0.12381018,0.234445083,2.48578,95.5121,13344.7,26.6067,11619.0,0.970121,0.156821,14.0,-1191.0,74.0,,0.0,,2023-04-19 14:42:24.463590+00:00,1.0597986415960876,0.013980900661018812,3.9286993967068162,3.669889281611466,1.4023521706040114,0.29806320999999997,200.91304839954608,0.24347115806405564,0.24481196522297868,4.0158959051134975,206.81109248036313,3.5728808240559693,1.7996486532491656,0.5149000991999999,0.2413678499507681,0.24579874748326,0.4788624196405826,-0.8778899606761468,-2.2748120975332426,0.19735486189167162,,,,,,,,,,
2023-04-19 07:42:24.663716-07:00,5.479226,3.81,-3.48,1.53,0.21,18.63,887.32,48.9,82.0,0.0,-0.0012447,0.000707003,-0.0019288,32.6911163,-103.07525,1154.5959699999999,101.968358,-0.126517854,0.237660262,,,,,,,,,,,,,,2023-04-19 14:42:24.663716+00:00,1.0593991013583208,0.013974206595098225,3.8013345973210866,3.087781361093367,2.217149292870163,0.20807119999999998,215.67984411389153,0.2494131649347537,0.22382130233654088,,,,,,,,0.4938969675574935,0.8695204341690379,,,,,,,,,,,,
2023-04-19 07:42:24.863163-07:00,5.678673,4.37,-4.1,1.12,1.02,18.71,887.31,48.66,91.0,0.0,0.0001697,0.000202377,-0.0005432,32.6911163,-103.07525,1154.59817,101.974368,-0.127497982,0.241762947,,,,,,,,,,,,,,2023-04-19 14:42:24.863163+00:00,1.0590967797630668,0.01396929977769163,4.2504811449400925,3.778617514536871,1.946442817635915,1.0194568,207.25391770732315,0.24617027032742392,0.24890618325689456,,,,,,,,0.7662578095173224,-0.6425332437732035,,,,,,,,,,,,
2023-04-19 07:42:25.062986-07:00,5.878496,4.31,-4.2,0.17,0.97,18.75,887.31,48.56,89.0,0.0,-0.00187391,0.00173626,-0.000494449,32.6911163,-103.07525,1154.5969499999999,101.976823,-0.127718147,0.24237871,,,,,,,,,,,,,,2023-04-19 14:42:25.062986+00:00,1.058951648309862,0.013966868922097322,4.204659485351443,4.075031361447636,1.035992659710523,0.969505551,194.26408621753876,0.24245167284126062,0.26026800702593494,,,,,,,,0.6796520810324695,0.7335346268229153,,,,,,,,,,,,
2023-04-19 07:42:25.262939-07:00,6.078449,3.97,-3.92,0.39,0.52,18.83,887.32,48.41,80.0,0.0,0.000285193,0.00143288,-0.000987765,32.6911163,-103.07525,1154.59548,101.974516,-0.123568005,0.241093209,,,,,,,,,,,,,,2023-04-19 14:42:25.262939+00:00,1.0586734358323544,0.013962052235404802,3.9408046247698247,3.755217719279315,1.1951070962126793,0.519012235,197.653797023696,0.2428226732322154,0.24797237422196877,,,,,,,,0.9807622957379881,-0.1952058381779376,,,,,,,,,,,,
2023-04-19 07:42:25.463066-07:00,6.278576,3.39,-3.33,-0.1,0.63,18.87,887.33,48.22,79.0,0.0,-0.000636553,0.00171182,-0.00235995,32.6911163,-103.07525,1154.5908399999998,101.978785,-0.121170135,0.234455755,,,,,,,,,,,,,,2023-04-19 14:42:25.463066+00:00,1.0585403515067906,0.013959666372014802,3.333072381766273,3.2799544128183094,0.5926808179170252,0.62764005,190.24269986026349,0.2423989458907963,0.23048814671075346,,,,,,,,0.9372940014957072,0.34853974631333695,,,,,,,,,,,,
2023-04-19 07:42:25.663086-07:00,6.478596,3.6,-3.56,0.1,0.55,18.99,887.33,47.84,86.0,0.0,-0.00321757,0.00195014,-0.00361765,32.6911163,-103.07525,1154.58962,101.984349,-0.119808696,0.237283424,2.48616,95.966,13335.0,26.609,11619.0,0.971154,0.160023,14.0,-1191.0,74.0,,0.0,,2023-04-19 14:42:25.663086+00:00,1.058105543393623,0.013952386586176183,3.5625453115353296,3.463593204348888,0.8338172530780116,0.54638235,193.53568842865087,0.24241357990909343,0.2370821210061104,3.5973251460417117,194.22494358554985,3.481936924108531,0.8908833547179394,0.46988799640000006,0.23783779777322755,0.24252571987816074,0.5183206833684837,0.8551863359481534,3.439468149349968,0.18852790780902695,,,,,,,,,,
2023-04-19 07:42:25.863339-07:00,6.678849,3.53,-3.53,0.14,0.16,18.99,887.33,47.23,92.0,0.0,7.27934e-05,0.000174237,-0.00274447,32.6911163,-103.07525,1154.58865,101.98548,-0.123324134,0.240078704,,,,,,,,,,,,,,2023-04-19 14:42:25.863339+00:00,1.058105543393623,0.013952386586176183,3.532961910672775,3.4241482181112137,0.8700740443608388,0.15725553,194.2570918736775,0.2424459429276284,0.235707555906694,,,,,,,,0.922710536416469,-0.3854935355956465,,,,,,,,,,,,
2023-04-19 07:42:26.063088-07:00,6.878598,3.65,-3.61,0.22,0.5,18.85,887.33,48.3,84.0,0.0,-0.00244301,0.00124005,-0.000850183,32.6911163,-103.07525,1154.5973099999999,101.990579,-0.12215197,0.236847836,,,,,,,,,,,,,,2023-04-19 14:42:26.063088+00:00,1.0586128542705924,0.013960880420081511,3.617241501464355,3.48677106598493,0.9627375620211424,0.499149817,195.4354407414616,0.24254745743107015,0.23793879102061105,,,,,,,,0.45262056682466706,0.891703214352913,,,,,,,,,,,,
2023-04-19 07:42:26.262893-07:00,7.078403,3.53,-3.5,0.45,0.06,18.82,887.34,47.73,79.0,0.0,-0.00203418,0.00145328,0.000654049,32.6911163,-103.07525,1154.58682,101.992475,-0.126167677,0.245708431,,,,,,,,,,,,,,2023-04-19 14:42:26.262893+00:00,1.0587335585837423,0.013962744346111949,3.5295093042483403,3.331562974722407,1.1653858048879724,0.060654048999999995,199.27991476481952,0.24302330692796278,0.23230197975856925,,,,,,,,0.5813161375532611,0.813677791401583,,,,,,,,,,,,
2023-04-19 07:42:26.463561-07:00,7.279071,3.12,-3.03,0.76,0.06,18.44,887.33,49.56,81.0,0.0,-0.00078476,0.000677691,-0.00028051,32.6911162,-103.07525,1154.5846199999999,101.997,-0.127952543,0.242132554,2.4902,95.1457,13354.0,26.6113,11678.0,0.969711,0.154956,11.0,-1207.0,74.0,,0.0,,2023-04-19 14:42:26.463561+00:00,1.0601013527453378,0.01398581576865791,3.1241236812889923,2.806523941558093,1.3724329278518161,0.05971949,206.0593370468779,0.2441770861818535,0.21428087635358462,3.3259293708521995,196.66006780736285,3.167904483696213,0.951570290196807,0.1829864992,0.2266765815815448,0.2429924997032226,0.6535887841779185,0.756849853799834,3.019563714366878,0.1695598516812245,,,,,,,,,,
2023-04-19 07:42:26.663472-07:00,7.478982,3.3,-3.3,0.21,0.04,18.38,887.33,49.68,90.0,0.0,-0.00209415,0.000812931,0.00210059,32.6911162,-103.07525,1154.5904799999998,102.000004,-0.12430921,0.244408602,,,,,,,,,,,,,,2023-04-19 14:42:26.663472+00:00,1.0603195329709225,0.013989472436184236,3.3068940420424973,3.1850384961100136,0.8894256481535883,0.04210059,195.60245181165004,0.24255901982047623,0.22710957773400545,,,,,,,,0.3618813878755424,0.9322241474609372,,,,,,,,,,,,
2023-04-19 07:42:26.863508-07:00,7.679018,3.06,-3.04,-0.27,0.25,18.53,887.33,49.33,90.0,0.0,-0.000255673,-5.78472e-05,0.00330855,32.6911161,-103.07525,1154.5855999999999,102.003281,-0.125347555,0.242637779,,,,,,,,,,,,,,2023-04-19 14:42:26.863508+00:00,1.0597742507097265,0.013980334406955992,3.051878325216813,3.0296259401056216,0.36786950806951585,0.25330855,186.9231946720052,0.2426556281547502,0.22175168304095372,,,,,,,,0.2206767735268727,-0.9753469954973816,,,,,,,,,,,,
2023-04-19 07:42:27.062867-07:00,7.878377,2.78,-2.72,-0.19,0.53,18.64,887.33,48.99,81.0,0.0,-0.0017006,0.000176371,0.00215854,32.6911161,-103.07525,1154.5736299999999,102.008372,-0.12655038,0.244557907,,,,,,,,,,,,,,2023-04-19 14:42:27.062867+00:00,1.0593747333596526,0.013973640889350249,2.7265660909561498,2.7001855601834626,0.37836568148898014,0.5321585400000001,187.97667993428715,0.24255651271144593,0.2108197811418561,,,,,,,,0.10315774564725737,0.9946650086903508,,,,,,,,,,,,
2023-04-19 07:42:27.263212-07:00,8.078722,3.39,-3.35,-0.12,0.44,18.87,887.32,48.34,79.0,0.0,0.000141467,5.46668e-05,0.00162261,32.6911161,-103.07525,1154.57217,102.01275,-0.121761793,0.239840552,,,,,,,,,,,,,,2023-04-19 14:42:27.263212+00:00,1.058528422006475,0.013959623940587295,3.352226881177131,3.30166957769927,0.5800026401506115,0.44162261,189.96346087988513,0.24250169116972153,0.2312269992342345,,,,,,,,0.360451460898063,-0.9327779716183547,,,,,,,,,,,,
2023-04-19 07:42:27.463146-07:00,8.278656,3.05,-3.04,0.09,0.21,18.85,887.33,47.62,86.0,0.0,-0.000976466,0.000282687,0.00222114,32.6911161,-103.07525,1154.57107,102.016909,-0.122631418,0.239799304,2.49104,95.8071,13372.0,26.6133,11685.0,0.973837,0.152122,11.0,-1213.0,74.0,,0.0,,2023-04-19 14:42:27.463146+00:00,1.0586128542705924,0.013960880420081511,3.0413752699482055,2.9549267025905896,0.7199803573498552,0.21222114,193.69353680486677,0.24249336863042925,0.21916608310343802,3.012862026068809,189.41293958584336,2.9694250926016794,0.488169384325433,0.39997304600000005,0.2200349805185226,0.24259675855055352,0.2780814843106847,0.9605574881721377,2.988054375253036,0.22448269727364592,,,,,,,,,,
2023-04-19 07:42:27.663651-07:00,8.479161,2.55,-2.53,-0.09,0.33,18.09,887.33,49.94,93.0,0.0,0.00111787,7.45307e-05,0.00225172,32.6911161,-103.07525,1154.5637499999998,102.020224,-0.122820816,0.239985748,,,,,,,,,,,,,,2023-04-19 14:42:27.663651+00:00,1.0613753380271016,0.014007173746010139,2.5318677078465837,2.493345260080374,0.4399812542268658,0.33225172000000003,190.0075151377434,0.24250208023279735,0.20431774013327245,,,,,,,,0.06652437190765088,-0.997784800416549,,,,,,,,,,,,
2023-04-19 07:42:27.863418-07:00,8.678928,3.45,-3.39,-0.39,0.48,18.9,887.32,47.53,87.0,0.0,-0.00176467,8.19069e-05,0.00161122,32.6911162,-103.07525,1154.5656999999999,102.015831,-0.122993862,0.240130091,,,,,,,,,,,,,,2023-04-19 14:42:27.863418+00:00,1.0584196877052934,0.013957803282558237,3.412274180415976,3.3969983624547004,0.3225169884108522,0.48161122,185.42350517243426,0.24293014000837335,0.2346442989798121,,,,,,,,0.04636493774952402,0.9989245679967446,,,,,,,,,,,,
2023-04-19 07:42:28.063611-07:00,8.879121,3.29,-3.25,-0.39,0.37,18.93,887.33,48.11,80.0,0.0,0.00124414,0.000214386,0.00162036,32.6911162,-103.07525,1154.56875,102.013808,-0.121095933,0.238277492,,,,,,,,,,,,,,2023-04-19 14:42:28.063611+00:00,1.058322902790376,0.013956025514596111,3.273642235058899,3.2602086438482014,0.296265221953063,0.37162036,185.19238290686172,0.24292488058236306,0.22974296458184834,,,,,,,,0.16981391876356974,-0.9854761453196925,,,,,,,,,,,,
2023-04-19 07:42:28.263703-07:00,9.079213,4.38,-4.27,-0.93,0.34,17.31,887.32,53.21,81.0,0.0,-0.00137128,0.000371647,0.00168777,32.6911162,-103.07525,1154.5719199999999,102.018406,-0.121724261,0.238262765,,,,,,,,,,,,,,2023-04-19 14:42:28.263703+00:00,1.0642135570967803,0.014054967662027172,4.370481260747244,4.370426582559168,-0.021861770353984202,0.34168777,179.7133971471601,0.24510090757281006,0.27193843091983655,,,,,,,,0.2615850933033858,0.9651804178294641,,,,,,,,,,,,
2023-04-19 07:42:28.463229-07:00,9.278739,4.47,-4.39,-0.72,0.44,17.49,887.28,52.67,89.0,0.0,0.00108087,-0.000356712,0.00212021,32.6911162,-103.07525,1154.5768099999998,102.019773,-0.126762484,0.247653239,2.48434,95.077,13376.5,26.6161,11628.0,0.973848,0.151129,15.0,-1178.0,74.0,,0.0,,2023-04-19 14:42:28.463229+00:00,1.0635065207253034,0.01404372707201562,4.4483463245803065,4.443335465534725,0.2110804683726848,0.44212021,182.71978894182104,0.2440547798319045,0.27490237744345775,4.3123629299318065,185.34294414558934,4.282447418798594,0.4111201732222458,0.48061178800000004,0.2689459838363021,0.24346644375742713,0.31339718219406854,0.9496221386387418,4.19555078027847,0.22113705533756586,,,,,,,,,,
2023-04-19 07:42:28.663732-07:00,9.479242,4.68,-4.64,-0.2,0.56,17.6,887.31,51.63,91.0,0.0,0.00015579,0.000551136,0.00337143,32.6911162,-103.07525,1154.5904799999998,102.02529,-0.123111715,0.238504545,,,,,,,,,,,,,,2023-04-19 14:42:28.663732+00:00,1.063140107107992,0.01403710059472406,4.644877697584228,4.580398427964953,0.7712581063506196,0.56337143,189.55793837312373,0.24261278561930855,0.2804207285548513,,,,,,,,0.9622937859238901,-0.2720122599668373,,,,,,,,,,,,
2023-04-19 07:42:28.863551-07:00,9.679061,4.87,-4.82,-0.21,0.68,17.79,887.28,50.97,82.0,0.0,-0.000394642,-4.05866e-05,0.00425917,32.6911162,-103.07525,1154.60171,102.030467,-0.126538124,0.246762638,,,,,,,,,,,,,,2023-04-19 14:42:28.863551+00:00,1.0624098961421673,0.014025319081796444,4.824467131688357,4.757867974085925,0.7988588397888458,0.68425917,189.53121335898015,0.24263886518074942,0.2877254176815168,,,,,,,,0.10230448718610113,-0.9947531311343477,,,,,,,,,,,,
2023-04-19 07:42:29.063023-07:00,9.878533,4.43,-4.4,-0.3,0.5,18.05,887.27,50.07,79.0,0.0,0.0014108,0.000194196,0.00493749,32.6911162,-103.07525,1154.6084199999998,102.038006,-0.12919855,0.247623143,,,,,,,,,,,,,,2023-04-19 14:42:29.063023+00:00,1.0614493527847528,0.014009362332555467,4.410607565280994,4.3660040145455365,0.6256740684143747,0.50493749,188.1552975695935,0.24279856175885198,0.2717219322784716,,,,,,,,0.136363753236979,-0.9906588347171413,,,,,,,,,,,,
2023-04-19 07:42:29.263496-07:00,10.079006,2.76,-2.75,-0.22,0.02,17.91,887.3,50.57,84.0,0.0,9.37635e-05,0.000422476,0.00378143,32.6911162,-103.07525,1154.61953,102.042428,-0.129398363,0.245340291,,,,,,,,,,,,,,2023-04-19 14:42:29.263496+00:00,1.0619958169757662,0.014018055227997631,2.7592170445391297,2.735804160871228,0.3586841120469758,0.02378143,187.4692969424862,0.24268330826349893,0.2118542317378502,,,,,,,,0.976245772370417,-0.21666608393767584,,,,,,,,,,,,
2023-04-19 07:42:29.462954-07:00,10.278464,2.02,-2.0,0.18,0.19,18.09,887.32,50.02,91.0,0.0,0.000656023,-0.000283854,0.00211138,32.6911162,-103.07525,1154.6313699999998,102.040989,-0.131941812,0.250267411,,,,,,,,,,,,,,2023-04-19 14:42:29.462954+00:00,1.061363376577156,0.014007131003653302,2.0080064195319087,1.9181633181987277,0.5939185681540874,0.19211138,197.20402959614722,0.24263075045486385,0.18809403580799416,,,,,,,,0.39710959171015403,0.9177711981598653,,,,,,,,,,,,
2023-04-19 07:42:29.662893-07:00,10.478403,2.97,-2.96,-0.03,0.26,18.72,887.3,48.12,87.0,0.0,-0.00060831,0.000331148,0.00196902,32.6911162,-103.07525,1154.64187,102.042614,-0.130386569,0.245485354,2.48274,95.5187,13352.8,26.6184,11672.0,0.974596,0.150743,12.0,-1202.0,74.0,,0.0,,2023-04-19 14:42:29.662893+00:00,1.0590485575392006,0.01396864949291515,2.960355759594142,2.9014486990398125,0.5876237488413727,0.26196902,191.44912115687256,0.24253893662849915,0.21729565945393456,2.6153701289646856,190.23710280813071,2.571158799425622,0.448552978090779,0.384470164,0.20709249418862502,0.2426531825633343,0.478120376419995,0.878294316076338,2.4726964779942584,0.1930767139448163,,,,,,,,,,
2023-04-19 07:42:29.863434-07:00,10.678944,2.78,-2.7,-0.13,0.65,18.85,887.32,47.74,80.0,0.0,0.0002865,-0.000172442,0.00154897,32.6911162,-103.07525,1154.65237,102.046412,-0.132533732,0.251450806,,,,,,,,,,,,,,2023-04-19 14:42:29.863434+00:00,1.0586009239531877,0.013960837980718637,2.7030039048883587,2.667502002234397,0.43664994894904086,0.65154897,189.2964385059991,0.2425977082442185,0.20967253557449606,,,,,,,,0.5156870589853148,0.8567770171958843,,,,,,,,,,,,
2023-04-19 07:42:30.063550-07:00,10.87906,2.76,-2.63,-0.29,0.79,19.01,887.32,47.27,80.0,0.0,0.000387792,0.000289756,0.00294002,32.6911162,-103.07525,1154.66726,102.051269,-0.131143063,0.244179202,,,,,,,,,,,,,,2023-04-19 14:42:30.063550+00:00,1.05802118631685,0.013951131662507577,2.6462675162698894,2.632875816783946,0.26588851246241796,0.7929400200000001,185.76662783914847,0.24281520922559105,0.20854600836884998,,,,,,,,0.5985606139284174,-0.80107751900402,,,,,,,,,,,,
2023-04-19 07:42:30.263084-07:00,11.078594,3.69,-3.5,0.87,0.78,18.6,887.32,48.49,88.0,0.0,-0.000784994,0.00109237,0.00318234,32.6911162,-103.07525,1154.6793499999999,102.057067,-0.134038376,0.249943561,,,,,,,,,,,,,,2023-04-19 14:42:30.263084+00:00,1.0595080369985632,0.013976031603533322,3.607145561903922,3.242151817688334,1.5811232386576934,0.78318234,205.99743224540057,0.2448701407292111,0.22895183040639105,,,,,,,,0.8120671361232822,0.5835640208482105,,,,,,,,,,,,
2023-04-19 07:42:30.463768-07:00,11.279278,3.78,-3.52,0.43,1.29,18.67,887.3,48.29,91.0,0.0,0.000938483,0.000283757,0.000739665,32.6911162,-103.07525,1154.67751,102.060371,-0.132342443,0.248094377,2.48888,95.1725,13313.7,26.6206,11632.0,0.974229,0.147778,13.0,-1203.0,74.0,,0.0,,2023-04-19 14:42:30.463768+00:00,1.0592300133265935,0.013971688982895896,3.5467412191757677,3.352745115195968,1.1569241411302584,1.290739665,199.03790208433273,0.24314559892464924,0.232918563280481,3.486132704790381,199.0146017524511,3.2554348498769814,1.1820782066002926,0.8933017185999998,0.22988211031628084,0.2438368664931983,0.2894171458681162,-0.9572030691956401,-2.7739985291215365,0.22424079140505226,,,,,,,,,,
2023-04-19 07:42:30.663605-07:00,11.479115,3.48,-3.31,0.46,0.98,18.44,887.32,48.87,83.0,0.0,-0.00126818,0.000823311,-0.000109688,32.6911162,-103.07525,1154.6825199999998,102.066606,-0.129128875,0.244035073,,,,,,,,,,,,,,2023-04-19 14:42:30.663605+00:00,1.0600894056529062,0.013985773166189496,3.342151680350649,3.141527293094153,1.1405192331632084,0.979890312,199.9532310038483,0.24324287096354832,0.2254011375193844,,,,,,,,0.5445205349069099,0.8387475109141563,,,,,,,,,,,,
2023-04-19 07:42:30.863001-07:00,11.678511,4.34,-4.19,0.91,0.62,18.09,887.31,50.06,79.0,0.0,7.33672e-05,0.000710339,-0.000243744,32.6911161,-103.07525,1154.68752,102.067412,-0.128788873,0.246244339,,,,,,,,,,,,,,2023-04-19 14:42:30.863001+00:00,1.0613514151272103,0.01400708826164774,4.288357546251678,3.907874206622504,1.7659359075878853,0.619756256,204.31781558952542,0.24511051262299172,0.2535930120062976,,,,,,,,0.9947084275937815,-0.10273823082916445,,,,,,,,,,,,
2023-04-19 07:42:31.063042-07:00,11.878552,3.72,-3.66,0.3,0.58,18.41,887.3,49.07,84.0,0.0,-0.00130899,0.000917624,-0.000563304,32.6911161,-103.07525,1154.6931399999999,102.069181,-0.122108695,0.238349477,,,,,,,,,,,,,,2023-04-19 14:42:31.063042+00:00,1.0601745866681522,0.013987516017400666,3.672776123050526,3.517288649506528,1.0573386430574638,0.5794366959999999,196.73140059865815,0.24287990896828648,0.23886084012076222,,,,,,,,0.5740210089173912,0.8188405713699464,,,,,,,,,,,,
2023-04-19 07:42:31.263530-07:00,12.07904,3.17,-3.16,-0.09,0.26,18.91,887.32,47.58,91.0,0.0,-9.67168e-05,7.01932e-05,-0.000601422,32.6911161,-103.07525,1154.6935099999998,102.068319,-0.120525371,0.240481662,,,,,,,,,,,,,,2023-04-19 14:42:31.263530+00:00,1.058383447902249,0.013957196503765385,3.1613328989310356,3.1090480210056506,0.5725784670632968,0.259398578,190.43496385102276,0.2426283849280494,0.22429399044849505,,,,,,,,0.5873707492085871,0.8093179863157268,,,,,,,,,,,,
2023-04-19 07:42:31.463501-07:00,12.279011,4.04,-3.96,-0.13,0.79,18.63,887.33,48.49,88.0,0.0,-1.13971e-05,9.27463e-05,-0.000810865,32.691116,-103.07525,1154.6900899999998,102.0672,-0.12217264,0.236547945,,,,,,,,,,,,,,2023-04-19 14:42:31.463501+00:00,1.0594110406710984,0.013974249121878973,3.962222532422749,3.8997665703131887,0.7007339677126065,0.789189135,190.18655378802896,0.2426522465079369,0.2533051558585649,,,,,,,,0.9925341259465398,0.12196724491246934,,,,,,,,,,,,
2023-04-19 07:42:31.663369-07:00,12.478879,4.51,-4.41,0.33,0.88,18.48,887.33,48.87,80.0,0.0,-0.000804334,0.000595426,-0.00255739,32.691116,-103.07525,1154.68203,102.073455,-0.121255822,0.236326603,2.48468,95.6995,13327.4,26.6235,11663.0,0.973397,0.151112,12.0,-1187.0,74.0,,0.0,,2023-04-19 14:42:31.663369+00:00,1.0599559491376505,0.013983379068937951,4.422674678272803,4.24402269114009,1.2443161603561488,0.87744261,196.34074808896048,0.24294852596669023,0.26674628341433865,4.134990134176453,195.99453953273778,3.949215806908223,1.1674572334672437,0.42429069259999996,0.25569360915811273,0.24338125398816463,0.5949842973695049,0.8037373239334581,3.8687508660435816,0.18141760938663581,,,,,,,,,,
2023-04-19 07:42:31.863465-07:00,12.678975,4.3,-4.2,0.9,-0.17,17.49,887.3,51.99,80.0,0.0,-0.000602563,4.98108e-05,-0.00306367,32.691116,-103.07525,1154.67788,102.073578,-0.120589174,0.241435362,,,,,,,,,,,,,,2023-04-19 14:42:31.863465+00:00,1.0635304930118583,0.014043813036690266,4.2951451008639285,3.918894093301565,1.7579933227863846,-0.17306367,204.16072960614025,0.24507116134793766,0.25402772858957395,,,,,,,,0.08238387800649637,0.9966006706021278,,,,,,,,,,,,
2023-04-19 07:42:32.063793-07:00,12.879303,4.85,-4.8,0.57,0.37,18.03,887.29,50.25,87.0,0.0,0.000228355,-0.000236251,-0.00151319,32.691116,-103.07525,1154.6838599999999,102.074076,-0.117782477,0.232737575,,,,,,,,,,,,,,2023-04-19 14:42:32.063793+00:00,1.0615461873627459,0.014010670705065554,4.833575460391752,4.57434765878062,1.5616642494177813,0.36848681,198.8497023295365,0.24360595119020886,0.28009488747959116,,,,,,,,0.7190202625629148,0.6949891092844239,,,,,,,,,,,,
2023-04-19 07:42:32.263585-07:00,13.079095,3.58,-3.51,-0.56,0.44,18.06,887.31,50.23,92.0,0.0,-0.00331631,0.000937851,0.00162445,32.6911161,-103.07525,1154.6942399999998,102.081679,-0.116420647,0.233360461,,,,,,,,,,,,,,2023-04-19 14:42:32.263585+00:00,1.0614607538946075,0.014008922005002124,3.555155252448816,3.5504034057674994,0.18375125939417947,0.44162445,182.96270178995985,0.24359117973031394,0.2400482851441123,,,,,,,,0.272127076279374,0.9622613233190035,,,,,,,,,,,,
2023-04-19 07:42:32.463270-07:00,13.27878,4.24,-4.21,0.45,0.27,18.14,887.32,49.95,84.0,0.0,-0.00214568,-0.000117579,0.00479225,32.6911161,-103.07525,1154.70254,102.08784,-0.123385714,0.240947106,,,,,,,,,,,,,,2023-04-19 14:42:32.463270+00:00,1.0611811932930444,0.014004075828074341,4.233200570244241,4.022302080010182,1.31949726981981,0.27479225,198.16183353109568,0.24327012942790874,0.2580081711783335,,,,,,,,0.05471592323553141,-0.998501961813037,,,,,,,,,,,,
2023-04-19 07:42:32.663197-07:00,13.478707,4.36,-4.23,-1.05,0.03,17.65,887.31,51.53,79.0,0.0,-0.00365189,0.000201436,0.00723469,32.6911161,-103.07525,1154.71353,102.09405,-0.125779429,0.242529483,2.48715,95.7709,13331.5,26.6255,11693.0,0.972603,0.153098,10.0,-1216.0,74.0,,0.0,,2023-04-19 14:42:32.663197+00:00,1.062957311353675,0.014034032128503878,4.3586917831949,4.356309457923166,-0.14409013741376808,0.03723469,178.10556433073506,0.24600053888234769,0.27120075484448153,4.264612310202847,183.92482519110808,4.217242681335018,0.2770766902969983,0.269380706,0.2659335078762312,0.2448272388359428,0.05507566142226581,0.9984821838765577,4.226101864379618,0.24408593034818996,,,,,,,,,,
2023-04-19 07:42:32.863142-07:00,13.678652,4.64,-4.46,-1.24,0.28,17.7,887.31,51.37,82.0,0.0,-0.00236885,-0.000157261,0.00920874,32.6911161,-103.07525,1154.7322,102.097475,-0.127378542,0.24876006,,,,,,,,,,,,,,2023-04-19 14:42:32.863142+00:00,1.0627745784481648,0.014030965024428611,4.62915415697107,4.620670756842836,-0.28012491117355576,0.28920874,176.53072976103812,0.24731006944254066,0.2819333669061977,,,,,,,,0.06624125529580141,-0.9978036360410982,,,,,,,,,,,,
2023-04-19 07:42:33.063138-07:00,13.878648,4.56,-4.5,-0.65,0.29,17.92,887.29,50.65,91.0,0.0,-0.0012709,0.000244051,0.0140434,32.6911161,-103.07525,1154.7566199999999,102.098692,-0.129533979,0.247032166,,,,,,,,,,,,,,2023-04-19 14:42:33.063138+00:00,1.061947362614781,0.014017400306918289,4.546859788155205,4.536527706131408,0.30634997085832566,0.30404339999999996,183.86329654271157,0.24396427669660298,0.27847696130803107,,,,,,,,0.18858445734762366,0.9820569751531234,,,,,,,,,,,,
2023-04-19 07:42:33.263152-07:00,14.078662,4.53,-4.48,-0.03,0.65,18.36,887.29,49.32,88.0,0.0,-0.00146417,0.000727359,0.021653,32.6911161,-103.07525,1154.7878699999999,102.101027,-0.129271708,0.248016896,,,,,,,,,,,,,,2023-04-19 14:42:33.263152+00:00,1.0603444781869724,0.01399052122158148,4.480515576821544,4.38746850888112,0.9083721251320829,0.6716530000000001,191.69713340619987,0.24269230908453435,0.272416070562972,,,,,,,,0.4448995203615569,0.8955804915148926,,,,,,,,,,,,
2023-04-19 07:42:33.463144-07:00,14.278654,4.1,-4.07,0.09,0.46,17.8,887.32,51.09,80.0,0.0,0.00048877,0.000714116,0.0259058,32.6911161,-103.07525,1154.8065399999998,102.101611,-0.134308812,0.250998569,,,,,,,,,,,,,,2023-04-19 14:42:33.463144+00:00,1.0624212744262962,0.014024877757517144,4.071802751306748,3.9613997548817643,0.9417481763039965,0.4859058,193.37275534035786,0.24271572065421482,0.2555750453239086,,,,,,,,0.8252187597884786,-0.5648132421368725,,,,,,,,,,,,
2023-04-19 07:42:33.662833-07:00,14.478343,3.66,-3.63,0.33,0.34,17.76,887.33,51.23,80.0,0.0,-0.000397516,0.00306745,0.0266267,32.6911161,-103.07525,1154.82375,102.101238,-0.134424066,0.251843893,2.48368,95.7711,13302.9,26.6276,11634.0,0.968657,0.154987,13.0,-1202.0,74.0,,0.0,,2023-04-19 14:42:33.662833+00:00,1.0625793319136951,0.01402737204557162,3.64777993172532,3.483223059675945,1.0832615320594225,0.3666267,197.27538123893453,0.24302085451356337,0.23744517190994763,4.065818089608884,190.03502493003086,3.9871181785564787,0.6988133212918811,0.47267748000000004,0.2567271090484068,0.2431912727536379,0.9917073038996238,0.12851701596340936,1.2054308053890557,0.25251879197092975,,,,,,,,,,
2023-04-19 07:42:33.863267-07:00,14.678777,4.16,-4.12,-0.43,0.43,18.26,887.29,49.64,88.0,0.0,-0.00026269,0.000865754,0.0233735,32.6911161,-103.07525,1154.8268099999998,102.101764,-0.133247859,0.250774771,,,,,,,,,,,,,,2023-04-19 14:42:33.863267+00:00,1.0607083450680634,0.013996620906186403,4.1432112284306175,4.119455025038073,0.44304579907963776,0.4533735,186.1385435399659,0.2432527594878717,0.2617399015749617,,,,,,,,0.9569199475948802,0.29035187944115626,,,,,,,,,,,,
2023-04-19 07:42:34.063503-07:00,14.879013,4.0,-3.92,-0.72,0.37,18.13,887.3,50.07,91.0,0.0,-0.000540235,0.000223053,0.0158284,32.6911161,-103.07525,1154.82351,102.10688,-0.134797898,0.253139267,,,,,,,,,,,,,,2023-04-19 14:42:34.063503+00:00,1.0611937053315248,0.014004601303260946,3.985780959760192,3.984044544305489,0.11763897388426614,0.3858284,181.69131112469623,0.24427472002800502,0.25645935587024404,,,,,,,,0.38163219778468566,0.9243142677758635,,,,,,,,,,,,
2023-04-19 07:42:34.263543-07:00,15.079053,4.21,-4.15,-0.7,0.24,17.34,887.3,52.43,84.0,0.0,-0.000210725,0.000552494,0.00867453,32.6911161,-103.07525,1154.81704,102.11787,-0.133568102,0.250458018,,,,,,,,,,,,,,2023-04-19 14:42:34.263543+00:00,1.0640796670762043,0.014053035567947843,4.209164706448573,4.205027870165273,0.18656938962652145,0.24867453,182.5404427527035,0.24421675634553525,0.26509310872549247,,,,,,,,0.9343463956533092,0.3563661220285532,,,,,,,,,,,,
2023-04-19 07:42:34.463525-07:00,15.279035,4.2,-4.04,-1.12,0.24,17.61,887.31,51.72,79.0,0.0,-0.0012255,0.00061219,0.00549595,32.6911161,-103.07525,1154.8146,102.122206,-0.137090544,0.257544196,2.48436,96.0442,13290.8,26.6304,11632.0,0.966618,0.163457,13.0,-1190.0,74.0,,0.0,,2023-04-19 14:42:34.463525+00:00,1.0631035429276676,0.014036486792465613,4.193057422771038,4.1857251595412635,-0.2478617345185895,0.24549595,176.61113275758876,0.24652274062336443,0.2643155866056877,4.099028745475399,180.45640877275406,4.095273274912428,0.030496650305330074,0.331472362,0.2607782025359791,0.24492149737065755,0.44688653450940125,0.8945906467620695,3.6772217100404205,0.2028095639898604,,,,,,,,,,
2023-04-19 07:42:34.663564-07:00,15.479074,4.15,-4.02,-0.96,0.43,17.64,887.31,51.55,83.0,0.0,0.00052031,0.000482259,0.00358312,32.6911161,-103.07525,1154.81082,102.130175,-0.139816065,0.264707511,,,,,,,,,,,,,,2023-04-19 14:42:34.663564+00:00,1.0629938654755964,0.01403464571274778,4.133507980462676,4.132454679613554,-0.09330887143606567,0.43358312,178.7065082001198,0.24554564998614317,0.26219772746910597,,,,,,,,0.6797801811572417,-0.7334159156343879,,,,,,,,,,,,
2023-04-19 07:42:34.863792-07:00,15.679302,3.99,-3.92,-0.65,0.34,17.77,887.3,51.21,91.0,0.0,0.00111756,5.47123e-05,0.00377981,32.6911161,-103.07525,1154.80667,102.131502,-0.133934172,0.254462469,,,,,,,,,,,,,,2023-04-19 14:42:34.863792+00:00,1.062506883297699,0.014026630495350379,3.9736326579345165,3.9691141209365597,0.18944549397051794,0.34377981,182.7326490286618,0.2440476198702397,0.25582523400936547,,,,,,,,0.048898359768077965,-0.9988037597105808,,,,,,,,,,,,
2023-04-19 07:42:35.063706-07:00,15.879216,2.84,-2.82,-0.16,0.36,18.16,887.32,49.95,89.0,0.0,-0.00191274,0.000756958,0.00279056,32.6911161,-103.07525,1154.79641,102.131067,-0.137403759,0.259477586,,,,,,,,,,,,,,2023-04-19 14:42:35.063706+00:00,1.0611083374904082,0.01400285413685906,2.8249885661630425,2.7914085531804833,0.4342795046773021,0.36279056,188.84302494973448,0.242845998581598,0.21338430922466986,,,,,,,,0.3679777384354152,0.929834600354255,,,,,,,,,,,,
2023-04-19 07:42:35.263669-07:00,16.079179,4.57,-4.42,-1.15,0.11,17.84,887.31,51.04,80.0,0.0,-0.000245529,0.000791881,0.00148193,32.691116,-103.07525,1154.79263,102.128301,-0.144075253,0.262659526,,,,,,,,,,,,,,2023-04-19 14:42:35.263669+00:00,1.0622632603926208,0.014022384372042992,4.567956153727974,4.563752348135138,-0.19592837281079237,0.11148193,177.54172032472434,0.24674059215453756,0.2794969842326753,,,,,,,,0.9551416704029055,0.29614926888302023,,,,,,,,,,,,
2023-04-19 07:42:35.463008-07:00,16.278518,3.65,-3.6,-0.54,-0.26,17.47,887.26,52.29,79.0,0.0,-0.00274077,0.00250173,0.00606134,32.691116,-103.07525,1154.80813,102.127816,-0.139812078,0.261966175,2.48079,95.4001,13267.5,26.6326,11632.0,0.959074,0.166898,13.0,-1190.0,74.0,,0.0,,2023-04-19 14:42:35.463008+00:00,1.0635557355936887,0.01404487003698027,3.6426007111390284,3.635604956605994,0.22564693725483093,-0.25393866,183.55155593197506,0.24364289356445973,0.24303550908435437,4.111582652228983,189.44223882040106,3.9992374282331626,0.7008213014468846,0.181537526,0.2579785830311577,0.24420444159485272,0.6741646936738646,0.7385810489063637,3.4262299525800954,0.17746467545089503,,,,,,,,,,
2023-04-19 07:42:35.663307-07:00,16.478817,4.74,-4.73,0.25,0.24,17.47,887.26,52.12,86.0,0.0,0.000545849,0.00195709,0.0138804,32.691116,-103.07525,1154.83352,102.123785,-0.142930883,0.264586834,,,,,,,,,,,,,,2023-04-19 14:42:35.663307+00:00,1.0635557355936887,0.01404487003698027,4.738633884666968,4.573953692973687,1.2383855245626594,0.2538804,195.14947443706333,0.24293885762326375,0.2798761780182618,,,,,,,,0.9632365133157532,-0.2686548332252945,,,,,,,,,,,,
2023-04-19 07:42:35.863470-07:00,16.67898,4.8,-4.71,0.83,0.41,18.02,887.26,50.39,92.0,0.0,0.000305704,0.00112945,0.0234734,32.6911159,-103.07525,1154.86025,102.133022,-0.145318781,0.254063272,,,,,,,,,,,,,,2023-04-19 14:42:35.863470+00:00,1.0615467523379396,0.014011153909888932,4.783733945447902,4.43146759027051,1.8017229135504231,0.43347339999999995,202.12541845850814,0.24485386605040452,0.27409993459582704,,,,,,,,0.965267054379098,-0.26126521722246054,,,,,,,,,,,,
2023-04-19 07:42:36.063160-07:00,16.87867,4.13,-4.02,-0.5,0.79,18.03,887.28,50.49,84.0,0.0,-0.00282987,0.000829313,0.0273401,32.6911159,-103.07525,1154.87881,102.138324,-0.147971149,0.264353965,,,,,,,,,,,,,,2023-04-19 14:42:36.063160+00:00,1.0615342234480467,0.014010627940073043,4.051553298729265,4.03608967047861,0.3536443189135773,0.8173401,185.00749795511487,0.24354414443347802,0.2583845986189543,,,,,,,,0.2812293213371088,0.959640593566294,,,,,,,,,,,,
2023-04-19 07:42:36.263144-07:00,17.078654,3.92,-3.89,-0.27,0.41,17.88,887.28,50.9,78.0,0.0,-0.001769,0.00253279,0.0250212,32.6911159,-103.07525,1154.8929699999999,102.144408,-0.142068255,0.257092065,,,,,,,,,,,,,,2023-04-19 14:42:36.263144+00:00,1.0620813496326915,0.014019806237973446,3.9016150377419514,3.8622780508513563,0.552637458598291,0.4350212,188.14294557315827,0.24302415890820941,0.2515762823005193,,,,,,,,0.8198325951472589,0.5726032797095304,,,,,,,,,,,,
2023-04-19 07:42:36.463081-07:00,17.278591,4.79,-4.73,0.74,0.19,18.06,887.28,50.32,82.0,0.0,-0.00565632,0.0035731,0.0163458,32.691116,-103.07525,1154.8874799999999,102.153211,-0.143937782,0.257281818,2.48148,96.143,13255.7,26.6345,11682.0,0.941745,0.171305,10.0,-1211.0,74.0,,0.0,,2023-04-19 14:42:36.463081+00:00,1.061424865848021,0.014008793745038349,4.788843980734297,4.471775361747741,1.7135494699252116,0.2063458,200.9664431002488,0.24447935991557515,0.275585591426413,4.31056049708531,193.10290881205518,4.166477889032608,0.9961572216099652,0.424494596,0.2634726438241851,0.24355990993449125,0.5340664332363076,0.8454425142434278,4.054531676331202,0.18961749863807903,,,,,,,,,,
2023-04-19 07:42:36.663098-07:00,17.478608,4.29,-4.25,0.59,0.16,18.28,887.29,49.65,91.0,0.0,0.000174945,0.00382057,0.00967062,32.691116,-103.07525,1154.90212,102.160516,-0.139884087,0.257805666,,,,,,,,,,,,,,2023-04-19 14:42:36.663098+00:00,1.0606355517149382,0.013995400537076859,4.294406379692262,4.034171860676063,1.4722036382481307,0.16967062,200.04870958032006,0.24389709709662483,0.25813828338677913,,,,,,,,0.9989532705304804,-0.045742357792933994,,,,,,,,,,,,
2023-04-19 07:42:36.863039-07:00,17.678549,4.54,-4.51,-0.06,0.49,18.67,887.27,48.39,89.0,0.0,-0.0025834,0.00662422,0.00409526,32.691116,-103.07525,1154.90066,102.159887,-0.13995521,0.254873245,,,,,,,,,,,,,,2023-04-19 14:42:36.863039+00:00,1.0591942002978547,0.013971561454485897,4.5163837885287785,4.428074501409271,0.8887512223646158,0.49409526,191.34894785143376,0.24285478931856874,0.27367846338825985,,,,,,,,0.9316567356150962,0.36333968539511724,,,,,,,,,,,,
2023-04-19 07:42:37.062956-07:00,17.878466,4.56,-4.42,-0.94,0.63,18.35,887.28,49.49,81.0,0.0,-0.000428954,0.00489093,-0.00230169,32.691116,-103.07525,1154.8963899999999,102.153551,-0.143243596,0.26278087,,,,,,,,,,,,,,2023-04-19 14:42:37.062956+00:00,1.0603689028596988,0.013991088310030136,4.523739243293912,4.523725397581967,0.011192345118278805,0.62769831,180.14175768272395,0.24548891687778282,0.27764107997310017,,,,,,,,0.9961760526573078,0.08736859911950483,,,,,,,,,,,,
2023-04-19 07:42:37.263204-07:00,18.078714,3.4,-3.36,-0.31,0.45,18.58,887.3,48.76,79.0,0.0,-0.0033391,0.00497212,-0.0041962,32.691116,-103.07525,1154.89968,102.158884,-0.140725308,0.252126735,,,,,,,,,,,,,,2023-04-19 14:42:37.263204+00:00,1.059556790487665,0.013977163452568138,3.378808362336623,3.354891453901187,0.4013094590670314,0.44580380000000003,186.82126439346942,0.24313205207045344,0.23255756253469168,,,,,,,,0.8301688484088688,0.5575120475213899,,,,,,,,,,,,
2023-04-19 07:42:37.463169-07:00,18.278679,4.41,-4.39,-0.03,0.41,18.31,887.29,49.62,85.0,0.0,-0.00334385,0.00538259,-0.00642337,32.691116,-103.07525,1154.8927199999998,102.159699,-0.14006153,0.260760874,2.47996,94.8718,13261.3,26.6368,11620.0,0.928492,0.169346,14.0,-1182.0,74.0,,0.0,,2023-04-19 14:42:37.463169+00:00,1.060526380416813,0.013993570388677521,4.394692146025305,4.303208963292156,0.8920267241392196,0.40357663,191.71117064287373,0.24284612277982684,0.2687105559644003,4.033022147416301,188.61529669494126,3.970831201135005,0.6041243740812346,0.44559464000000004,0.25628582941417,0.2434688730316777,0.8494327732480593,0.5276968483249744,2.608558152531986,0.19695604113308127,,,,,,,,,,
2023-04-19 07:42:37.663097-07:00,18.478607,4.66,-4.63,0.19,0.43,18.17,887.3,49.98,92.0,0.0,-0.00219792,0.00636067,-0.00847324,32.691116,-103.07525,1154.88674,102.164469,-0.142118616,0.257088703,2.47996,94.8718,13261.3,26.6368,11620.0,0.928492,0.169346,14.0,-1182.0,74.0,,0.0,,2023-04-19 14:42:37.663097+00:00,1.0610479970100457,0.014002157952835657,4.6395051595339885,4.492365610040731,1.1591632115737074,0.42152676,194.46841737530013,0.2429651295783463,0.2762817690410821,3.8937659974369594,190.80700193658984,3.817256779657227,0.7492635941728911,0.38780123800000005,0.2502129162544794,0.24294954167316743,0.9451627945952721,0.3265995892723313,1.9548905689400202,0.2250206160381813,,,,,,,,,,
2023-04-19 07:42:37.863721-07:00,18.679231,3.24,-3.22,-0.12,0.34,18.46,887.3,49.09,85.0,0.0,-0.00454644,0.00702524,-0.0106323,32.691116,-103.07525,1154.8700199999998,102.169312,-0.144324056,0.262023805,,,,,,,,,,,,,,2023-04-19 14:42:37.863721+00:00,1.0599928071361289,0.013984469528544399,3.228365825891676,3.1799645808589845,0.5569301305079362,0.32936770000000004,189.933873380339,0.242912143851979,0.22623817955757586,,,,,,,,0.8395321941831791,0.5433099437061472,,,,,,,,,,,,
2023-04-19 07:42:38.063538-07:00,18.879048,3.84,-3.82,-0.07,0.35,18.33,887.31,49.49,79.0,0.0,-0.000166677,0.00698016,-0.0112687,32.691116,-103.07525,1154.87319,102.172695,-0.141320488,0.25872471,,,,,,,,,,,,,,2023-04-19 14:42:38.063538+00:00,1.0604775152382624,0.013992435850822667,3.8274584933972062,3.755853290193078,0.7368884455765605,0.33873129999999996,191.1002838909668,0.24289226008523168,0.24727651417464702,,,,,,,,0.9997150262060339,0.023871874201011802,,,,,,,,,,,,
2023-04-19 07:42:38.263492-07:00,19.079002,4.35,-4.31,0.26,0.5,18.5,887.3,48.9,81.0,0.0,-0.00374528,0.0092604,-0.0125075,32.691116,-103.07525,1154.86428,102.174203,-0.144889608,0.25684911,,,,,,,,,,,,,,2023-04-19 14:42:38.263492+00:00,1.0598474283866501,0.013982033307905062,4.325748691061261,4.16750254055534,1.1593206254884807,0.4874925,195.54556443196276,0.2430857712450647,0.263127490080797,,,,,,,,0.927050431010421,0.37493665913510343,,,,,,,,,,,,
2023-04-19 07:42:38.463631-07:00,19.279141,4.66,-4.61,0.17,0.68,18.41,887.31,49.24,89.0,0.0,-0.00372845,0.00978882,-0.0146379,32.691116,-103.07525,1154.84683,102.17438,-0.146716373,0.26415482,,,,,,,,,,,,,,2023-04-19 14:42:38.463631+00:00,1.0601865349898774,0.013987558631135068,4.621703398069477,4.480260349751237,1.134640691220735,0.6653621000000001,194.21154403618982,0.24296924790725258,0.2756287283224519,,,,,,,,0.9345075603322209,0.3559432815518793,,,,,,,,,,,,
2023-04-19 07:42:38.663776-07:00,19.479286,4.57,-4.35,1.39,0.22,18.17,887.29,50.06,89.0,0.0,-0.00297311,0.0082306,-0.0163437,32.691116,-103.07525,1154.8428,102.176767,-0.147938095,0.26081098,,,,,,,,,,,,,,2023-04-19 14:42:38.663776+00:00,1.061036038844859,0.014002115243559642,4.572341886220972,3.9671716068860725,2.273292714545959,0.2036563,209.81383285785884,0.24866252252647533,0.2553202009203275,,,,,,,,0.9405192562438778,0.33974038416776847,,,,,,,,,,,,
2023-04-19 07:42:38.863416-07:00,19.678926,3.98,-3.85,0.95,0.43,18.24,887.3,49.76,81.0,0.0,-0.00237653,0.00772656,-0.0169693,32.691116,-103.07525,1154.8274199999998,102.176588,-0.148380504,0.265127946,,,,,,,,,,,,,,2023-04-19 14:42:38.863416+00:00,1.060793103706258,0.01399788417278142,3.971379014412089,3.5707307683522145,1.738313279031009,0.4130307,205.9578767428795,0.24560184177688527,0.24029793054043994,,,,,,,,0.9558093613546245,0.2939871846643403,,,,,,,,,,,,
2023-04-19 07:42:39.063659-07:00,19.879169,4.0,-3.88,-0.13,0.96,18.33,887.32,49.54,79.0,0.0,-0.000580983,0.00603531,-0.01924,32.691116,-103.07525,1154.81558,102.184027,-0.145190912,0.261801688,,,,,,,,,,,,,,2023-04-19 14:42:39.063659+00:00,1.0604894668393403,0.013992478496840495,3.8880127493896777,3.8260742159394217,0.6912302319344971,0.9407599999999999,190.24076710474557,0.24295818957757045,0.24995575412054874,,,,,,,,0.9953985780626821,0.09582103522082552,,,,,,,,,,,,
2023-04-19 07:42:39.263688-07:00,20.079198,4.75,-4.68,-0.25,0.73,18.4,887.31,49.29,85.0,0.0,-6.42509e-05,0.0013319,-0.0195382,32.691116,-103.07525,1154.8065399999998,102.189287,-0.150143086,0.263060084,,,,,,,,,,,,,,2023-04-19 14:42:39.263688+00:00,1.0602228987880251,0.01398816809470755,4.687977425358379,4.628608635268938,0.7437166410559874,0.7104618,189.1281626239153,0.24310966563668324,0.281990551410576,,,,,,,,0.9988384764504661,0.04818400110110906,,,,,,,,,,,,
2023-04-19 07:42:39.462918-07:00,20.278428,3.98,-3.93,0.3,0.59,18.57,887.32,48.76,92.0,0.0,0.000700534,0.00073665,-0.016399,32.691116,-103.07525,1154.79543,102.189456,-0.146829824,0.26516762,,,,,,,,,,,,,,2023-04-19 14:42:39.462918+00:00,1.0596169950443264,0.013977857096293227,3.9423394944838206,3.7787904091011866,1.123736505526021,0.5736009999999999,196.56142239174085,0.2431931243504855,0.24834141159050124,,,,,,,,0.7246473891789047,-0.689119845423274,,,,,,,,,,,,
2023-04-19 07:42:39.663287-07:00,20.478797,4.44,-4.38,0.4,0.56,18.57,887.33,48.74,86.0,0.0,0.000530164,0.00062143,-0.0117768,32.6911159,-103.07525,1154.79128,102.190064,-0.148237547,0.261017276,2.482,95.3915,13307.4,26.6415,11670.0,0.892228,0.165996,15.0,-1204.0,74.0,,0.0,,2023-04-19 14:42:39.663287+00:00,1.0596289368127416,0.013977899646956251,4.398978506476499,4.1974013792994285,1.3163713615456163,0.5482232,197.41224860044395,0.24340588862190718,0.2646145551947629,4.613222855507377,195.72948376554115,4.430947836709168,1.249902566623319,0.5916684140000001,0.2742011169086399,0.24344694847581394,0.7607609518495925,-0.6490321826696285,-1.9249506794510152,0.1889469212970428,,,,,,,,,,
2023-04-19 07:42:39.863122-07:00,20.678632,5.1,-5.03,0.68,0.53,18.44,887.3,49.2,79.0,0.0,0.000512804,0.00094452,-0.00805541,32.6911159,-103.07525,1154.7879899999998,102.192839,-0.14391773,0.257840271,,,,,,,,,,,,,,2023-04-19 14:42:39.863122+00:00,1.0600655114680426,0.013985687962303725,5.076818750107912,4.773861490887624,1.727522818161154,0.52194459,199.89372926832925,0.24432311704507115,0.2879874475575811,,,,,,,,0.8788282390754559,-0.47713826738539145,,,,,,,,,,,,
2023-04-19 07:42:40.062953-07:00,20.878463,5.0,-4.95,0.3,0.61,18.45,887.3,49.18,81.0,0.0,-0.000553142,0.00110791,-0.00588852,32.6911158,-103.07525,1154.78494,102.193234,-0.144397068,0.257966791,,,,,,,,,,,,,,2023-04-19 14:42:40.062953+00:00,1.0600291580554408,0.01398507871846489,4.960000101110279,4.776077268988666,1.3381655068278173,0.60411148,195.65185594327647,0.2432029467249227,0.28807161878977827,,,,,,,,0.8946896511456298,0.44668828967515056,,,,,,,,,,,,
2023-04-19 07:42:40.263479-07:00,21.078989,4.09,-3.91,0.7,0.96,18.6,887.3,48.65,90.0,0.0,0.000171171,0.000521758,-0.00581971,32.6911158,-103.07525,1154.7762699999998,102.195588,-0.144034276,0.258448031,,,,,,,,,,,,,,2023-04-19 14:42:40.263479+00:00,1.059484155917623,0.013975946527143752,3.9727133121139313,3.6744068484519334,1.5103593520406904,0.9541802899999999,202.3450386242211,0.24441294112284173,0.2443870132494647,,,,,,,,0.9501741018877683,-0.31171970759285156,,,,,,,,,,,,
2023-04-19 07:42:40.463792-07:00,21.279302,3.56,-3.4,0.94,0.4,18.41,887.32,49.31,90.0,0.0,-0.000497422,0.00101781,-0.00548409,32.6911159,-103.07525,1154.76748,102.19621,-0.143622029,0.258387893,2.48034,95.0446,13323.6,26.643,11621.0,0.870291,0.164562,14.0,-1201.0,74.0,,0.0,,2023-04-19 14:42:40.463792+00:00,1.0601984833116027,0.013987601245219904,3.5282195666626257,3.1256948375169085,1.6365711390896371,0.39451591,207.6359404070442,0.24559331489279163,0.22447640958017648,3.635360200893042,196.9335613203215,3.434617219109083,1.0964353964489317,0.564852296,0.23681614243613844,0.2439375276124093,0.8984449573787539,0.4390861630257656,2.49317974923195,0.19685916955709434,,,,,,,,,,
2023-04-19 07:42:40.663691-07:00,21.479201,3.15,-3.13,0.18,0.35,18.58,887.32,48.71,81.0,0.0,0.00057455,0.000441037,-0.00532003,32.6911159,-103.07525,1154.76272,102.201204,-0.145406191,0.262368066,2.48034,95.0446,13323.6,26.643,11621.0,0.870291,0.164562,14.0,-1201.0,74.0,,0.0,,2023-04-19 14:42:40.663691+00:00,1.0595806732058097,0.013977248544881023,3.1357499587367315,3.0216967255496145,0.8380195120163668,0.34467997,195.50050788691942,0.24304987877133655,0.22089422063345038,3.134408355795323,195.59038027918413,2.96448989079744,0.9050769357271078,0.5116745340000001,0.21952570160808021,0.2439054977591601,0.6089085188463355,-0.7932404526222563,-1.8004442463946913,0.17372041210392797,,,,,,,,,,
2023-04-19 07:42:40.863663-07:00,21.679173,2.64,-2.55,-0.39,0.53,18.66,887.33,48.59,79.0,0.0,0.0010144,0.00040535,-0.00322617,32.6911159,-103.07525,1154.76199,102.208034,-0.145077368,0.261234723,,,,,,,,,,,,,,2023-04-19 14:42:40.863663+00:00,1.0593021262020252,0.01397242458564461,2.5801180658416447,2.57521041503829,0.15906147227014647,0.52677383,183.53446374014635,0.2434285565501538,0.20625144992782235,,,,,,,,0.3710670987862698,-0.9286060565160775,,,,,,,,,,,,
2023-04-19 07:42:41.062960-07:00,21.87847,2.47,-2.45,-0.14,0.34,18.73,887.34,48.27,85.0,0.0,-9.62903e-05,0.00127458,-0.00177733,32.6911159,-103.07525,1154.76235,102.213282,-0.142194381,0.256807515,,,,,,,,,,,,,,2023-04-19 14:42:41.062960+00:00,1.0590600147310372,0.013968211703498254,2.4552408756216817,2.4254406274304534,0.3813732032186981,0.33822267,188.93595073758956,0.24304279745867685,0.20161941464948716,,,,,,,,0.9971585060040065,0.07533202442426308,,,,,,,,,,,,
2023-04-19 07:42:41.263569-07:00,22.079079,2.38,-2.38,-0.08,0.18,18.51,887.32,49.03,92.0,0.0,0.00112049,0.000779342,-0.000684507,32.6911158,-103.07525,1154.76235,102.21789,-0.142952831,0.261086699,,,,,,,,,,,,,,2023-04-19 14:42:41.263569+00:00,1.0598349783800687,0.013981509535546038,2.3823113593834577,2.34380241316936,0.426611838875741,0.179315493,190.31587193545005,0.24301502691499183,0.19919204478280614,,,,,,,,0.5710006442987274,-0.8209496112493374,,,,,,,,,,,,
2023-04-19 07:42:41.463726-07:00,22.279236,4.06,-4.05,-0.02,0.33,18.49,887.32,49.05,85.0,0.0,0.000167693,0.000944808,-0.000284205,32.6911158,-103.07525,1154.7605199999998,102.22515,-0.139480499,0.252582894,2.48264,95.0785,13332.5,26.6457,11673.0,0.828746,0.155609,12.0,-1210.0,74.0,,0.0,,2023-04-19 14:42:41.463726+00:00,1.0599076594237102,0.013982727446238838,4.05100844175026,3.9633381923813187,0.8382241752320467,0.32971579500000003,191.94176549315154,0.24301591821778712,0.25533361102776436,3.735963247313309,191.4111230839656,3.6550853411798157,0.7674749736050901,0.33349631399999996,0.24636687729292434,0.24302693569675501,0.9846114736890202,-0.17475767759939978,0.11691043912855525,0.2389580663543102,,,,,,,,,,
2023-04-19 07:42:41.663516-07:00,22.479026,4.93,-4.91,0.08,0.52,17.54,887.3,52.0,78.0,0.0,0.000390185,-8.04867e-05,-0.000250835,32.6911158,-103.07525,1154.7622299999998,102.225429,-0.136529102,0.254446887,2.48264,95.0785,13332.5,26.6457,11673.0,0.828746,0.155609,12.0,-1210.0,74.0,,0.0,,2023-04-19 14:42:41.663516+00:00,1.0633475609376537,0.01404074159077855,4.910662157189115,4.781629886326995,1.1183105347951225,0.519749165,193.1635293076742,0.24303473502859863,0.28828003780413036,4.298472217698844,191.48209409445622,4.209733415224056,0.8612923499437267,0.3380160188,0.2671955073368554,0.2430647274624008,0.20202492379261056,0.9793803807339567,4.296932836351136,0.23339917620085393,,,,,,,,,,
2023-04-19 07:42:41.863650-07:00,22.67916,4.89,-4.88,0.04,0.3,17.49,887.27,52.27,81.0,0.0,0.000191784,0.000397025,0.000478447,32.6911157,-103.07525,1154.76504,102.227699,-0.141129963,0.257161061,,,,,,,,,,,,,,2023-04-19 14:42:41.863650+00:00,1.063494534582026,0.014043684090207606,4.880593402622028,4.761215586590952,1.0728551159038417,0.300478447,192.69849794596266,0.2430262008637207,0.28740927820043377,,,,,,,,0.9004479350556824,-0.43496381028076064,,,,,,,,,,,,
2023-04-19 07:42:42.063908-07:00,22.879418,5.28,-5.26,-0.27,0.36,17.68,887.27,51.6,90.0,0.0,0.000603967,0.000773286,0.000821194,32.6911157,-103.07525,1154.7686999999999,102.224139,-0.139514464,0.258500885,,,,,,,,,,,,,,2023-04-19 14:42:42.063908+00:00,1.0627997508197917,0.01403202007961373,5.26778572754936,5.198680997651656,0.8504600849118817,0.360821194,189.29080579004258,0.24323175628690583,0.3057625648691425,,,,,,,,0.7881048061245096,-0.6155410746355187,,,,,,,,,,,,
2023-04-19 07:42:42.262919-07:00,23.078429,5.16,-5.12,-0.23,0.57,18.2,887.27,49.99,90.0,0.0,0.00160525,0.000461101,0.00107148,32.6911157,-103.07525,1154.77615,102.229688,-0.13799226,0.24982694,,,,,,,,,,,,,,2023-04-19 14:42:42.262919+00:00,1.0609028712233397,0.014000197917489333,5.125887495367468,5.05299035534166,0.8614006524194978,0.57107148,189.67440748779342,0.24318595842329072,0.2995967480607699,,,,,,,,0.27608157254407845,-0.9611342077470705,,,,,,,,,,,,
