Timestamp,Seconds,S,Um,Vm,Wm,T,P,H,MD,Sts,Vx,Vy,Vz,Lat,Lon,Alt,Yaw,Roll,Pitch,CH4,C2H6,H20,T_a,Batt,R,C2C1,Power,Current,SOC,Lat_a,Lon_a,TS,Timestamp_UTC,Rho,Rho_err,Sc,V,U,W,WD,V_err,U_err,Sc_avg,WD_avg,V_avg,U_avg,W_avg,U_err_avg,V_err_avg,Nx,Ny,cross_wind,cross_wind_err,CH4_sub,CH4_res,CH4_adj,CH4_adj_err,BG_Samples_CH4,C2H6_sub,C2H6_res,C2H6_adj,C2H6_adj_err,BG_Samples_C2H6,x_dist,y_dist,s_dist,z_dist,velocity_s,velocity_z,x_src_dist,y_src_dist,s_src_dist,collecting,group,transect_num
2023-04-19 07:42:19.604317-07:00,0.419827,4.6,-4.56,0.08,0.63,18.82,887.32,48.28,87.0,0.0,-0.00105289,0.0021911,0.00213131,32.6911164,-103.075249,1154.60269,101.870308,-0.125900201,0.234627179,2.48027,94.3067,13392.0,26.5951,11642.0,0.946195,0.162529,14.0,-1180.0,74.0,,0.0,,2023-04-19 14:42:19.604317+00:00,1.058709695497246,0.01396265944322342,4.562603343904456,4.448222987777571,1.015215014080911,0.63213131,192.85637332673102,0.24210210527635342,0.275343654258136,4.389302888945574,189.58574296523145,4.323790019716562,0.7382937752004904,0.48270142940000005,0.27061096735591067,0.24225372002961265,0.9013364965348571,0.4331195216268477,2.5381689897072794,0.2244942647768411,,,,,,,,,,,0.6012305816832988,0.46851145501824154,0.762221224996095,-0.46275999999988926,0.762221224996095,-0.46275999999988926,-11.089363355611573,-22.675927223927566,25.242259310482492,False,,
2023-04-19 07:42:20.654287-07:00,1.469797,2.8,-2.74,0.2,0.57,18.46,887.35,49.44,83.0,0.0,-0.00297847,0.00277367,0.0061571,32.6911164,-103.075249,1154.5709499999998,101.899165,-0.133298844,0.245787512,2.47935,94.7724,13368.8,26.5973,11689.0,0.957604,0.166339,12.0,-1229.0,74.0,,0.0,,2023-04-19 14:42:20.654287+00:00,1.0600525385013457,0.013984682501009201,2.7491325324246167,2.6426585378985274,0.7576843227277458,0.5761571,195.99828069547982,0.2422816403513293,0.20924085446031546,3.0466428872717026,192.4939208158723,2.9375708613625773,0.6755749634677961,0.498264818,0.21962781179956553,0.2426835966620481,0.68149903613003,0.7318190102435438,2.6101738867195188,0.16521928059777286,,,,,,,,,,,0.6012305786918742,0.4685114526871614,0.762221221203661,-0.49450000000001637,-3.792434033478287e-09,-0.03174000000012711,-11.089363358602997,-22.675927226258647,25.242259313890763,False,,
2023-04-19 07:42:21.663021-07:00,2.478531,3.65,-3.53,0.53,0.77,18.19,887.34,50.23,79.0,0.0,-0.00136573,0.00135179,0.00463794,32.6911164,-103.075249,1154.57217,101.908187,-0.131934198,0.247379068,2.48306,93.8564,13391.6,26.5991,11658.0,0.954747,0.157606,14.0,-1213.0,74.0,,0.0,,2023-04-19 14:42:21.663021+00:00,1.0610229872303671,0.014001107410953628,3.570355749403274,3.346022140980286,1.2456227395831838,0.77463794,200.4187752795471,0.243045154229072,0.2330553133964403,3.5368089306582666,205.3777429371618,3.191115124323938,1.5124881020948933,0.5527776839999999,0.22786747181836287,0.24437526863163006,0.7034702964007478,0.7107246598239321,3.3319946646774348,0.16719342102155235,,,,,,,,,,,0.6012305788068565,0.46851145277676187,0.7622212213494318,-0.49327999999991334,1.4577083984335104e-10,0.0012200000001030276,-11.089363358488015,-22.675927226169044,25.242259313759757,False,,
2023-04-19 07:42:24.463590-07:00,5.2791,3.94,-3.88,0.61,0.3,18.52,887.32,49.26,79.0,0.0,0.00120159,0.000655431,-0.00193679,32.6911163,-103.07525,1154.5928,101.96538,-0.12381018,0.234445083,2.48578,95.5121,13344.7,26.6067,11619.0,0.970121,0.156821,14.0,-1191.0,74.0,,0.0,,2023-04-19 14:42:24.463590+00:00,1.0597986415960876,0.013980900661018812,3.9286993967068162,3.669889281611466,1.4023521706040114,0.29806320999999997,200.91304839954608,0.24347115806405564,0.24481196522297868,4.0158959051134975,206.81109248036313,3.5728808240559693,1.7996486532491656,0.5149000991999999,0.2413678499507681,0.24579874748326,0.4788624196405826,-0.8778899606761468,-2.2748120975332426,0.19735486189167162,,,,,,,,,,,0.5900966813437275,0.37480916456859653,0.6990679531901673,-0.4726499999999305,-0.06315326815926448,0.02062999999998283,-11.100497255951144,-22.76962951437721,25.331345553510904,False,,
2023-04-19 07:42:25.663086-07:00,6.478596,3.6,-3.56,0.1,0.55,18.99,887.33,47.84,86.0,0.0,-0.00321757,0.00195014,-0.00361765,32.6911163,-103.07525,1154.58962,101.984349,-0.119808696,0.237283424,2.48616,95.966,13335.0,26.609,11619.0,0.971154,0.160023,14.0,-1191.0,74.0,,0.0,,2023-04-19 14:42:25.663086+00:00,1.058105543393623,0.013952386586176183,3.5625453115353296,3.463593204348888,0.8338172530780116,0.54638235,193.53568842865087,0.24241357990909343,0.2370821210061104,3.5973251460417117,194.22494358554985,3.481936924108531,0.8908833547179394,0.46988799640000006,0.23783779777322755,0.24252571987816074,0.5183206833684837,0.8551863359481534,3.439468149349968,0.18852790780902695,,,,,,,,,,,0.5900966810495698,0.37480916438175754,0.6990679528416883,-0.47582999999985987,-3.484790234153934e-10,-0.0031799999999293505,-11.100497256245301,-22.76962951456405,25.33134555380775,False,,
2023-04-19 07:42:26.463561-07:00,7.279071,3.12,-3.03,0.76,0.06,18.44,887.33,49.56,81.0,0.0,-0.00078476,0.000677691,-0.00028051,32.6911162,-103.07525,1154.5846199999999,101.997,-0.127952543,0.242132554,2.4902,95.1457,13354.0,26.6113,11678.0,0.969711,0.154956,11.0,-1207.0,74.0,,0.0,,2023-04-19 14:42:26.463561+00:00,1.0601013527453378,0.01398581576865791,3.1241236812889923,2.806523941558093,1.3724329278518161,0.05971949,206.0593370468779,0.2441770861818535,0.21428087635358462,3.3259293708521995,196.66006780736285,3.167904483696213,0.951570290196807,0.1829864992,0.2266765815815448,0.2429924997032226,0.6535887841779185,0.756849853799834,3.019563714366878,0.1695598516812245,,,,,,,,,,,0.5789627811938737,0.37480916450780916,0.6896954485907437,-0.480829999999969,-0.009372504250944602,-0.005000000000109139,-11.111631156100998,-22.769629514437998,25.33622653778578,False,,
2023-04-19 07:42:27.463146-07:00,8.278656,3.05,-3.04,0.09,0.21,18.85,887.33,47.62,86.0,0.0,-0.000976466,0.000282687,0.00222114,32.6911161,-103.07525,1154.57107,102.016909,-0.122631418,0.239799304,2.49104,95.8071,13372.0,26.6133,11685.0,0.973837,0.152122,11.0,-1213.0,74.0,,0.0,,2023-04-19 14:42:27.463146+00:00,1.0586128542705924,0.013960880420081511,3.0413752699482055,2.9549267025905896,0.7199803573498552,0.21222114,193.69353680486677,0.24249336863042925,0.21916608310343802,3.012862026068809,189.41293958584336,2.9694250926016794,0.488169384325433,0.39997304600000005,0.2200349805185226,0.24259675855055352,0.2780814843106847,0.9605574881721377,2.988054375253036,0.22448269727364592,,,,,,,,,,,0.5678288805945799,0.3748091641315108,0.6803760336418792,-0.4943799999998646,-0.009319414948864568,-0.01354999999989559,-11.122765056700292,-22.769629514814298,25.341111474212322,False,,
2023-04-19 07:42:28.463229-07:00,9.278739,4.47,-4.39,-0.72,0.44,17.49,887.28,52.67,89.0,0.0,0.00108087,-0.000356712,0.00212021,32.6911162,-103.07525,1154.5768099999998,102.019773,-0.126762484,0.247653239,2.48434,95.077,13376.5,26.6161,11628.0,0.973848,0.151129,15.0,-1178.0,74.0,,0.0,,2023-04-19 14:42:28.463229+00:00,1.0635065207253034,0.01404372707201562,4.4483463245803065,4.443335465534725,0.2110804683726848,0.44212021,182.71978894182104,0.2440547798319045,0.27490237744345775,4.3123629299318065,185.34294414558934,4.282447418798594,0.4111201732222458,0.48061178800000004,0.2689459838363021,0.24346644375742713,0.31339718219406854,0.9496221386387418,4.19555078027847,0.22113705533756586,,,,,,,,,,,0.5789627804850606,0.37480916404893744,0.6896954477463627,-0.48864000000003216,0.009319414104483559,0.005739999999832435,-11.11163115680981,-22.76962951489687,25.336226538509028,False,,
2023-04-19 07:42:29.662893-07:00,10.478403,2.97,-2.96,-0.03,0.26,18.72,887.3,48.12,87.0,0.0,-0.00060831,0.000331148,0.00196902,32.6911162,-103.07525,1154.64187,102.042614,-0.130386569,0.245485354,2.48274,95.5187,13352.8,26.6184,11672.0,0.974596,0.150743,12.0,-1202.0,74.0,,0.0,,2023-04-19 14:42:29.662893+00:00,1.0590485575392006,0.01396864949291515,2.960355759594142,2.9014486990398125,0.5876237488413727,0.26196902,191.44912115687256,0.24253893662849915,0.21729565945393456,2.6153701289646856,190.23710280813071,2.571158799425622,0.448552978090779,0.384470164,0.20709249418862502,0.2426531825633343,0.478120376419995,0.878294316076338,2.4726964779942584,0.1930767139448163,,,,,,,,,,,0.5789627863897189,0.3748091678714976,0.6896954547803484,-0.4235799999999017,7.0339857272117e-09,0.06506000000013046,-11.111631150905152,-22.76962951107431,25.336226532484112,False,,
2023-04-19 07:42:30.463768-07:00,11.279278,3.78,-3.52,0.43,1.29,18.67,887.3,48.29,91.0,0.0,0.000938483,0.000283757,0.000739665,32.6911162,-103.07525,1154.67751,102.060371,-0.132342443,0.248094377,2.48888,95.1725,13313.7,26.6206,11632.0,0.974229,0.147778,13.0,-1203.0,74.0,,0.0,,2023-04-19 14:42:30.463768+00:00,1.0592300133265935,0.013971688982895896,3.5467412191757677,3.352745115195968,1.1569241411302584,1.290739665,199.03790208433273,0.24314559892464924,0.232918563280481,3.486132704790381,199.0146017524511,3.2554348498769814,1.1820782066002926,0.8933017185999998,0.22988211031628084,0.2438368664931983,0.2894171458681162,-0.9572030691956401,-2.7739985291215365,0.22424079140505226,,,,,,,,,,,0.5789627896243026,0.3748091699655038,0.6896954586335801,-0.3879399999998441,3.8532316226636e-09,0.035640000000057626,-11.111631147670568,-22.769629508980305,25.33622652918365,False,,
2023-04-19 07:42:31.663369-07:00,12.478879,4.51,-4.41,0.33,0.88,18.48,887.33,48.87,80.0,0.0,-0.000804334,0.000595426,-0.00255739,32.691116,-103.07525,1154.68203,102.073455,-0.121255822,0.236326603,2.48468,95.6995,13327.4,26.6235,11663.0,0.973397,0.151112,12.0,-1187.0,74.0,,0.0,,2023-04-19 14:42:31.663369+00:00,1.0599559491376505,0.013983379068937951,4.422674678272803,4.24402269114009,1.2443161603561488,0.87744261,196.34074808896048,0.24294852596669023,0.26674628341433865,4.134990134176453,195.99453953273778,3.949215806908223,1.1674572334672437,0.42429069259999996,0.25569360915811273,0.24338125398816463,0.5949842973695049,0.8037373239334581,3.8687508660435816,0.18141760938663581,,,,,,,,,,,0.5566949901998924,0.3748091710707206,0.671111933161957,-0.3834199999998873,-0.018583525471623008,0.004519999999956781,-11.133898947094979,-22.769629507875088,25.346000348970616,False,,
2023-04-19 07:42:32.663197-07:00,13.478707,4.36,-4.23,-1.05,0.03,17.65,887.31,51.53,79.0,0.0,-0.00365189,0.000201436,0.00723469,32.6911161,-103.07525,1154.71353,102.09405,-0.125779429,0.242529483,2.48715,95.7709,13331.5,26.6255,11693.0,0.972603,0.153098,10.0,-1216.0,74.0,,0.0,,2023-04-19 14:42:32.663197+00:00,1.062957311353675,0.014034032128503878,4.3586917831949,4.356309457923166,-0.14409013741376808,0.03723469,178.10556433073506,0.24600053888234769,0.27120075484448153,4.264612310202847,183.92482519110808,4.217242681335018,0.2770766902969983,0.269380706,0.2659335078762312,0.2448272388359428,0.05507566142226581,0.9984821838765577,4.226101864379618,0.24408593034818996,,,,,,,,,,,0.5678288932751999,0.3748091725016602,0.6803760488358755,-0.35191999999983636,0.009264115673918494,0.03150000000005093,-11.12276504401967,-22.769629506444147,25.34111146112573,False,,
2023-04-19 07:42:33.662833-07:00,14.478343,3.66,-3.63,0.33,0.34,17.76,887.33,51.23,80.0,0.0,-0.000397516,0.00306745,0.0266267,32.6911161,-103.07525,1154.82375,102.101238,-0.134424066,0.251843893,2.48368,95.7711,13302.9,26.6276,11634.0,0.968657,0.154987,13.0,-1202.0,74.0,,0.0,,2023-04-19 14:42:33.662833+00:00,1.0625793319136951,0.01402737204557162,3.64777993172532,3.483223059675945,1.0832615320594225,0.3666267,197.27538123893453,0.24302085451356337,0.23744517190994763,4.065818089608884,190.03502493003086,3.9871181785564787,0.6988133212918811,0.47267748000000004,0.2567271090484068,0.2431912727536379,0.9917073038996238,0.12851701596340936,1.2054308053890557,0.25251879197092975,,,,,,,,,,,0.5678289030860796,0.3748091789775682,0.6803760605913315,-0.24169999999980973,1.1755455942008552e-08,0.11022000000002663,-11.122765034208792,-22.76962949996824,25.341111451000753,False,,
2023-04-19 07:42:34.463525-07:00,15.279035,4.2,-4.04,-1.12,0.24,17.61,887.31,51.72,79.0,0.0,-0.0012255,0.00061219,0.00549595,32.6911161,-103.07525,1154.8146,102.122206,-0.137090544,0.257544196,2.48436,96.0442,13290.8,26.6304,11632.0,0.966618,0.163457,13.0,-1190.0,74.0,,0.0,,2023-04-19 14:42:34.463525+00:00,1.0631035429276676,0.014036486792465613,4.193057422771038,4.1857251595412635,-0.2478617345185895,0.24549595,176.61113275758876,0.24652274062336443,0.2643155866056877,4.099028745475399,180.45640877275406,4.095273274912428,0.030496650305330074,0.331472362,0.2607782025359791,0.24492149737065755,0.44688653450940125,0.8945906467620695,3.6772217100404205,0.2028095639898604,,,,,,,,,,,0.5678289022716216,0.3748091784399656,0.680376059615443,-0.2508499999999003,-9.758884811361668e-10,-0.009150000000090586,-11.12276503502325,-22.769629500505843,25.34111145184129,False,,
2023-04-19 07:42:35.463008-07:00,16.278518,3.65,-3.6,-0.54,-0.26,17.47,887.26,52.29,79.0,0.0,-0.00274077,0.00250173,0.00606134,32.691116,-103.07525,1154.80813,102.127816,-0.139812078,0.261966175,2.48079,95.4001,13267.5,26.6326,11632.0,0.959074,0.166898,13.0,-1190.0,74.0,,0.0,,2023-04-19 14:42:35.463008+00:00,1.0635557355936887,0.01404487003698027,3.6426007111390284,3.635604956605994,0.22564693725483093,-0.25393866,183.55155593197506,0.24364289356445973,0.24303550908435437,4.111582652228983,189.44223882040106,3.9992374282331626,0.7008213014468846,0.181537526,0.2579785830311577,0.24420444159485272,0.6741646936738646,0.7385810489063637,3.4262299525800954,0.17746467545089503,,,,,,,,,,,0.5566950012041934,0.37480917847964823,0.6711119464279603,-0.25731999999993604,-0.009264113187482659,-0.006470000000035725,-11.133898936090677,-22.76962950046616,25.346000337480863,False,,
2023-04-19 07:42:36.463081-07:00,17.278591,4.79,-4.73,0.74,0.19,18.06,887.28,50.32,82.0,0.0,-0.00565632,0.0035731,0.0163458,32.691116,-103.07525,1154.8874799999999,102.153211,-0.143937782,0.257281818,2.48148,96.143,13255.7,26.6345,11682.0,0.941745,0.171305,10.0,-1211.0,74.0,,0.0,,2023-04-19 14:42:36.463081+00:00,1.061424865848021,0.014008793745038349,4.788843980734297,4.471775361747741,1.7135494699252116,0.2063458,200.9664431002488,0.24447935991557515,0.275585591426413,4.31056049708531,193.10290881205518,4.166477889032608,0.9961572216099652,0.424494596,0.2634726438241851,0.24355990993449125,0.5340664332363076,0.8454425142434278,4.054531676331202,0.18961749863807903,,,,,,,,,,,0.5566950081287872,0.37480918314180856,0.6711119547757589,-0.17796999999995933,8.347798563512754e-09,0.07934999999997672,-11.133898929166083,-22.769629495803997,25.34600033025079,False,,
2023-04-19 07:42:37.463169-07:00,18.278679,4.41,-4.39,-0.03,0.41,18.31,887.29,49.62,85.0,0.0,-0.00334385,0.00538259,-0.00642337,32.691116,-103.07525,1154.8927199999998,102.159699,-0.14006153,0.260760874,2.47996,94.8718,13261.3,26.6368,11620.0,0.928492,0.169346,14.0,-1182.0,74.0,,0.0,,2023-04-19 14:42:37.463169+00:00,1.060526380416813,0.013993570388677521,4.394692146025305,4.303208963292156,0.8920267241392196,0.40357663,191.71117064287373,0.24284612277982684,0.2687105559644003,4.033022147416301,188.61529669494126,3.970831201135005,0.6041243740812346,0.44559464000000004,0.25628582941417,0.2434688730316777,0.8494327732480593,0.5276968483249744,2.608558152531986,0.19695604113308127,,,,,,,,,,,0.5566950085860635,0.3748091834496815,0.6711119553270186,-0.17273000000000138,5.512597045509438e-10,0.005239999999957945,-11.133898928708808,-22.769629495496126,25.346000329773343,False,,
2023-04-19 07:42:37.663097-07:00,18.478607,4.66,-4.63,0.19,0.43,18.17,887.3,49.98,92.0,0.0,-0.00219792,0.00636067,-0.00847324,32.691116,-103.07525,1154.88674,102.164469,-0.142118616,0.257088703,2.47996,94.8718,13261.3,26.6368,11620.0,0.928492,0.169346,14.0,-1182.0,74.0,,0.0,,2023-04-19 14:42:37.663097+00:00,1.0610479970100457,0.014002157952835657,4.6395051595339885,4.492365610040731,1.1591632115737074,0.42152676,194.46841737530013,0.2429651295783463,0.2762817690410821,3.8937659974369594,190.80700193658984,3.817256779657227,0.7492635941728911,0.38780123800000005,0.2502129162544794,0.24294954167316743,0.9451627945952721,0.3265995892723313,1.9548905689400202,0.2250206160381813,,,,,,,,,,,0.55669500806421,0.37480918309833033,0.6711119546979093,-0.17870999999991,-6.29109320193777e-10,-0.005979999999908614,-11.13389892923066,-22.769629495847475,25.346000330318216,False,,
2023-04-19 07:42:39.663287-07:00,20.478797,4.44,-4.38,0.4,0.56,18.57,887.33,48.74,86.0,0.0,0.000530164,0.00062143,-0.0117768,32.6911159,-103.07525,1154.79128,102.190064,-0.148237547,0.261017276,2.482,95.3915,13307.4,26.6415,11670.0,0.892228,0.165996,15.0,-1204.0,74.0,,0.0,,2023-04-19 14:42:39.663287+00:00,1.0596289368127416,0.013977899646956251,4.398978506476499,4.1974013792994285,1.3163713615456163,0.5482232,197.41224860044395,0.24340588862190718,0.2646145551947629,4.613222855507377,195.72948376554115,4.430947836709168,1.249902566623319,0.5916684140000001,0.2742011169086399,0.24344694847581394,0.7607609518495925,-0.6490321826696285,-1.9249506794510152,0.1889469212970428,,,,,,,,,,,0.5455610999798798,0.3748091779094604,0.6619054567356443,-0.27416999999991276,-0.009206497962265026,-0.09546000000000276,-11.145032837314991,-22.76962950103635,25.350893170839054,False,,
2023-04-19 07:42:40.463792-07:00,21.279302,3.56,-3.4,0.94,0.4,18.41,887.32,49.31,90.0,0.0,-0.000497422,0.00101781,-0.00548409,32.6911159,-103.07525,1154.76748,102.19621,-0.143622029,0.258387893,2.48034,95.0446,13323.6,26.643,11621.0,0.870291,0.164562,14.0,-1201.0,74.0,,0.0,,2023-04-19 14:42:40.463792+00:00,1.0601984833116027,0.013987601245219904,3.5282195666626257,3.1256948375169085,1.6365711390896371,0.39451591,207.6359404070442,0.24559331489279163,0.22447640958017648,3.635360200893042,196.9335613203215,3.434617219109083,1.0964353964489317,0.564852296,0.23681614243613844,0.2439375276124093,0.8984449573787539,0.4390861630257656,2.49317974923195,0.19685916955709434,,,,,,,,,,,0.5455610979444769,0.3748091765111062,0.661905454266179,-0.2979699999998502,-2.469465298915452e-09,-0.023799999999937427,-11.145032839350394,-22.7696295024347,25.35089317298985,False,,
2023-04-19 07:42:40.663691-07:00,21.479201,3.15,-3.13,0.18,0.35,18.58,887.32,48.71,81.0,0.0,0.00057455,0.000441037,-0.00532003,32.6911159,-103.07525,1154.76272,102.201204,-0.145406191,0.262368066,2.48034,95.0446,13323.6,26.643,11621.0,0.870291,0.164562,14.0,-1201.0,74.0,,0.0,,2023-04-19 14:42:40.663691+00:00,1.0595806732058097,0.013977248544881023,3.1357499587367315,3.0216967255496145,0.8380195120163668,0.34467997,195.50050788691942,0.24304987877133655,0.22089422063345038,3.134408355795323,195.59038027918413,2.96448989079744,0.9050769357271078,0.5116745340000001,0.21952570160808021,0.2439054977591601,0.6089085188463355,-0.7932404526222563,-1.8004442463946913,0.17372041210392797,,,,,,,,,,,0.5455610975373963,0.3748091762314353,0.6619054537722858,-0.30272999999988315,-4.938931486009324e-10,-0.00476000000003296,-11.145032839757475,-22.769629502714373,25.350893173420012,False,,
2023-04-19 07:42:41.463726-07:00,22.279236,4.06,-4.05,-0.02,0.33,18.49,887.32,49.05,85.0,0.0,0.000167693,0.000944808,-0.000284205,32.6911158,-103.07525,1154.7605199999998,102.22515,-0.139480499,0.252582894,2.48264,95.0785,13332.5,26.6457,11673.0,0.828746,0.155609,12.0,-1210.0,74.0,,0.0,,2023-04-19 14:42:41.463726+00:00,1.0599076594237102,0.013982727446238838,4.05100844175026,3.9633381923813187,0.8382241752320467,0.32971579500000003,191.94176549315154,0.24301591821778712,0.25533361102776436,3.735963247313309,191.4111230839656,3.6550853411798157,0.7674749736050901,0.33349631399999996,0.24636687729292434,0.24302693569675501,0.9846114736890202,-0.17475767759939978,0.11691043912855525,0.2389580663543102,,,,,,,,,,,0.534427196940823,0.3748091765219992,0.6527590272337291,-0.304930000000013,-0.009146426538556685,-0.002200000000129876,-11.156166740354047,-22.769629502423808,25.355789950546413,False,,
2023-04-19 07:42:41.663516-07:00,22.479026,4.93,-4.91,0.08,0.52,17.54,887.3,52.0,78.0,0.0,0.000390185,-8.04867e-05,-0.000250835,32.6911158,-103.07525,1154.7622299999998,102.225429,-0.136529102,0.254446887,2.48264,95.0785,13332.5,26.6457,11673.0,0.828746,0.155609,12.0,-1210.0,74.0,,0.0,,2023-04-19 14:42:41.663516+00:00,1.0633475609376537,0.01404074159077855,4.910662157189115,4.781629886326995,1.1183105347951225,0.519749165,193.1635293076742,0.24303473502859863,0.28828003780413036,4.298472217698844,191.48209409445622,4.209733415224056,0.8612923499437267,0.3380160188,0.2671955073368554,0.2430647274624008,0.20202492379261056,0.9793803807339567,4.296932836351136,0.23339917620085393,,,,,,,,,,,0.5344271970840796,0.37480917662246915,0.6527590274087054,-0.30322000000001026,1.7497625570683795e-10,0.0017100000000027649,-11.156166740210791,-22.769629502323337,25.35578995039316,False,,
2023-04-19 07:42:43.663629-07:00,24.479139,3.49,-3.34,1.0,0.24,18.76,887.33,48.27,81.0,0.0,-0.00171938,0.00144221,-0.0210803,32.6911157,-103.07525,1154.69778,102.246129,-0.129540273,0.24926179,2.48343,95.488,13358.6,26.6446,11623.0,0.709018,0.138493,14.0,-1192.0,74.0,,0.0,,2023-04-19 14:42:43.663629+00:00,1.0589392396526773,0.013966346292329587,3.4869200236492617,3.0533303290321117,1.6839789645772967,0.2189197,208.87770374694054,0.24606175153443394,0.22181578270038338,3.503339844942965,200.3375057781945,3.256495718193232,1.2206035199295042,0.47121791999999996,0.22901033798311454,0.24436633721382645,0.6426513309163722,0.7661587739309754,3.2794152433663024,0.1718182255418161,,,,,,,,,,,0.5232932920940437,0.37480917325557267,0.643675217720201,-0.36766999999986183,-0.009083809688504418,-0.06444999999985157,-11.167300645200827,-22.769629505690233,25.360690675269513,False,,
2023-04-19 07:42:44.463452-07:00,25.278962,3.18,-3.15,0.33,0.18,18.03,887.31,50.53,79.0,0.0,-0.00166661,0.00441034,-0.0193681,32.6911156,-103.07525,1154.6512699999998,102.271506,-0.139111349,0.258965903,2.47847,95.4892,13373.4,26.646,11623.0,0.639569,-1.0,14.0,-1192.0,74.0,,0.0,,2023-04-19 14:42:44.463452+00:00,1.0615701151921448,0.014010756236104895,3.1709063954076577,3.012297567115707,0.9903084042791813,0.1606319,198.1985470780815,0.24346296064059023,0.22023490764151088,3.402246596142432,198.55371798278892,3.20442222323497,1.0533476725819972,0.291043786,0.2273570678177431,0.24398846423157766,0.9354383227786743,0.35348994932956823,2.1180728294647957,0.20127010486351551,,,,,,,,,,,0.5121593887692962,0.37480917094272986,0.6346567214859664,-0.41417999999998756,-0.009018496234234563,-0.04651000000012573,-11.178434548525574,-22.769629508003078,25.365595338714105,False,,
2023-04-19 07:42:45.663667-07:00,26.479177,4.56,-4.48,-0.69,0.44,17.99,887.31,50.73,89.0,0.0,5.79754e-05,0.000719856,-0.00378974,32.6911157,-103.07525,1154.6499299999998,102.287639,-0.126786726,0.245880361,2.47926,95.0727,13376.2,26.6477,11688.0,0.588798,-1.0,14.0,-1214.0,74.0,,0.0,,2023-04-19 14:42:45.663667+00:00,1.061715965314449,0.014013202636625723,4.533546786658991,4.524935344271199,0.27929661113473053,0.43621026,183.53203743866786,0.24460330380267828,0.2775531967363784,4.601801044176252,190.98495866437207,4.49243768905947,0.861300366411019,0.4514058362,0.2763743631626775,0.24395047260088662,0.9967725480166909,-0.08027756548571692,0.4978786000612466,0.27459777248573863,,,,,,,,,,,0.5232932881688854,0.37480917044417544,0.6436752128920727,-0.415520000000015,0.009018491406106333,-0.0013400000000274304,-11.167300649125986,-22.76962950850163,25.360690679522076,False,,
2023-04-19 07:42:46.463472-07:00,27.278982,4.06,-4.03,0.36,0.27,17.68,887.3,51.66,83.0,0.0,-0.00117326,0.00142499,0.000506716,32.6911157,-103.07525,1154.68313,102.288401,-0.134003266,0.253045778,2.48109,95.1836,13385.4,26.6502,11630.0,0.518868,-1.0,15.0,-1185.0,74.0,,0.0,,2023-04-19 14:42:46.463472+00:00,1.0628356857578878,0.014032148796368684,4.04705686599724,3.862472640476685,1.2082939949302332,0.27050671600000004,197.37120357848318,0.24356877739348953,0.2512622482319539,4.2500123645860155,190.0819903980479,4.171766734827771,0.7347492139934343,0.3069155068,0.2635005853150164,0.24362550031789235,0.7719996653926615,0.6356229358933004,3.218896767203688,0.1853386166761309,,,,,,,,,,,0.5232932908922973,0.3748091723948209,0.6436752162419965,-0.38231999999993604,3.349923782813846e-09,0.033200000000078944,-11.167300646402573,-22.769629506550988,25.360690676571505,False,,
2023-04-19 07:42:46.663386-07:00,27.478896,4.06,-4.01,-0.38,0.49,17.84,887.29,51.14,91.0,0.0,0.000476915,0.000342936,0.00130127,32.6911157,-103.07525,1154.70046,102.291313,-0.132941291,0.255666755,2.48109,95.1836,13385.4,26.6502,11630.0,0.518868,-1.0,15.0,-1185.0,74.0,,0.0,,2023-04-19 14:42:46.663386+00:00,1.0622393169397037,0.014022298688509295,4.028362350759851,3.9993204173366306,0.48284513924630756,0.49130127,186.88410348077235,0.24362065730043872,0.2565917959514973,4.057350904785824,190.1014579349455,3.9807666374660586,0.7094616297102492,0.32948993460000003,0.25591570406665587,0.2436007498793856,0.5838081630968049,-0.8118916360583686,-2.817761647230083,0.18273484641301832,,,,,,,,,,,0.5232932923138853,0.37480917341303444,0.6436752179906164,-0.36498999999980697,1.7486199155314353e-09,0.017330000000129075,-11.167300644980985,-22.769629505532773,25.360690675031336,False,,
2023-04-19 07:42:47.463467-07:00,28.278977,3.67,-3.65,-0.2,0.34,18.32,887.3,49.64,87.0,0.0,0.000467442,0.000505544,0.000376861,32.6911157,-103.07525,1154.71389,102.299125,-0.124917505,0.242986736,2.47573,94.5508,13396.1,26.6532,11654.0,0.415758,-1.0,11.0,-1199.0,74.0,,0.0,,2023-04-19 14:42:47.463467+00:00,1.0605019469892836,0.013993003096563822,3.656048893681138,3.6093368579302507,0.5825641243444877,0.34037686100000003,189.168737078594,0.24332795881090546,0.2416796180686824,3.8791972486824826,194.598687318298,3.711558917500997,0.9851596216168435,0.694574612,0.24554736107235264,0.24422772389923475,0.734234230387766,-0.6788962328124121,-1.796425450365795,0.17376365790091525,,,,,,,,,,,0.5232932934155546,0.37480917420210574,0.6436752193457211,-0.3515599999998358,1.3551046951221224e-09,0.013429999999971187,-11.167300643879317,-22.7696295047437,25.360690673837773,False,,
2023-04-19 07:42:48.663122-07:00,29.478632,3.71,-3.67,-0.34,0.45,18.56,887.32,49.0,90.0,0.0,-0.000574085,0.000647413,-0.00103465,32.6911156,-103.07525,1154.7084,102.321569,-0.119325977,0.239538554,2.47793,95.0809,13411.2,26.6551,11685.0,0.368952,-1.0,14.0,-1229.0,74.0,,0.0,,2023-04-19 14:42:48.663122+00:00,1.0596533193731132,0.013978465701540368,3.6862880269145846,3.6586654815595776,0.450429030390189,0.44896535,187.01853404333303,0.24361261579407298,0.2434627917093317,4.144559468370732,189.67987369750307,4.0395712736436975,0.7674569338325621,0.7124629342,0.25884705532141394,0.2441362888892677,0.748208291313634,0.6634639046772117,3.254327371553207,0.18040690852932642,,,,,,,,,,,0.5121593933559866,0.3748091742993677,0.6346567271696929,-0.35704999999984466,-0.009018492176028237,-0.005490000000008877,-11.178434543938884,-22.76962950464644,25.365595333679668,False,,
2023-04-19 07:42:49.663030-07:00,30.47854,4.9,-4.79,1.0,0.21,17.51,887.31,52.21,86.0,0.0,0.000306715,0.000115291,-0.00112119,32.6911155,-103.07525,1154.72451,102.324557,-0.124146421,0.246446285,2.47415,95.1155,13441.4,26.6573,11639.0,0.344435,-1.0,15.0,-1187.0,74.0,,0.0,,2023-04-19 14:42:49.663030+00:00,1.0634692979482856,0.014042627269374252,4.893501445867741,4.466276683158561,1.9996822223002912,0.20887881,204.1194533009459,0.246251398777855,0.2751074198538317,4.6896878459944125,206.3825648578607,4.203445860756441,2.060386851087455,0.22139247959999997,0.2649188911554257,0.24707856582515975,0.35185344310319894,-0.9360551023184607,-3.209702737600801,0.21896024409510745,,,,,,,,,,,0.5010254950120423,0.3748091756657243,0.6257063726823323,-0.3409399999998186,-0.00895035448736059,0.016110000000026048,-11.189568442282829,-22.769629503280083,25.370503929586707,False,,
2023-04-19 07:42:50.463644-07:00,31.279154,4.09,-3.95,0.33,1.0,17.9,887.3,51.07,90.0,0.0,-0.0017117,0.00164108,0.00264413,32.6911155,-103.07525,1154.7505099999998,102.350837,-0.132616767,0.249365818,2.4733,94.5302,13435.2,26.6596,11637.0,0.394889,-1.0,11.0,-1206.0,74.0,,0.0,,2023-04-19 14:42:50.463644+00:00,1.0620323054078906,0.014018667393912004,3.964825651329533,3.789636887517339,1.1655448108968396,1.00264413,197.09586015485212,0.2436682645649258,0.24830734161723894,4.053822853595905,201.55340840277893,3.741137690124352,1.4705094703011004,0.5700022791999999,0.2467820215339632,0.24530126657932788,0.6920594070172822,0.7218405482922718,3.718184793506123,0.17408861516635094,,,,,,,,,,,0.5010254970540775,0.3748091771933383,0.6257063752325308,-0.3149399999999787,2.550198496820144e-09,0.02599999999983993,-11.189568440240793,-22.76962950175247,25.370503927315067,False,,
2023-04-19 07:42:50.662945-07:00,31.478455,4.62,-4.54,0.75,0.45,17.86,887.3,51.2,82.0,0.0,-0.00238431,0.00227286,0.00428311,32.6911155,-103.07525,1154.76003,102.352394,-0.126225196,0.251764865,2.4733,94.5302,13435.2,26.6596,11637.0,0.394889,-1.0,11.0,-1206.0,74.0,,0.0,,2023-04-19 14:42:50.662945+00:00,1.062178284213486,0.0140211166007135,4.602761814210078,4.27673068225438,1.701467304950182,0.45428311,201.69478909971042,0.2450229323730738,0.2673195736620835,4.165976734473024,196.65428911926423,3.9687967878969888,1.1696917071561985,0.6795028085999999,0.255547931632442,0.24426531651609168,0.689987575884009,0.7238212107459333,3.6797720417725035,0.1765762886420587,,,,,,,,,,,0.5010254978017765,0.37480917775267997,0.6257063761662958,-0.30541999999991276,9.337649542473514e-10,0.00952000000006592,-11.189568439493094,-22.769629501193126,25.370503926483295,False,,
2023-04-19 07:42:52.663308-07:00,33.478818,5.26,-5.16,-0.21,1.02,18.01,887.31,50.73,79.0,0.0,-0.000278228,0.000549902,0.000188276,32.6911154,-103.075251,1154.7937299999999,102.37031,-0.130990139,0.253445161,2.47385,95.1725,13440.8,26.6648,11653.0,0.421123,-1.0,14.0,-1192.0,74.0,,0.0,,2023-04-19 14:42:52.663308+00:00,1.0616430352440196,0.014011979327905892,5.164764478312731,5.085740483548315,0.9000199166900318,1.020188276,190.03568835605392,0.24352525840200295,0.3006783427564274,4.932324806018959,196.0429868077349,4.7314431291950685,1.3481150554925112,0.7215762882000001,0.2859907041395388,0.2440155142556672,0.8922901254565638,0.45146243698973404,3.338978597580034,0.23306886741307326,,,,,,,,,,,0.4898915999821792,0.2811068848163694,0.5648140051594533,-0.2717199999999593,-0.060892371006842416,0.033699999999953434,-11.200702337312691,-22.863331794129437,25.459530113054562,False,,
2023-04-19 07:42:54.663348-07:00,35.478858,5.27,-5.2,0.77,0.32,17.36,887.28,52.78,82.0,0.0,0.000424933,0.00160933,0.00757969,32.6911153,-103.075251,1154.8600099999999,102.39357,-0.117134834,0.240105811,2.46974,94.8549,13427.7,26.6698,11683.0,0.537628,-1.0,10.0,-1221.0,74.0,,0.0,,2023-04-19 14:42:54.663348+00:00,1.0639824280871646,0.014051719116779651,5.258355778234528,4.915168654383967,1.8685348777728914,0.32757969,200.8146419102723,0.24521572553155943,0.29340710661571856,5.1747790230179,201.25492544497348,4.804460128333273,1.8799323565768442,0.28965802199999996,0.28879593202682413,0.24587988972891278,0.9668634869561878,-0.2552939435061506,0.5910883809413836,0.2704488558850723,,,,,,,,,,,0.47875770519828764,0.2811068880519174,0.5551846744975618,-0.20543999999995322,-0.009629330661891533,0.06628000000000611,-11.211836232096584,-22.86333179089389,25.464430334799424,False,,
2023-04-19 07:42:56.463716-07:00,37.279226,4.27,-4.25,0.19,0.41,17.54,887.29,52.29,81.0,0.0,-0.00245389,0.00273014,-0.00193135,32.6911153,-103.075251,1154.88223,102.409754,-0.12037081,0.247345584,2.47075,94.2454,13458.3,26.6744,11617.0,0.66991,-1.0,11.0,-1184.0,74.0,,0.0,,2023-04-19 14:42:56.463716+00:00,1.063335576856047,0.014040698628433872,4.256249686732004,4.112600595489066,1.0964386612069386,0.40806865,194.92810258366956,0.24360380137231769,0.2606475444284564,4.5973865444054045,200.307148069423,4.297035170175273,1.5916352424294504,0.3720065266,0.268038633229005,0.24509701780528922,0.7437323197004598,0.6684775513306135,4.056222119509352,0.18432944693832112,,,,,,,,,,,0.47875770686587993,0.2811068890310592,0.5551846764313619,-0.18321999999989202,1.9338001200353006e-09,0.02222000000006119,-11.211836230428991,-22.86333178991475,25.464430333186062,False,,
2023-04-19 07:42:58.663557-07:00,39.479067,3.62,-3.28,1.46,0.47,17.83,887.29,51.3,89.0,0.0,-0.0139651,0.00339689,0.0037824,32.6911152,-103.075251,1154.8954099999999,102.42673,-0.124377986,0.249254026,2.46851,94.1376,13485.2,26.6789,11678.0,0.726896,0.0651845,12.0,-1200.0,73.0,,0.0,,2023-04-19 14:42:58.663557+00:00,1.0622758225179887,0.014022911230706056,3.5847310954884697,2.892374241799028,2.1176563159161264,0.4737824,216.2097814768347,0.24980228843908975,0.21576264546450383,3.7922673399360187,207.8221955136014,3.3397757539982393,1.7620492081528831,0.70105807,0.23178799355548224,0.24692799111033112,0.23634985696405617,0.9716680220698168,3.6616133793547627,0.233493563290179,,,,,,,,,,,0.4676238072111736,0.2811068899267139,0.5456125994100048,-0.17003999999997177,-0.009572077021357095,0.013179999999920256,-11.222970130083697,-22.863331789019092,25.46933448356124,False,,
2023-04-19 07:42:59.463625-07:00,40.279135,4.12,-3.84,1.17,0.93,17.64,887.3,51.86,92.0,0.0,-0.00880716,0.00273762,0.00848806,32.6911151,-103.075251,1154.91494,102.445413,-0.126163197,0.253698067,2.46952,94.9446,13496.0,26.6816,11621.0,0.714558,0.0620429,14.0,-1186.0,73.0,,0.0,,2023-04-19 14:42:59.463625+00:00,1.0629818855152051,0.014034602790351507,4.012360159886659,3.500358450276857,1.9612559170646477,0.9384880600000001,209.26197312662856,0.247623666556655,0.23716609300413355,3.7297404809999115,201.6348207037567,3.4541702294990273,1.3813271626226182,1.156808666,0.23560305068872425,0.24494968167787096,0.2968307341046625,0.9549301101603652,3.7085115134881423,0.22433006250382184,,,,,,,,,,,0.45648990867309625,0.2811068911021864,0.5361008496034195,-0.1505099999999402,-0.009511749806585312,0.019530000000031578,-11.234104028621775,-22.86333178784362,25.474242555312937,False,,
2023-04-19 07:42:59.662816-07:00,40.478326,4.11,-3.93,0.65,1.03,17.72,887.27,51.64,85.0,0.0,-0.00439252,0.00157849,0.0132131,32.6911152,-103.075251,1154.9266599999999,102.44532,-0.121531625,0.248594373,2.46952,94.9446,13496.0,26.6816,11621.0,0.714558,0.0620429,14.0,-1186.0,73.0,,0.0,,2023-04-19 14:42:59.662816+00:00,1.0626535962145287,0.014029567005348513,3.983224623713027,3.699151760334673,1.4772794782865817,1.0432131,201.76960711898283,0.24484115801811573,0.24463159036474266,3.901264946128476,198.73464348984777,3.6632863736783485,1.2308872537252635,1.0533690880000002,0.24351792034944966,0.2449727098878139,0.3381850885044026,0.9410796172021098,3.863711853082944,0.2187357201823808,,,,,,,,,,,0.4676238095019182,0.28110689130376976,0.5456126020827925,-0.13878999999997177,0.00951175247937297,0.011719999999968422,-11.222970127792953,-22.86333178764204,25.46933448131568,False,,
2023-04-19 07:43:05.463802-07:00,46.279312,4.01,-3.72,1.52,0.04,17.89,887.3,51.2,79.0,0.0,-0.000978984,0.000264745,-0.00323059,32.6911147,-103.075251,1154.8876,102.478513,-0.133426065,0.251689225,2.45922,94.4912,13549.0,26.6942,11686.0,0.727305,0.0555044,13.0,-1231.0,73.0,,0.0,,2023-04-19 14:43:05.463802+00:00,1.062068796347466,0.01401927961413367,4.018217352429186,3.3039559112679453,2.286907524969172,0.03676941,214.68991813425785,0.25043246403603425,0.23001826708249698,4.410033314923121,204.07218230169232,4.001182775359416,1.744921265774486,0.420465336,0.25680456043725486,0.24673493206999791,0.2610512071740035,0.9653249542164521,4.3179553822895045,0.23058558435551363,,,,,,,,,,,0.4119543063205124,0.28110689115689824,0.4987258111947995,-0.17784999999980755,-0.046886790887993024,-0.03905999999983578,-11.278639630974359,-22.86333178778891,25.49391402597695,False,,
2023-04-19 07:43:06.463540-07:00,47.27905,4.55,-4.46,0.69,0.55,17.8,887.31,51.45,81.0,0.0,-0.000625535,0.00512015,-0.00111583,32.6911146,-103.075252,1154.87112,102.477964,-0.141271904,0.258561184,2.46143,93.808,13563.2,26.6964,11662.0,0.754031,0.0588728,14.0,-1209.0,73.0,,0.0,,2023-04-19 14:43:06.463540+00:00,1.0624093010539566,0.014024834899147449,4.517603838038542,4.210687044274842,1.636722045014536,0.54888417,201.24143498358737,0.24508141231909847,0.26427285542947876,4.25901811130638,206.1512054331168,3.8132283254210897,1.831968809244966,0.40640284400000004,0.24968596786282288,0.24691451157831698,0.9926196125196929,0.12126955446959797,2.280876669695568,0.24604080694767297,,,,,,,,,,,0.40082040465482016,0.18740459343300744,0.44246748855418133,-0.19432999999980893,-0.05625832264061814,-0.016480000000001382,-11.289773532640051,-22.9570340855128,25.582892729746106,False,,
2023-04-19 07:43:08.463597-07:00,49.279107,3.37,-3.27,0.18,0.77,17.55,887.31,52.21,88.0,0.0,-0.00163094,0.00501273,0.0117297,32.6911145,-103.075252,1154.88674,102.493467,-0.138247323,0.256223875,2.45855,93.6147,13572.8,26.7015,11679.0,0.8089,0.0591605,12.0,-1208.0,73.0,,0.0,,2023-04-19 14:43:08.463597+00:00,1.0633229657435455,0.01404017042398145,3.27933891295255,3.1586422599816695,0.8815003003191236,0.7817297,195.59312629931853,0.24380985940806432,0.22464858145337813,3.8914803479833013,205.4149161881448,3.432175468529722,1.6900782646446213,0.46929813600000003,0.23476514706461477,0.2478854759673026,0.9509334904751519,0.3093953727720315,2.6690512318794726,0.21361417295135876,,,,,,,,,,,0.38968650571577096,0.18740459410179094,0.43240727864760165,-0.17870999999991,-0.010060209906579687,0.015619999999898937,-11.3009074315791,-22.957034084844015,25.587808088029142,False,,
2023-04-19 07:43:09.463750-07:00,50.27926,3.76,-3.64,0.69,0.62,17.64,887.31,51.97,90.0,0.0,-0.0022527,0.00572572,-0.00148934,32.6911146,-103.075252,1154.9012699999998,102.509354,-0.12673314,0.246091699,2.45652,93.3584,13567.7,26.7038,11620.0,0.826465,0.0623046,11.0,-1185.0,73.0,,0.0,,2023-04-19 14:43:09.463750+00:00,1.0629938654755964,0.01403464571274778,3.709195739759021,3.4098612077613715,1.4597875118148638,0.61851066,203.17613529247086,0.24516003538950562,0.23356750525800002,3.776866701521236,199.8792070541651,3.5355464883478236,1.2926590679533903,0.6798512104000001,0.23822738730516396,0.24479894645041073,0.9305682936613496,0.36611835631692125,2.4973360121472252,0.2088881338181862,,,,,,,,,,,0.40082040654920054,0.18740459431872977,0.44246749064539653,-0.16417999999998756,0.010060211997794888,0.014529999999922438,-11.28977353074567,-22.95703408462708,25.582892728115304,False,,
2023-04-19 07:43:09.662844-07:00,50.478354,4.03,-3.91,0.83,0.49,17.6,887.31,51.96,86.0,0.0,2.30147e-05,0.00516523,-0.00206476,32.6911146,-103.075252,1154.89431,102.509767,-0.126722391,0.244923299,2.45652,93.3584,13567.7,26.7038,11620.0,0.826465,0.0623046,11.0,-1185.0,73.0,,0.0,,2023-04-19 14:43:09.662844+00:00,1.063140107107992,0.01403710059472406,4.001834438567877,3.6425552901525258,1.6572476676374355,0.48793524,204.46403658866623,0.24578639642079322,0.2421970830582422,3.8828231827173516,200.5988931726431,3.6248653029527445,1.365981203232892,0.6055439403999999,0.24157499097195165,0.244864525352989,0.9999900735297669,-0.004455652806424706,1.3498165026011262,0.24157019507075425,,,,,,,,,,,0.40082040611189085,0.18740459411426455,0.44246749016264836,-0.17113999999992302,-4.827481747682327e-10,-0.006959999999935462,-11.28977353118298,-22.95703408483154,25.582892728491768,False,,
2023-04-19 07:43:10.663624-07:00,51.479134,4.31,-4.22,-0.15,0.84,17.67,887.31,51.74,82.0,0.0,0.000154756,0.000211596,-0.00037658,32.6911145,-103.075252,1154.91421,102.52296,-0.125867528,0.247341662,2.45606,93.3328,13577.1,26.7061,11668.0,0.840563,0.06559,11.0,-1207.0,73.0,,0.0,,2023-04-19 14:43:10.663624+00:00,1.0628842106514294,0.01403280512346632,4.222901266323524,4.15233902441678,0.7687494594614876,0.83962342,190.48877929691264,0.24385695912350833,0.26204317547675876,3.593325821249416,193.04257519827948,3.5000682085902914,0.7813650447143183,0.570660591,0.2380511340421525,0.24393611716767358,0.8071581799870604,-0.590335220429864,-1.4355283500405918,0.1768619260913106,,,,,,,,,,,0.38968650739381777,0.1874045949087824,0.4324072805096103,-0.1512399999999161,-0.010060209653038055,0.019900000000006912,-11.300907429901054,-22.957034084037026,25.58780808656401,False,,
2023-04-19 07:43:11.463802-07:00,52.279312,2.95,-2.83,0.55,0.61,18.04,887.33,50.69,86.0,0.0,7.0714e-05,-0.000267655,-0.00126801,32.6911144,-103.075252,1154.93167,102.535684,-0.124209975,0.239857094,2.45523,93.2395,13584.8,26.7085,11678.0,0.860621,0.0699214,13.0,-1203.0,73.0,,0.0,,2023-04-19 14:43:11.463802+00:00,1.0615575859301936,0.014010230295960064,2.882732725975629,2.6428918405407207,1.1512040169379885,0.60873199,203.5372184970963,0.24471547747622238,0.20740264423487909,3.0395121985061513,198.18169747704673,2.8859909270402455,0.9345327313898203,0.6769977718,0.2159598529066728,0.24414910402673917,0.9668265121735041,0.25543393540878057,1.640711041249523,0.20249678177928768,,,,,,,,,,,0.3785526077532485,0.1874045956316199,0.42240094614079143,-0.13377999999988788,-0.01000633436881887,0.01746000000002823,-11.312041329541623,-22.957034083314188,25.592727344769393,False,,
2023-04-19 07:43:11.663449-07:00,52.478959,3.8,-3.74,0.03,0.66,18.18,887.33,50.19,79.0,0.0,-0.000555775,0.00025082,-0.0018639,32.6911144,-103.075252,1154.9315399999998,102.530583,-0.121240738,0.24247388,2.45523,93.2395,13584.8,26.7085,11678.0,0.860621,0.0699214,13.0,-1203.0,73.0,,0.0,,2023-04-19 14:43:11.663449+00:00,1.0610474494456905,0.014001675368467593,3.740239838680927,3.6446564637188383,0.8401626701588304,0.6581361,192.98100538599917,0.2438128767064442,0.24240628977930795,3.386893814301782,199.02686599479617,3.19540494441352,1.0994971151244997,0.6710744338,0.22671760491191764,0.24440377372590344,0.4113481055391882,0.9114783245197446,3.3648184002484087,0.20664101974964627,,,,,,,,,,,0.3785526077455342,0.1874045956278009,0.42240094613218354,-0.1339100000000144,-8.607892176826226e-12,-0.0001300000001265289,-11.312041329549336,-22.957034083318007,25.592727344776232,False,,
2023-04-19 07:43:12.463676-07:00,53.279186,4.66,-4.62,0.51,0.4,17.54,887.3,52.36,82.0,0.0,-0.00106,-0.000197097,-0.000901233,32.6911145,-103.075252,1154.94338,102.536668,-0.1250766,0.243766025,2.45322,93.7078,13605.3,26.7111,11617.0,0.870832,0.0706669,11.0,-1200.0,73.0,,0.0,,2023-04-19 14:43:12.463676+00:00,1.0633475609376537,0.01404074159077855,4.647535433941337,4.398946754062932,1.49961763948664,0.399098767,198.82443814283317,0.24459314445390587,0.2719008066027955,4.458758798968665,200.80814392230764,4.155397578679884,1.5817541146843417,0.42697364160000006,0.26223012311692173,0.24537748778644977,0.18280723966073692,-0.9831487746661854,-3.796217934202505,0.23733918399416093,,,,,,,,,,,0.3896865091757117,0.18740459576571508,0.4324072824868507,-0.12206999999989421,0.010006336354667134,0.011840000000120199,-11.300907428119158,-22.95703408318009,25.587808085008202,False,,
2023-04-19 07:43:12.663401-07:00,53.478911,4.68,-4.65,0.38,0.4,17.51,887.3,52.45,79.0,0.0,5.58334e-05,-0.000263095,-0.00217984,32.6911145,-103.075252,1154.9425299999998,102.548276,-0.122852732,0.241316633,2.45322,93.7078,13605.3,26.7111,11617.0,0.870832,0.0706669,11.0,-1200.0,73.0,,0.0,,2023-04-19 14:43:12.663401+00:00,1.0634573126297615,0.014042584294576803,4.665266274262211,4.456104108752109,1.3812478350140431,0.39782016000000003,197.2217418350907,0.24428196968586605,0.27419377200234685,4.523176606885694,203.16751695576843,4.127540824523042,1.770787664235581,0.3329811202,0.2611446326888876,0.24668578981513783,0.9782149736745529,0.20759447314149224,2.5890656711902933,0.2501165180487569,,,,,,,,,,,0.3896865091237881,0.18740459574074447,0.4324072824292348,-0.1229200000000219,-5.761585653019097e-11,-0.0008500000001276931,-11.300907428171083,-22.957034083205063,25.58780808505354,False,,
2023-04-19 07:43:13.463089-07:00,54.278599,3.97,-3.81,0.59,0.92,17.62,887.32,51.93,80.0,0.0,8.66957e-05,0.000609558,0.000181706,32.6911145,-103.075252,1154.96743,102.553783,-0.128581056,0.248577564,2.45221,93.1532,13606.4,26.7139,11617.0,0.879856,0.070513,11.0,-1200.0,73.0,,0.0,,2023-04-19 14:43:13.463089+00:00,1.063078962046741,0.014035915975526555,3.8560110567722723,3.5912816142223347,1.4041074165813088,0.920181706,201.35434016331254,0.24489537852747761,0.24033217534013226,4.313628850210192,198.98417285774195,4.015158773233682,1.367104190821074,0.5957050460000001,0.2568797605184907,0.24630290074908015,0.9900366245399831,-0.14081009221457316,0.7881083413597738,0.2518338372289248,,,,,,,,,,,0.3896865106448426,0.18740459647223656,0.4324072841170403,-0.09801999999990585,1.6878055064672992e-09,0.02490000000011605,-11.300907426650028,-22.95703408247357,25.587808083725474,False,,
2023-04-19 07:43:14.463508-07:00,55.279018,3.79,-3.76,-0.12,0.47,18.41,887.31,49.39,79.0,0.0,0.00242618,0.00197189,0.00207763,32.6911145,-103.075252,1155.00308,102.563381,-0.135138663,0.249664161,2.44915,92.7991,13593.3,26.7161,11664.0,0.888813,0.0737395,11.0,-1219.0,73.0,,0.0,,2023-04-19 14:43:14.463508+00:00,1.0601865349898774,0.013987558631135068,3.7643042580254003,3.6980447212807794,0.7031726575994821,0.47207762999999997,190.76610408502683,0.24393771286567667,0.24426930173979275,4.174934945206275,190.77173772585655,4.087287628101278,0.7842832992737433,0.668530691,0.2594667078583027,0.24426058813681464,0.6307118281636692,-0.7760171324232746,-2.677148471065105,0.1796945315655595,,,,,,,,,,,0.38968651282257716,0.18740459751953345,0.4324072865335168,-0.06236999999987347,2.41647646337384e-09,0.03565000000003238,-11.300907424472294,-22.957034081426272,25.587808081824054,False,,
2023-04-19 07:43:15.463648-07:00,56.279158,3.36,-3.31,0.08,0.58,17.88,887.32,51.07,79.0,0.0,0.00353155,0.00498587,-0.00200783,32.6911145,-103.075252,1155.0321299999998,102.57958,-0.139513435,0.252952876,2.4475,93.0169,13601.4,26.7186,11683.0,0.894063,0.071976,12.0,-1230.0,73.0,,0.0,,2023-04-19 14:43:15.463648+00:00,1.0621292299568115,0.014019977540773365,3.3166581072327688,3.218103851071667,0.8025139275991146,0.5779921699999999,194.0025230420884,0.24395607603483652,0.22650595735813983,4.193541630630804,196.88097133806474,4.002192419973884,1.2255604121886363,0.660258636,0.25625063417739297,0.24447109690350843,0.8160328120574598,-0.5780055792512685,-1.3131920384774483,0.18917928793496877,,,,,,,,,,,0.38968651459714065,0.18740459837294085,0.43240728850262317,-0.03332000000000335,1.9691063779525564e-09,0.029049999999870124,-11.30090742269773,-22.957034080572868,25.58780808027465,False,,
2023-04-19 07:43:16.663318-07:00,57.478828,4.17,-4.14,0.28,0.46,17.5,887.32,52.31,90.0,0.0,-0.000697494,0.0011908,0.000374324,32.6911146,-103.075252,1155.0183299999999,102.597422,-0.144261138,0.261072265,2.44921,92.7466,13619.6,26.7205,11622.0,0.902284,0.075324,14.0,-1206.0,73.0,,0.0,,2023-04-19 14:43:16.663318+00:00,1.063517873023674,0.014043284596353721,4.150402168201375,3.980459013078074,1.1754931743809502,0.460374324,196.45271298752454,0.24421400006229177,0.2550657251984862,4.3958777404473866,195.55962178419253,4.213516614312882,1.1694580429244266,0.5412704346,0.2644361727871576,0.24470997788178148,0.8628753253468544,0.5054168308510908,3.138678703212345,0.20657203416296127,,,,,,,,,,,0.4008204139042973,0.18740459775762383,0.4424674987647217,-0.04711999999994987,0.010060210262098523,-0.013799999999946522,-11.289773523390574,-22.957034081188183,25.582892721783566,False,,
2023-04-19 07:43:19.463561-07:00,60.279071,4.64,-4.59,0.4,0.51,17.5,887.29,52.43,92.0,0.0,0.00168803,0.000901099,-0.0116205,32.6911145,-103.075252,1155.01479,102.624632,-0.123805144,0.239502988,2.44181,91.7788,13538.5,26.7286,11633.0,0.92969,0.0855441,11.0,-1193.0,73.0,,0.0,,2023-04-19 14:43:19.463561+00:00,1.0634819158310145,0.014043155659858354,4.60876587020313,4.392503052813942,1.3952203329114068,0.49837950000000003,197.62175998490312,0.24452333633912474,0.2713911097269196,4.458737586843453,198.21792310234156,4.212269452632997,1.3889341597098768,0.490887934,0.26415824136107463,0.24520514091856374,0.4709203465199656,-0.8821757348927228,-3.061884544158689,0.19961640150352217,,,,,,,,,,,0.38968651353790035,0.18740459786354036,0.43240728732725986,-0.0506599999998798,-0.01006021143746183,-0.0035399999999299325,-11.300907423756971,-22.957034081082266,25.587808081199494,False,,
2023-04-19 07:43:20.463630-07:00,61.27914,4.54,-4.47,0.41,0.68,17.62,887.3,51.92,91.0,0.0,0.000871035,0.00149546,-0.0150384,32.6911145,-103.075252,1155.0313999999998,102.630881,-0.126535401,0.243192657,2.44162,91.1176,13531.8,26.7308,11681.0,0.923922,0.0919558,13.0,-1215.0,73.0,,0.0,,2023-04-19 14:43:20.463630+00:00,1.063055000477926,0.014035830114268979,4.490454370971551,4.273662823607815,1.3783999883524325,0.6649616,197.87625673590503,0.2445630441511018,0.2665677378351751,4.4494073398771565,195.90573091800928,4.26577952095766,1.2267846253296437,0.51341148,0.2662990694926889,0.24456754275846554,0.8641098393785198,-0.5033032738709621,-1.086904132964059,0.20826939270185174,,,,,,,,,,,0.3896865145525475,0.1874045983514955,0.4324072884531413,-0.034049999999979264,1.125881443631016e-09,0.016609999999900538,-11.300907422742323,-22.957034080594312,25.587808080313586,False,,
2023-04-19 07:43:21.463743-07:00,62.279253,4.49,-4.37,1.03,0.09,16.68,887.3,55.09,87.0,0.0,0.00104176,0.000257773,-0.0226873,32.6911144,-103.075252,1154.9912399999998,102.641019,-0.123120541,0.23922076,2.44281,91.1868,13539.5,26.7338,11636.0,0.927181,0.0992553,16.0,-1195.0,73.0,,0.0,,2023-04-19 14:43:21.463743+00:00,1.0665027860779301,0.014093761264408996,4.490430917801225,4.038923340293469,1.9624138398354705,0.0673127,205.91398057723,0.24718923626162512,0.2572820869540256,4.508319326360532,201.94191050616763,4.178446319871318,1.669436514299635,0.258726844,0.26302403857127654,0.24576922945072108,0.24019596252222156,-0.9707244200018992,-3.6551279699442114,0.23208643161362066,,,,,,,,,,,0.3785526112882035,0.18740459738161924,0.4224009500852058,-0.07420999999999367,-0.010006338367935519,-0.040160000000014406,-11.312041326006668,-22.95703408156419,25.59272734163716,False,,
2023-04-19 07:43:21.663086-07:00,62.478596,4.1,-3.98,0.99,0.06,16.92,887.31,54.33,80.0,0.0,0.000777942,0.000371356,-0.0158597,32.6911145,-103.075252,1154.9959999999999,102.645097,-0.117002064,0.229863403,2.44281,91.1868,13539.5,26.7338,11636.0,0.927181,0.0992553,16.0,-1195.0,73.0,,0.0,,2023-04-19 14:43:21.663086+00:00,1.0656323857746361,0.014078967430951524,4.101960827574408,3.6671133088920036,1.8380322659578279,0.04414029999999999,206.62096620787037,0.24696481649258759,0.242949308144189,4.3360683493263945,201.4907519641475,4.025838823357645,1.5822935364997153,0.33225005999999996,0.25694535158763704,0.2456359633863939,0.4307914714458745,-0.9024514990455157,-2.9514857202067333,0.20565505067149095,,,,,,,,,,,0.38968651239008456,0.18740459731154294,0.4324072860536107,-0.06944999999996071,0.01000633596840489,0.00476000000003296,-11.300907424904786,-22.957034081634266,25.587808082201676,False,,
2023-04-19 07:43:25.663511-07:00,66.479021,4.44,-4.23,1.32,0.17,16.9,887.32,54.27,84.0,0.0,0.000855135,3.03284e-06,-0.0040336,32.6911144,-103.075252,1154.9887899999999,102.691467,-0.119569254,0.237590385,2.44031,90.989,13493.2,26.7432,11627.0,0.930699,0.104356,14.0,-1191.0,73.0,,0.0,,2023-04-19 14:43:25.663511+00:00,1.065717875519155,0.014080245870247842,4.431604203313602,3.836647394465612,2.217938814613021,0.16596640000000001,210.03190414104748,0.24926967855053045,0.24930494969128222,4.754534227643373,208.45542283690756,4.165887688720284,2.2384923473758076,0.200184732,0.26244780541587454,0.24942740647983336,0.003546598988296234,-0.9999937107980311,-4.1579224539167186,0.24942426911287305,,,,,,,,,,,0.3785526111428176,0.1874045973096451,0.42240094992297955,-0.0766599999999471,-0.010006336130631122,-0.007209999999986394,-11.312041326152054,-22.957034081636163,25.592727341765986,False,,
2023-04-19 07:43:27.663422-07:00,68.478932,3.88,-3.8,-0.2,0.74,17.17,887.31,53.39,91.0,0.0,0.00133066,0.00287889,-0.0020138,32.6911145,-103.075252,1154.96609,102.715315,-0.128786023,0.248496988,2.43903,90.7754,13487.7,26.7484,11656.0,0.942541,0.114927,17.0,-1193.0,73.0,,0.0,,2023-04-19 14:43:27.663422+00:00,1.0647147497301208,0.014063545763915903,3.8083215781579742,3.7537081111685504,0.6426419367043178,0.7379862,189.71496117554958,0.24440494635385432,0.24595747602928486,3.4294235808124505,198.62550289050372,3.2328066278021255,1.0113543667714677,0.4408968044,0.22913012337521202,0.24512661280855236,0.9077263189805507,-0.41956278413369746,-0.4383323727921594,0.19366404068079715,,,,,,,,,,,0.38968651056298664,0.1874045964328711,0.43240728402621065,-0.09935999999993328,0.010006334103231096,-0.022699999999986176,-11.300907426731884,-22.957034082512937,25.58780808379695,False,,
2023-04-19 07:43:28.463639-07:00,69.279149,3.96,-3.93,-0.07,0.43,17.47,887.32,52.29,87.0,0.0,0.000921779,0.000304941,-0.00338251,32.6911144,-103.075252,1154.96731,102.71726,-0.119566941,0.242356805,2.43782,90.9541,13497.1,26.7505,11626.0,0.942157,0.116743,11.0,-1186.0,73.0,,0.0,,2023-04-19 14:43:28.463639+00:00,1.063627657402556,0.014045127979430699,3.9311089339213474,3.8493050561861093,0.79778946770203,0.42661749,191.70908725094674,0.2443075132572328,0.24971550324589611,3.7026190847167326,198.25717388438807,3.4981236787502494,1.08047881379011,0.614192542,0.23755510358900978,0.24513753644455244,0.31407762981886705,-0.9493973048452174,-2.9817549677160256,0.22219515638582565,,,,,,,,,,,0.3785526098681687,0.18740459667862305,0.42240094850068616,-0.09813999999983025,-0.01000633552552449,0.0012200000001030276,-11.312041327426702,-22.957034082267185,25.59272734289542,False,,
2023-04-19 07:43:29.462963-07:00,70.278473,4.75,-4.71,-0.05,0.59,17.28,887.32,52.98,90.0,0.0,-4.5037e-05,-3.97769e-05,-0.00512859,32.6911145,-103.075252,1154.96877,102.726304,-0.122937967,0.243858767,2.43802,91.4038,13518.2,26.7527,11679.0,0.947907,0.120252,14.0,-1216.0,73.0,,0.0,,2023-04-19 14:43:29.462963+00:00,1.0643234851576315,0.014056814161421773,4.710217040393122,4.605266764968646,0.9887682190912883,0.58487141,192.11765733962937,0.24432384073058092,0.27987773345647154,4.2007713563907325,188.98120568849828,4.146661761386114,0.6595299012784879,0.527639708,0.2616183018566961,0.2445726054476896,0.6619806051067364,-0.749520965992626,-2.6714139259044845,0.17894541941960396,,,,,,,,,,,0.3896865107266985,0.187404596511602,0.43240728420787006,-0.09667999999987842,0.0100063357071839,0.0014599999999518332,-11.300907426568171,-22.957034082434205,25.587808083654007,False,,
2023-04-19 07:43:30.663046-07:00,71.478556,4.96,-4.94,0.16,0.34,17.51,887.28,52.15,86.0,0.0,-0.000899374,-0.000136433,0.00194057,32.6911144,-103.075252,1155.00442,102.731086,-0.12803422,0.251063029,2.43827,91.5998,13531.6,26.755,11658.0,0.942818,0.119885,14.0,-1196.0,73.0,,0.0,,2023-04-19 14:43:30.663046+00:00,1.0634333419927138,0.01404249834604035,4.942231954332952,4.783154198185905,1.2438217745345452,0.34194057,194.57647909371056,0.24440353771345166,0.28723347531759913,4.646670359932109,192.17842643022564,4.5291249212983065,0.9887117785809082,0.3912722726,0.2768588434418714,0.2446091167045515,0.14998184552983876,-0.9886887508268027,-4.32960604352831,0.23918783536863175,,,,,,,,,,,0.3785526120703204,0.18740459776881066,0.4224009509579165,-0.06102999999984604,-0.010006333249953536,0.03565000000003238,-11.31204132522455,-22.957034081176996,25.592727340944148,False,,
2023-04-19 07:43:31.662920-07:00,72.47843,4.22,-4.17,0.03,0.6,17.89,887.28,50.97,82.0,0.0,-0.00171042,0.000859425,0.000982476,32.6911143,-103.075252,1155.05642,102.733217,-0.127197687,0.248891222,2.43937,91.1602,13540.4,26.7573,11677.0,0.951261,0.126919,12.0,-1219.0,73.0,,0.0,,2023-04-19 14:43:31.662920+00:00,1.062044857007979,0.014019193971468285,4.170556243037862,4.061693950570478,0.9466687003599907,0.600982476,193.11984228710338,0.24433700648154233,0.25792761080141896,4.581684934968898,198.45755841055353,4.319230680068041,1.449474037245455,0.6259059032000001,0.26831583891482397,0.24563785334717606,0.44897430285835505,0.8935446689297935,4.510202143436368,0.2034440029194912,,,,,,,,,,,0.3674187156476719,0.18740459950633634,0.41245241728509136,-0.00902999999993881,-0.009948533672825166,0.05199999999990723,-11.3231752216472,-22.95703407943947,25.59765049422838,False,,
2023-04-19 07:43:33.663048-07:00,74.478558,4.07,-3.97,0.41,0.82,17.4,887.31,52.41,78.0,0.0,-0.00244051,-0.000588016,-0.0303702,32.6911145,-103.075252,1154.9851299999998,102.748133,-0.122256193,0.245609125,2.43886,92.0766,13548.6,26.7597,11677.0,0.939639,0.124462,12.0,-1219.0,73.0,,0.0,,2023-04-19 14:43:33.663048+00:00,1.0638719192622568,0.014049388098911117,3.9897783239629754,3.7810766268194715,1.273495432455216,0.7896297999999999,198.61391764364305,0.24486209054668676,0.24705136656551335,3.8691549360231674,197.28626113991277,3.6900866454951986,1.1523061595051511,0.9858977200000002,0.2436780550239674,0.24472933091824528,0.2342367577249064,-0.9721795828603497,-3.3175144370271434,0.23168788522656247,,,,,,,,,,,0.38968651172607405,0.18740459699221285,0.4324072853168056,-0.08032000000002881,0.019954868031714257,-0.07129000000009,-11.300907425568797,-22.957034081953594,25.587808082781432,False,,
2023-04-19 07:43:35.663485-07:00,76.478995,4.16,-3.82,1.61,0.32,17.8,887.32,51.11,82.0,0.0,-0.00364216,0.000726863,-0.0109144,32.6911145,-103.075252,1154.9809799999998,102.758187,-0.138280795,0.264847505,2.4391,90.8916,13559.5,26.7645,11616.0,0.910637,0.123669,14.0,-1189.0,73.0,,0.0,,2023-04-19 14:43:35.663485+00:00,1.0624212744262962,0.014024877757517144,4.143890662199437,3.3708667765219005,2.4102047620906695,0.3090856,215.56516183972235,0.2518323249031741,0.23165458506631262,3.8967680615699094,216.84690027613632,3.0394847366911923,2.3736132336287894,0.39061638,0.2200129047895456,0.2534930513976885,0.1957099090155669,0.9806618334130877,3.4452463045063166,0.2439292744816039,,,,,,,,,,,0.389686511472565,0.1874045968702975,0.43240728503550474,-0.08447000000001026,-2.813008714852572e-10,-0.004149999999981446,-11.300907425822306,-22.95703408207551,25.587808083002777,False,,
2023-04-19 07:43:37.463382-07:00,78.278892,2.62,-2.54,-0.3,0.59,18.09,887.32,50.23,81.0,0.0,-0.000655889,0.00117059,-0.00632683,32.6911145,-103.075252,1154.9832999999999,102.780515,-0.14229691,0.263354826,2.44085,91.2196,13573.9,26.7683,11686.0,0.890322,0.122505,13.0,-1227.0,73.0,,0.0,,2023-04-19 14:43:37.463382+00:00,1.061363376577156,0.014007131003653302,2.558750309934824,2.54460623711025,0.26866753925841275,0.58367317,186.02713856563463,0.24471781559134612,0.20350373878743191,2.448661377048425,191.24912919679377,2.379252999012791,0.46307519843183503,0.6627495,0.1985776100094619,0.24481489405355625,0.8723920611884851,0.4888068039372063,1.5669781810506707,0.1620560302835568,,,,,,,,,,,0.38968651161428575,0.1874045969384526,0.43240728519276217,-0.08214999999995598,1.5725742930072784e-10,0.0023200000000542786,-11.300907425680585,-22.957034082007354,25.58780808287904,False,,
2023-04-19 07:43:37.662984-07:00,78.478494,2.37,-2.29,-0.1,0.59,18.28,887.31,49.57,89.0,0.0,-0.000876516,0.000859548,-0.00448474,32.6911145,-103.075252,1154.9830599999998,102.778679,-0.141146253,0.26339506,2.44085,91.2196,13573.9,26.7683,11686.0,0.890322,0.122505,13.0,-1227.0,73.0,,0.0,,2023-04-19 14:43:37.662984+00:00,1.060659459018113,0.013995485868008337,2.2928719499895562,2.2562587700051058,0.4081153535753799,0.58551526,190.25288449537334,0.2444806587322649,0.19483450995968699,2.4012535363607626,188.36995174407048,2.3740914766199865,0.3410558367743657,0.630600924,0.19844218985966436,0.2446026056266229,0.7001621957525405,0.7139838230933395,1.9338573124006095,0.15815111978162621,,,,,,,,,,,0.389686511599625,0.18740459693140207,0.4324072851764941,-0.08239000000003216,-1.6268042468681188e-11,-0.00024000000007617928,-11.300907425695247,-22.957034082014406,25.58780808289184,False,,
