Timestamp,Seconds,S,Um,Vm,Wm,T,P,H,MD,Sts,Vx,Vy,Vz,Lat,Lon,Alt,Yaw,Roll,Pitch,CH4,C2H6,H20,T_a,Batt,R,C2C1,Power,Current,SOC,Lat_a,Lon_a,TS,Timestamp_UTC
2023-04-19 07:42:19.184490-07:00,0.0,4.46,-4.41,-0.23,0.63,18.8,887.32,48.36,84.0,0.0,-0.00226603,0.000716003,0.00100999,32.6911164,-103.075249,1153.76245,101.874733,-0.126345473,0.23765594,,,,,,,,,,,,,,2023-04-19 14:42:19.184490+00:00
2023-04-19 07:42:19.394306-07:00,0.209816,5.04,-5.0,-0.21,0.6,18.59,887.32,48.92,91.0,0.0,0.000871841,0.00055378,0.000729047,32.6911164,-103.075249,1153.75476,101.877559,-0.128981512,0.245461421,,,,,,,,,,,,,,2023-04-19 14:42:19.394306+00:00
2023-04-19 07:42:19.604317-07:00,0.419827,4.6,-4.56,0.08,0.63,18.82,887.32,48.28,87.0,0.0,-0.00105289,0.0021911,0.00213131,32.6911164,-103.075249,1153.75269,101.870308,-0.125900201,0.234627179,2.48027,94.3067,13392.0,26.5951,11642.0,0.946195,0.162529,14.0,-1180.0,74.0,,0.0,,2023-04-19 14:42:19.604317+00:00
2023-04-19 07:42:19.814369-07:00,0.629879,4.18,-4.17,-0.1,0.3,19.12,887.32,47.39,79.0,0.0,-0.00157924,0.00146309,0.00496664,32.6911164,-103.075249,1153.75281,101.875997,-0.132685237,0.248866089,,,,,,,,,,,,,,2023-04-19 14:42:19.814369+00:00
2023-04-19 07:42:20.024190-07:00,0.8397,3.8,-3.77,-0.37,0.24,18.9,887.32,48.04,80.0,0.0,-0.00143739,0.00216865,0.00467016,32.6911164,-103.075249,1153.74219,101.885401,-0.130969747,0.241225492,,,,,,,,,,,,,,2023-04-19 14:42:20.024190+00:00
2023-04-19 07:42:20.234428-07:00,1.049938,4.0,-3.95,-0.06,0.6,18.6,887.33,48.96,88.0,0.0,-0.00299178,0.00251771,0.00499513,32.6911164,-103.075249,1153.74438,101.888723,-0.129052464,0.245202192,,,,,,,,,,,,,,2023-04-19 14:42:20.234428+00:00
2023-04-19 07:42:20.444687-07:00,1.260197,2.48,-2.35,-0.66,0.42,19.3,887.33,46.85,91.0,0.0,-0.000545235,0.00165492,0.00694557,32.6911164,-103.075249,1153.73462,101.893516,-0.131430859,0.245905868,,,,,,,,,,,,,,2023-04-19 14:42:20.444687+00:00
2023-04-19 07:42:20.654287-07:00,1.469797,2.8,-2.74,0.2,0.57,18.46,887.35,49.44,83.0,0.0,-0.00297847,0.00277367,0.0061571,32.6911164,-103.075249,1153.72095,101.899165,-0.133298844,0.245787512,2.47935,94.7724,13368.8,26.5973,11689.0,0.957604,0.166339,12.0,-1229.0,74.0,,0.0,,2023-04-19 14:42:20.654287+00:00
2023-04-19 07:42:20.863505-07:00,1.679015,2.96,-2.87,0.58,0.39,18.11,887.33,50.48,78.0,0.0,-0.00153345,0.00269649,0.00511729,32.6911164,-103.075249,1153.71326,101.897633,-0.13600663,0.25296088,,,,,,,,,,,,,,2023-04-19 14:42:20.863505+00:00
2023-04-19 07:42:21.063001-07:00,1.878511,3.19,-3.15,0.23,0.48,18.46,887.34,49.32,83.0,0.0,-0.00211097,0.00148191,0.008109,32.6911164,-103.075249,1153.72083,101.900386,-0.134584362,0.246847589,,,,,,,,,,,,,,2023-04-19 14:42:21.063001+00:00
2023-04-19 07:42:21.263239-07:00,2.078749,3.37,-3.2,0.8,0.68,18.22,887.33,50.14,91.0,0.0,-6.64923e-05,-0.00013249,0.00758572,32.6911164,-103.075249,1153.71545,101.901658,-0.13619748,0.25404617,,,,,,,,,,,,,,2023-04-19 14:42:21.263239+00:00
2023-04-19 07:42:21.462916-07:00,2.278426,3.13,-2.99,0.74,0.53,18.22,887.32,50.23,87.0,0.0,0.00039313,0.000874465,0.00551095,32.6911164,-103.075249,1153.71155,101.903564,-0.135861679,0.249144929,,,,,,,,,,,,,,2023-04-19 14:42:21.462916+00:00
2023-04-19 07:42:21.663021-07:00,2.478531,3.65,-3.53,0.53,0.77,18.19,887.34,50.23,79.0,0.0,-0.00136573,0.00135179,0.00463794,32.6911164,-103.075249,1153.72217,101.908187,-0.131934198,0.247379068,2.48306,93.8564,13391.6,26.5991,11658.0,0.954747,0.157606,14.0,-1213.0,74.0,,0.0,,2023-04-19 14:42:21.663021+00:00
2023-04-19 07:42:21.863411-07:00,2.678921,3.67,-3.48,1.15,0.27,18.54,887.32,49.12,80.0,0.0,9.2251e-05,0.000496838,0.0035657,32.6911164,-103.075249,1153.72058,101.912983,-0.126525235,0.242414516,,,,,,,,,,,,,,2023-04-19 14:42:21.863411+00:00
2023-04-19 07:42:22.063372-07:00,2.878882,4.1,-3.97,0.89,0.49,18.29,887.32,49.91,88.0,0.0,-0.0012273,0.000645546,0.00258811,32.6911163,-103.075249,1153.72583,101.914905,-0.124265872,0.237679259,,,,,,,,,,,,,,2023-04-19 14:42:22.063372+00:00
2023-04-19 07:42:22.263210-07:00,3.07872,4.47,-4.24,1.05,0.98,18.06,887.32,50.63,91.0,0.0,0.000151608,-0.00015271,0.00275285,32.6911163,-103.075249,1153.73169,101.924125,-0.121635607,0.236870221,,,,,,,,,,,,,,2023-04-19 14:42:22.263210+00:00
2023-04-19 07:42:22.463365-07:00,3.278875,4.1,-3.98,0.37,0.9,17.49,887.3,52.48,83.0,0.0,-0.000382251,0.000282473,0.00299743,32.6911162,-103.075249,1153.74292,101.934731,-0.123910334,0.234844839,,,,,,,,,,,,,,2023-04-19 14:42:22.463365+00:00
2023-04-19 07:42:22.663815-07:00,3.479325,4.06,-4.04,0.04,0.41,18.03,887.29,50.78,78.0,0.0,-0.000967973,0.000304015,0.00364594,32.6911162,-103.075249,1153.74951,101.936909,-0.124018288,0.242432632,,,,,,,,,,,,,,2023-04-19 14:42:22.663815+00:00
2023-04-19 07:42:22.862975-07:00,3.678485,2.38,-2.36,-0.1,-0.31,18.72,887.3,48.59,83.0,0.0,0.000127323,0.000321984,0.00269965,32.6911162,-103.075249,1153.75427,101.937637,-0.124552535,0.243787529,,,,,,,,,,,,,,2023-04-19 14:42:22.862975+00:00
2023-04-19 07:42:23.063351-07:00,3.878861,2.79,-2.76,0.4,0.0,18.32,887.31,49.88,91.0,0.0,5.09747e-05,5.58828e-06,0.00188875,32.6911162,-103.075249,1153.75635,101.941404,-0.12626109,0.24309698,,,,,,,,,,,,,,2023-04-19 14:42:23.063351+00:00
2023-04-19 07:42:23.263029-07:00,4.078539,4.48,-4.44,0.17,0.59,18.08,887.31,50.64,88.0,0.0,-0.00110727,-0.000127478,0.000754464,32.6911163,-103.075249,1153.75684,101.943495,-0.128336629,0.244145504,,,,,,,,,,,,,,2023-04-19 14:42:23.263029+00:00
2023-04-19 07:42:23.462914-07:00,4.278424,3.77,-3.76,0.26,0.24,18.21,887.32,50.23,80.0,0.0,-0.000415252,0.000619231,-0.000389983,32.6911163,-103.075249,1153.75623,101.945117,-0.12891196,0.246342791,,,,,,,,,,,,,,2023-04-19 14:42:23.462914+00:00
2023-04-19 07:42:23.663634-07:00,4.479144,3.36,-3.34,0.12,0.28,18.22,887.33,50.19,79.0,0.0,-0.000229347,0.000372003,-0.000108996,32.6911163,-103.075249,1153.75305,101.946298,-0.125612843,0.242648959,,,,,,,,,,,,,,2023-04-19 14:42:23.663634+00:00
2023-04-19 07:42:23.863450-07:00,4.67896,4.19,-4.14,0.58,0.27,18.41,887.31,49.6,87.0,0.0,-0.000457779,0.00065131,-0.000106737,32.6911163,-103.075249,1153.75439,101.95045,-0.129845906,0.245132662,,,,,,,,,,,,,,2023-04-19 14:42:23.863450+00:00
2023-04-19 07:42:24.063348-07:00,4.878858,4.05,-3.89,1.08,0.32,18.26,887.32,50.12,91.0,0.0,-0.000428893,0.000304589,-0.000193049,32.6911163,-103.07525,1153.75305,101.955662,-0.128838051,0.245886604,,,,,,,,,,,,,,2023-04-19 14:42:24.063348+00:00
2023-04-19 07:42:24.263054-07:00,5.078564,4.13,-3.99,0.76,0.73,18.4,887.32,49.67,84.0,0.0,9.22666e-05,-2.15369e-05,-0.000897665,32.6911163,-103.07525,1153.74854,101.958255,-0.12872342,0.245252191,,,,,,,,,,,,,,2023-04-19 14:42:24.263054+00:00
2023-04-19 07:42:24.463590-07:00,5.2791,3.94,-3.88,0.61,0.3,18.52,887.32,49.26,79.0,0.0,0.00120159,0.000655431,-0.00193679,32.6911163,-103.07525,1153.7428,101.96538,-0.12381018,0.234445083,2.48578,95.5121,13344.7,26.6067,11619.0,0.970121,0.156821,14.0,-1191.0,74.0,,0.0,,2023-04-19 14:42:24.463590+00:00
2023-04-19 07:42:24.663716-07:00,5.479226,3.81,-3.48,1.53,0.21,18.63,887.32,48.9,82.0,0.0,-0.0012447,0.000707003,-0.0019288,32.6911163,-103.07525,1153.74597,101.968358,-0.126517854,0.237660262,,,,,,,,,,,,,,2023-04-19 14:42:24.663716+00:00
2023-04-19 07:42:24.863163-07:00,5.678673,4.37,-4.1,1.12,1.02,18.71,887.31,48.66,91.0,0.0,0.0001697,0.000202377,-0.0005432,32.6911163,-103.07525,1153.74817,101.974368,-0.127497982,0.241762947,,,,,,,,,,,,,,2023-04-19 14:42:24.863163+00:00
2023-04-19 07:42:25.062986-07:00,5.878496,4.31,-4.2,0.17,0.97,18.75,887.31,48.56,89.0,0.0,-0.00187391,0.00173626,-0.000494449,32.6911163,-103.07525,1153.74695,101.976823,-0.127718147,0.24237871,,,,,,,,,,,,,,2023-04-19 14:42:25.062986+00:00
2023-04-19 07:42:25.262939-07:00,6.078449,3.97,-3.92,0.39,0.52,18.83,887.32,48.41,80.0,0.0,0.000285193,0.00143288,-0.000987765,32.6911163,-103.07525,1153.74548,101.974516,-0.123568005,0.241093209,,,,,,,,,,,,,,2023-04-19 14:42:25.262939+00:00
2023-04-19 07:42:25.463066-07:00,6.278576,3.39,-3.33,-0.1,0.63,18.87,887.33,48.22,79.0,0.0,-0.000636553,0.00171182,-0.00235995,32.6911163,-103.07525,1153.74084,101.978785,-0.121170135,0.234455755,,,,,,,,,,,,,,2023-04-19 14:42:25.463066+00:00
2023-04-19 07:42:25.663086-07:00,6.478596,3.6,-3.56,0.1,0.55,18.99,887.33,47.84,86.0,0.0,-0.00321757,0.00195014,-0.00361765,32.6911163,-103.07525,1153.73962,101.984349,-0.119808696,0.237283424,2.48616,95.966,13335.0,26.609,11619.0,0.971154,0.160023,14.0,-1191.0,74.0,,0.0,,2023-04-19 14:42:25.663086+00:00
2023-04-19 07:42:25.863339-07:00,6.678849,3.53,-3.53,0.14,0.16,18.99,887.33,47.23,92.0,0.0,7.27934e-05,0.000174237,-0.00274447,32.6911163,-103.07525,1153.73865,101.98548,-0.123324134,0.240078704,,,,,,,,,,,,,,2023-04-19 14:42:25.863339+00:00
2023-04-19 07:42:26.063088-07:00,6.878598,3.65,-3.61,0.22,0.5,18.85,887.33,48.3,84.0,0.0,-0.00244301,0.00124005,-0.000850183,32.6911163,-103.07525,1153.74731,101.990579,-0.12215197,0.236847836,,,,,,,,,,,,,,2023-04-19 14:42:26.063088+00:00
2023-04-19 07:42:26.262893-07:00,7.078403,3.53,-3.5,0.45,0.06,18.82,887.34,47.73,79.0,0.0,-0.00203418,0.00145328,0.000654049,32.6911163,-103.07525,1153.73682,101.992475,-0.126167677,0.245708431,,,,,,,,,,,,,,2023-04-19 14:42:26.262893+00:00
2023-04-19 07:42:26.463561-07:00,7.279071,3.12,-3.03,0.76,0.06,18.44,887.33,49.56,81.0,0.0,-0.00078476,0.000677691,-0.00028051,32.6911162,-103.07525,1153.73462,101.997,-0.127952543,0.242132554,2.4902,95.1457,13354.0,26.6113,11678.0,0.969711,0.154956,11.0,-1207.0,74.0,,0.0,,2023-04-19 14:42:26.463561+00:00
2023-04-19 07:42:26.663472-07:00,7.478982,3.3,-3.3,0.21,0.04,18.38,887.33,49.68,90.0,0.0,-0.00209415,0.000812931,0.00210059,32.6911162,-103.07525,1153.74048,102.000004,-0.12430921,0.244408602,,,,,,,,,,,,,,2023-04-19 14:42:26.663472+00:00
2023-04-19 07:42:26.863508-07:00,7.679018,3.06,-3.04,-0.27,0.25,18.53,887.33,49.33,90.0,0.0,-0.000255673,-5.78472e-05,0.00330855,32.6911161,-103.07525,1153.7356,102.003281,-0.125347555,0.242637779,,,,,,,,,,,,,,2023-04-19 14:42:26.863508+00:00
2023-04-19 07:42:27.062867-07:00,7.878377,2.78,-2.72,-0.19,0.53,18.64,887.33,48.99,81.0,0.0,-0.0017006,0.000176371,0.00215854,32.6911161,-103.07525,1153.72363,102.008372,-0.12655038,0.244557907,,,,,,,,,,,,,,2023-04-19 14:42:27.062867+00:00
2023-04-19 07:42:27.263212-07:00,8.078722,3.39,-3.35,-0.12,0.44,18.87,887.32,48.34,79.0,0.0,0.000141467,5.46668e-05,0.00162261,32.6911161,-103.07525,1153.72217,102.01275,-0.121761793,0.239840552,,,,,,,,,,,,,,2023-04-19 14:42:27.263212+00:00
2023-04-19 07:42:27.463146-07:00,8.278656,3.05,-3.04,0.09,0.21,18.85,887.33,47.62,86.0,0.0,-0.000976466,0.000282687,0.00222114,32.6911161,-103.07525,1153.72107,102.016909,-0.122631418,0.239799304,2.49104,95.8071,13372.0,26.6133,11685.0,0.973837,0.152122,11.0,-1213.0,74.0,,0.0,,2023-04-19 14:42:27.463146+00:00
2023-04-19 07:42:27.663651-07:00,8.479161,2.55,-2.53,-0.09,0.33,18.09,887.33,49.94,93.0,0.0,0.00111787,7.45307e-05,0.00225172,32.6911161,-103.07525,1153.71375,102.020224,-0.122820816,0.239985748,,,,,,,,,,,,,,2023-04-19 14:42:27.663651+00:00
2023-04-19 07:42:27.863418-07:00,8.678928,3.45,-3.39,-0.39,0.48,18.9,887.32,47.53,87.0,0.0,-0.00176467,8.19069e-05,0.00161122,32.6911162,-103.07525,1153.7157,102.015831,-0.122993862,0.240130091,,,,,,,,,,,,,,2023-04-19 14:42:27.863418+00:00
2023-04-19 07:42:28.063611-07:00,8.879121,3.29,-3.25,-0.39,0.37,18.93,887.33,48.11,80.0,0.0,0.00124414,0.000214386,0.00162036,32.6911162,-103.07525,1153.71875,102.013808,-0.121095933,0.238277492,,,,,,,,,,,,,,2023-04-19 14:42:28.063611+00:00
2023-04-19 07:42:28.263703-07:00,9.079213,4.38,-4.27,-0.93,0.34,17.31,887.32,53.21,81.0,0.0,-0.00137128,0.000371647,0.00168777,32.6911162,-103.07525,1153.72192,102.018406,-0.121724261,0.238262765,,,,,,,,,,,,,,2023-04-19 14:42:28.263703+00:00
2023-04-19 07:42:28.463229-07:00,9.278739,4.47,-4.39,-0.72,0.44,17.49,887.28,52.67,89.0,0.0,0.00108087,-0.000356712,0.00212021,32.6911162,-103.07525,1153.72681,102.019773,-0.126762484,0.247653239,2.48434,95.077,13376.5,26.6161,11628.0,0.973848,0.151129,15.0,-1178.0,74.0,,0.0,,2023-04-19 14:42:28.463229+00:00
2023-04-19 07:42:28.663732-07:00,9.479242,4.68,-4.64,-0.2,0.56,17.6,887.31,51.63,91.0,0.0,0.00015579,0.000551136,0.00337143,32.6911162,-103.07525,1153.74048,102.02529,-0.123111715,0.238504545,,,,,,,,,,,,,,2023-04-19 14:42:28.663732+00:00
2023-04-19 07:42:28.863551-07:00,9.679061,4.87,-4.82,-0.21,0.68,17.79,887.28,50.97,82.0,0.0,-0.000394642,-4.05866e-05,0.00425917,32.6911162,-103.07525,1153.75171,102.030467,-0.126538124,0.246762638,,,,,,,,,,,,,,2023-04-19 14:42:28.863551+00:00
2023-04-19 07:42:29.063023-07:00,9.878533,4.43,-4.4,-0.3,0.5,18.05,887.27,50.07,79.0,0.0,0.0014108,0.000194196,0.00493749,32.6911162,-103.07525,1153.75842,102.038006,-0.12919855,0.247623143,,,,,,,,,,,,,,2023-04-19 14:42:29.063023+00:00
2023-04-19 07:42:29.263496-07:00,10.079006,2.76,-2.75,-0.22,0.02,17.91,887.3,50.57,84.0,0.0,9.37635e-05,0.000422476,0.00378143,32.6911162,-103.07525,1153.76953,102.042428,-0.129398363,0.245340291,,,,,,,,,,,,,,2023-04-19 14:42:29.263496+00:00
2023-04-19 07:42:29.462954-07:00,10.278464,2.02,-2.0,0.18,0.19,18.09,887.32,50.02,91.0,0.0,0.000656023,-0.000283854,0.00211138,32.6911162,-103.07525,1153.78137,102.040989,-0.131941812,0.250267411,,,,,,,,,,,,,,2023-04-19 14:42:29.462954+00:00
2023-04-19 07:42:29.662893-07:00,10.478403,2.97,-2.96,-0.03,0.26,18.72,887.3,48.12,87.0,0.0,-0.00060831,0.000331148,0.00196902,32.6911162,-103.07525,1153.79187,102.042614,-0.130386569,0.245485354,2.48274,95.5187,13352.8,26.6184,11672.0,0.974596,0.150743,12.0,-1202.0,74.0,,0.0,,2023-04-19 14:42:29.662893+00:00
2023-04-19 07:42:29.863434-07:00,10.678944,2.78,-2.7,-0.13,0.65,18.85,887.32,47.74,80.0,0.0,0.0002865,-0.000172442,0.00154897,32.6911162,-103.07525,1153.80237,102.046412,-0.132533732,0.251450806,,,,,,,,,,,,,,2023-04-19 14:42:29.863434+00:00
2023-04-19 07:42:30.063550-07:00,10.87906,2.76,-2.63,-0.29,0.79,19.01,887.32,47.27,80.0,0.0,0.000387792,0.000289756,0.00294002,32.6911162,-103.07525,1153.81726,102.051269,-0.131143063,0.244179202,,,,,,,,,,,,,,2023-04-19 14:42:30.063550+00:00
2023-04-19 07:42:30.263084-07:00,11.078594,3.69,-3.5,0.87,0.78,18.6,887.32,48.49,88.0,0.0,-0.000784994,0.00109237,0.00318234,32.6911162,-103.07525,1153.82935,102.057067,-0.134038376,0.249943561,,,,,,,,,,,,,,2023-04-19 14:42:30.263084+00:00
2023-04-19 07:42:30.463768-07:00,11.279278,3.78,-3.52,0.43,1.29,18.67,887.3,48.29,91.0,0.0,0.000938483,0.000283757,0.000739665,32.6911162,-103.07525,1153.82751,102.060371,-0.132342443,0.248094377,2.48888,95.1725,13313.7,26.6206,11632.0,0.974229,0.147778,13.0,-1203.0,74.0,,0.0,,2023-04-19 14:42:30.463768+00:00
2023-04-19 07:42:30.663605-07:00,11.479115,3.48,-3.31,0.46,0.98,18.44,887.32,48.87,83.0,0.0,-0.00126818,0.000823311,-0.000109688,32.6911162,-103.07525,1153.83252,102.066606,-0.129128875,0.244035073,,,,,,,,,,,,,,2023-04-19 14:42:30.663605+00:00
2023-04-19 07:42:30.863001-07:00,11.678511,4.34,-4.19,0.91,0.62,18.09,887.31,50.06,79.0,0.0,7.33672e-05,0.000710339,-0.000243744,32.6911161,-103.07525,1153.83752,102.067412,-0.128788873,0.246244339,,,,,,,,,,,,,,2023-04-19 14:42:30.863001+00:00
2023-04-19 07:42:31.063042-07:00,11.878552,3.72,-3.66,0.3,0.58,18.41,887.3,49.07,84.0,0.0,-0.00130899,0.000917624,-0.000563304,32.6911161,-103.07525,1153.84314,102.069181,-0.122108695,0.238349477,,,,,,,,,,,,,,2023-04-19 14:42:31.063042+00:00
2023-04-19 07:42:31.263530-07:00,12.07904,3.17,-3.16,-0.09,0.26,18.91,887.32,47.58,91.0,0.0,-9.67168e-05,7.01932e-05,-0.000601422,32.6911161,-103.07525,1153.84351,102.068319,-0.120525371,0.240481662,,,,,,,,,,,,,,2023-04-19 14:42:31.263530+00:00
2023-04-19 07:42:31.463501-07:00,12.279011,4.04,-3.96,-0.13,0.79,18.63,887.33,48.49,88.0,0.0,-1.13971e-05,9.27463e-05,-0.000810865,32.691116,-103.07525,1153.84009,102.0672,-0.12217264,0.236547945,,,,,,,,,,,,,,2023-04-19 14:42:31.463501+00:00
2023-04-19 07:42:31.663369-07:00,12.478879,4.51,-4.41,0.33,0.88,18.48,887.33,48.87,80.0,0.0,-0.000804334,0.000595426,-0.00255739,32.691116,-103.07525,1153.83203,102.073455,-0.121255822,0.236326603,2.48468,95.6995,13327.4,26.6235,11663.0,0.973397,0.151112,12.0,-1187.0,74.0,,0.0,,2023-04-19 14:42:31.663369+00:00
2023-04-19 07:42:31.863465-07:00,12.678975,4.3,-4.2,0.9,-0.17,17.49,887.3,51.99,80.0,0.0,-0.000602563,4.98108e-05,-0.00306367,32.691116,-103.07525,1153.82788,102.073578,-0.120589174,0.241435362,,,,,,,,,,,,,,2023-04-19 14:42:31.863465+00:00
2023-04-19 07:42:32.063793-07:00,12.879303,4.85,-4.8,0.57,0.37,18.03,887.29,50.25,87.0,0.0,0.000228355,-0.000236251,-0.00151319,32.691116,-103.07525,1153.83386,102.074076,-0.117782477,0.232737575,,,,,,,,,,,,,,2023-04-19 14:42:32.063793+00:00
2023-04-19 07:42:32.263585-07:00,13.079095,3.58,-3.51,-0.56,0.44,18.06,887.31,50.23,92.0,0.0,-0.00331631,0.000937851,0.00162445,32.6911161,-103.07525,1153.84424,102.081679,-0.116420647,0.233360461,,,,,,,,,,,,,,2023-04-19 14:42:32.263585+00:00
2023-04-19 07:42:32.463270-07:00,13.27878,4.24,-4.21,0.45,0.27,18.14,887.32,49.95,84.0,0.0,-0.00214568,-0.000117579,0.00479225,32.6911161,-103.07525,1153.85254,102.08784,-0.123385714,0.240947106,,,,,,,,,,,,,,2023-04-19 14:42:32.463270+00:00
2023-04-19 07:42:32.663197-07:00,13.478707,4.36,-4.23,-1.05,0.03,17.65,887.31,51.53,79.0,0.0,-0.00365189,0.000201436,0.00723469,32.6911161,-103.07525,1153.86353,102.09405,-0.125779429,0.242529483,2.48715,95.7709,13331.5,26.6255,11693.0,0.972603,0.153098,10.0,-1216.0,74.0,,0.0,,2023-04-19 14:42:32.663197+00:00
2023-04-19 07:42:32.863142-07:00,13.678652,4.64,-4.46,-1.24,0.28,17.7,887.31,51.37,82.0,0.0,-0.00236885,-0.000157261,0.00920874,32.6911161,-103.07525,1153.8822,102.097475,-0.127378542,0.24876006,,,,,,,,,,,,,,2023-04-19 14:42:32.863142+00:00
2023-04-19 07:42:33.063138-07:00,13.878648,4.56,-4.5,-0.65,0.29,17.92,887.29,50.65,91.0,0.0,-0.0012709,0.000244051,0.0140434,32.6911161,-103.07525,1153.90662,102.098692,-0.129533979,0.247032166,,,,,,,,,,,,,,2023-04-19 14:42:33.063138+00:00
2023-04-19 07:42:33.263152-07:00,14.078662,4.53,-4.48,-0.03,0.65,18.36,887.29,49.32,88.0,0.0,-0.00146417,0.000727359,0.021653,32.6911161,-103.07525,1153.93787,102.101027,-0.129271708,0.248016896,,,,,,,,,,,,,,2023-04-19 14:42:33.263152+00:00
2023-04-19 07:42:33.463144-07:00,14.278654,4.1,-4.07,0.09,0.46,17.8,887.32,51.09,80.0,0.0,0.00048877,0.000714116,0.0259058,32.6911161,-103.07525,1153.95654,102.101611,-0.134308812,0.250998569,,,,,,,,,,,,,,2023-04-19 14:42:33.463144+00:00
2023-04-19 07:42:33.662833-07:00,14.478343,3.66,-3.63,0.33,0.34,17.76,887.33,51.23,80.0,0.0,-0.000397516,0.00306745,0.0266267,32.6911161,-103.07525,1153.97375,102.101238,-0.134424066,0.251843893,2.48368,95.7711,13302.9,26.6276,11634.0,0.968657,0.154987,13.0,-1202.0,74.0,,0.0,,2023-04-19 14:42:33.662833+00:00
2023-04-19 07:42:33.863267-07:00,14.678777,4.16,-4.12,-0.43,0.43,18.26,887.29,49.64,88.0,0.0,-0.00026269,0.000865754,0.0233735,32.6911161,-103.07525,1153.97681,102.101764,-0.133247859,0.250774771,,,,,,,,,,,,,,2023-04-19 14:42:33.863267+00:00
2023-04-19 07:42:34.063503-07:00,14.879013,4.0,-3.92,-0.72,0.37,18.13,887.3,50.07,91.0,0.0,-0.000540235,0.000223053,0.0158284,32.6911161,-103.07525,1153.97351,102.10688,-0.134797898,0.253139267,,,,,,,,,,,,,,2023-04-19 14:42:34.063503+00:00
2023-04-19 07:42:34.263543-07:00,15.079053,4.21,-4.15,-0.7,0.24,17.34,887.3,52.43,84.0,0.0,-0.000210725,0.000552494,0.00867453,32.6911161,-103.07525,1153.96704,102.11787,-0.133568102,0.250458018,,,,,,,,,,,,,,2023-04-19 14:42:34.263543+00:00
2023-04-19 07:42:34.463525-07:00,15.279035,4.2,-4.04,-1.12,0.24,17.61,887.31,51.72,79.0,0.0,-0.0012255,0.00061219,0.00549595,32.6911161,-103.07525,1153.9646,102.122206,-0.137090544,0.257544196,2.48436,96.0442,13290.8,26.6304,11632.0,0.966618,0.163457,13.0,-1190.0,74.0,,0.0,,2023-04-19 14:42:34.463525+00:00
2023-04-19 07:42:34.663564-07:00,15.479074,4.15,-4.02,-0.96,0.43,17.64,887.31,51.55,83.0,0.0,0.00052031,0.000482259,0.00358312,32.6911161,-103.07525,1153.96082,102.130175,-0.139816065,0.264707511,,,,,,,,,,,,,,2023-04-19 14:42:34.663564+00:00
2023-04-19 07:42:34.863792-07:00,15.679302,3.99,-3.92,-0.65,0.34,17.77,887.3,51.21,91.0,0.0,0.00111756,5.47123e-05,0.00377981,32.6911161,-103.07525,1153.95667,102.131502,-0.133934172,0.254462469,,,,,,,,,,,,,,2023-04-19 14:42:34.863792+00:00
2023-04-19 07:42:35.063706-07:00,15.879216,2.84,-2.82,-0.16,0.36,18.16,887.32,49.95,89.0,0.0,-0.00191274,0.000756958,0.00279056,32.6911161,-103.07525,1153.94641,102.131067,-0.137403759,0.259477586,,,,,,,,,,,,,,2023-04-19 14:42:35.063706+00:00
2023-04-19 07:42:35.263669-07:00,16.079179,4.57,-4.42,-1.15,0.11,17.84,887.31,51.04,80.0,0.0,-0.000245529,0.000791881,0.00148193,32.691116,-103.07525,1153.94263,102.128301,-0.144075253,0.262659526,,,,,,,,,,,,,,2023-04-19 14:42:35.263669+00:00
2023-04-19 07:42:35.463008-07:00,16.278518,3.65,-3.6,-0.54,-0.26,17.47,887.26,52.29,79.0,0.0,-0.00274077,0.00250173,0.00606134,32.691116,-103.07525,1153.95813,102.127816,-0.139812078,0.261966175,2.48079,95.4001,13267.5,26.6326,11632.0,0.959074,0.166898,13.0,-1190.0,74.0,,0.0,,2023-04-19 14:42:35.463008+00:00
2023-04-19 07:42:35.663307-07:00,16.478817,4.74,-4.73,0.25,0.24,17.47,887.26,52.12,86.0,0.0,0.000545849,0.00195709,0.0138804,32.691116,-103.07525,1153.98352,102.123785,-0.142930883,0.264586834,,,,,,,,,,,,,,2023-04-19 14:42:35.663307+00:00
2023-04-19 07:42:35.863470-07:00,16.67898,4.8,-4.71,0.83,0.41,18.02,887.26,50.39,92.0,0.0,0.000305704,0.00112945,0.0234734,32.6911159,-103.07525,1154.01025,102.133022,-0.145318781,0.254063272,,,,,,,,,,,,,,2023-04-19 14:42:35.863470+00:00
2023-04-19 07:42:36.063160-07:00,16.87867,4.13,-4.02,-0.5,0.79,18.03,887.28,50.49,84.0,0.0,-0.00282987,0.000829313,0.0273401,32.6911159,-103.07525,1154.02881,102.138324,-0.147971149,0.264353965,,,,,,,,,,,,,,2023-04-19 14:42:36.063160+00:00
2023-04-19 07:42:36.263144-07:00,17.078654,3.92,-3.89,-0.27,0.41,17.88,887.28,50.9,78.0,0.0,-0.001769,0.00253279,0.0250212,32.6911159,-103.07525,1154.04297,102.144408,-0.142068255,0.257092065,,,,,,,,,,,,,,2023-04-19 14:42:36.263144+00:00
2023-04-19 07:42:36.463081-07:00,17.278591,4.79,-4.73,0.74,0.19,18.06,887.28,50.32,82.0,0.0,-0.00565632,0.0035731,0.0163458,32.691116,-103.07525,1154.03748,102.153211,-0.143937782,0.257281818,2.48148,96.143,13255.7,26.6345,11682.0,0.941745,0.171305,10.0,-1211.0,74.0,,0.0,,2023-04-19 14:42:36.463081+00:00
2023-04-19 07:42:36.663098-07:00,17.478608,4.29,-4.25,0.59,0.16,18.28,887.29,49.65,91.0,0.0,0.000174945,0.00382057,0.00967062,32.691116,-103.07525,1154.05212,102.160516,-0.139884087,0.257805666,,,,,,,,,,,,,,2023-04-19 14:42:36.663098+00:00
2023-04-19 07:42:36.863039-07:00,17.678549,4.54,-4.51,-0.06,0.49,18.67,887.27,48.39,89.0,0.0,-0.0025834,0.00662422,0.00409526,32.691116,-103.07525,1154.05066,102.159887,-0.13995521,0.254873245,,,,,,,,,,,,,,2023-04-19 14:42:36.863039+00:00
2023-04-19 07:42:37.062956-07:00,17.878466,4.56,-4.42,-0.94,0.63,18.35,887.28,49.49,81.0,0.0,-0.000428954,0.00489093,-0.00230169,32.691116,-103.07525,1154.04639,102.153551,-0.143243596,0.26278087,,,,,,,,,,,,,,2023-04-19 14:42:37.062956+00:00
2023-04-19 07:42:37.263204-07:00,18.078714,3.4,-3.36,-0.31,0.45,18.58,887.3,48.76,79.0,0.0,-0.0033391,0.00497212,-0.0041962,32.691116,-103.07525,1154.04968,102.158884,-0.140725308,0.252126735,,,,,,,,,,,,,,2023-04-19 14:42:37.263204+00:00
2023-04-19 07:42:37.463169-07:00,18.278679,4.41,-4.39,-0.03,0.41,18.31,887.29,49.62,85.0,0.0,-0.00334385,0.00538259,-0.00642337,32.691116,-103.07525,1154.04272,102.159699,-0.14006153,0.260760874,2.47996,94.8718,13261.3,26.6368,11620.0,0.928492,0.169346,14.0,-1182.0,74.0,,0.0,,2023-04-19 14:42:37.463169+00:00
2023-04-19 07:42:37.663097-07:00,18.478607,4.66,-4.63,0.19,0.43,18.17,887.3,49.98,92.0,0.0,-0.00219792,0.00636067,-0.00847324,32.691116,-103.07525,1154.03674,102.164469,-0.142118616,0.257088703,2.47996,94.8718,13261.3,26.6368,11620.0,0.928492,0.169346,14.0,-1182.0,74.0,,0.0,,2023-04-19 14:42:37.663097+00:00
2023-04-19 07:42:37.863721-07:00,18.679231,3.24,-3.22,-0.12,0.34,18.46,887.3,49.09,85.0,0.0,-0.00454644,0.00702524,-0.0106323,32.691116,-103.07525,1154.02002,102.169312,-0.144324056,0.262023805,,,,,,,,,,,,,,2023-04-19 14:42:37.863721+00:00
2023-04-19 07:42:38.063538-07:00,18.879048,3.84,-3.82,-0.07,0.35,18.33,887.31,49.49,79.0,0.0,-0.000166677,0.00698016,-0.0112687,32.691116,-103.07525,1154.02319,102.172695,-0.141320488,0.25872471,,,,,,,,,,,,,,2023-04-19 14:42:38.063538+00:00
2023-04-19 07:42:38.263492-07:00,19.079002,4.35,-4.31,0.26,0.5,18.5,887.3,48.9,81.0,0.0,-0.00374528,0.0092604,-0.0125075,32.691116,-103.07525,1154.01428,102.174203,-0.144889608,0.25684911,,,,,,,,,,,,,,2023-04-19 14:42:38.263492+00:00
2023-04-19 07:42:38.463631-07:00,19.279141,4.66,-4.61,0.17,0.68,18.41,887.31,49.24,89.0,0.0,-0.00372845,0.00978882,-0.0146379,32.691116,-103.07525,1153.99683,102.17438,-0.146716373,0.26415482,,,,,,,,,,,,,,2023-04-19 14:42:38.463631+00:00
2023-04-19 07:42:38.663776-07:00,19.479286,4.57,-4.35,1.39,0.22,18.17,887.29,50.06,89.0,0.0,-0.00297311,0.0082306,-0.0163437,32.691116,-103.07525,1153.9928,102.176767,-0.147938095,0.26081098,,,,,,,,,,,,,,2023-04-19 14:42:38.663776+00:00
2023-04-19 07:42:38.863416-07:00,19.678926,3.98,-3.85,0.95,0.43,18.24,887.3,49.76,81.0,0.0,-0.00237653,0.00772656,-0.0169693,32.691116,-103.07525,1153.97742,102.176588,-0.148380504,0.265127946,,,,,,,,,,,,,,2023-04-19 14:42:38.863416+00:00
2023-04-19 07:42:39.063659-07:00,19.879169,4.0,-3.88,-0.13,0.96,18.33,887.32,49.54,79.0,0.0,-0.000580983,0.00603531,-0.01924,32.691116,-103.07525,1153.96558,102.184027,-0.145190912,0.261801688,,,,,,,,,,,,,,2023-04-19 14:42:39.063659+00:00
2023-04-19 07:42:39.263688-07:00,20.079198,4.75,-4.68,-0.25,0.73,18.4,887.31,49.29,85.0,0.0,-6.42509e-05,0.0013319,-0.0195382,32.691116,-103.07525,1153.95654,102.189287,-0.150143086,0.263060084,,,,,,,,,,,,,,2023-04-19 14:42:39.263688+00:00
2023-04-19 07:42:39.462918-07:00,20.278428,3.98,-3.93,0.3,0.59,18.57,887.32,48.76,92.0,0.0,0.000700534,0.00073665,-0.016399,32.691116,-103.07525,1153.94543,102.189456,-0.146829824,0.26516762,,,,,,,,,,,,,,2023-04-19 14:42:39.462918+00:00
2023-04-19 07:42:39.663287-07:00,20.478797,4.44,-4.38,0.4,0.56,18.57,887.33,48.74,86.0,0.0,0.000530164,0.00062143,-0.0117768,32.6911159,-103.07525,1153.94128,102.190064,-0.148237547,0.261017276,2.482,95.3915,13307.4,26.6415,11670.0,0.892228,0.165996,15.0,-1204.0,74.0,,0.0,,2023-04-19 14:42:39.663287+00:00
2023-04-19 07:42:39.863122-07:00,20.678632,5.1,-5.03,0.68,0.53,18.44,887.3,49.2,79.0,0.0,0.000512804,0.00094452,-0.00805541,32.6911159,-103.07525,1153.93799,102.192839,-0.14391773,0.257840271,,,,,,,,,,,,,,2023-04-19 14:42:39.863122+00:00
2023-04-19 07:42:40.062953-07:00,20.878463,5.0,-4.95,0.3,0.61,18.45,887.3,49.18,81.0,0.0,-0.000553142,0.00110791,-0.00588852,32.6911158,-103.07525,1153.93494,102.193234,-0.144397068,0.257966791,,,,,,,,,,,,,,2023-04-19 14:42:40.062953+00:00
2023-04-19 07:42:40.263479-07:00,21.078989,4.09,-3.91,0.7,0.96,18.6,887.3,48.65,90.0,0.0,0.000171171,0.000521758,-0.00581971,32.6911158,-103.07525,1153.92627,102.195588,-0.144034276,0.258448031,,,,,,,,,,,,,,2023-04-19 14:42:40.263479+00:00
2023-04-19 07:42:40.463792-07:00,21.279302,3.56,-3.4,0.94,0.4,18.41,887.32,49.31,90.0,0.0,-0.000497422,0.00101781,-0.00548409,32.6911159,-103.07525,1153.91748,102.19621,-0.143622029,0.258387893,2.48034,95.0446,13323.6,26.643,11621.0,0.870291,0.164562,14.0,-1201.0,74.0,,0.0,,2023-04-19 14:42:40.463792+00:00
2023-04-19 07:42:40.663691-07:00,21.479201,3.15,-3.13,0.18,0.35,18.58,887.32,48.71,81.0,0.0,0.00057455,0.000441037,-0.00532003,32.6911159,-103.07525,1153.91272,102.201204,-0.145406191,0.262368066,2.48034,95.0446,13323.6,26.643,11621.0,0.870291,0.164562,14.0,-1201.0,74.0,,0.0,,2023-04-19 14:42:40.663691+00:00
2023-04-19 07:42:40.863663-07:00,21.679173,2.64,-2.55,-0.39,0.53,18.66,887.33,48.59,79.0,0.0,0.0010144,0.00040535,-0.00322617,32.6911159,-103.07525,1153.91199,102.208034,-0.145077368,0.261234723,,,,,,,,,,,,,,2023-04-19 14:42:40.863663+00:00
2023-04-19 07:42:41.062960-07:00,21.87847,2.47,-2.45,-0.14,0.34,18.73,887.34,48.27,85.0,0.0,-9.62903e-05,0.00127458,-0.00177733,32.6911159,-103.07525,1153.91235,102.213282,-0.142194381,0.256807515,,,,,,,,,,,,,,2023-04-19 14:42:41.062960+00:00
2023-04-19 07:42:41.263569-07:00,22.079079,2.38,-2.38,-0.08,0.18,18.51,887.32,49.03,92.0,0.0,0.00112049,0.000779342,-0.000684507,32.6911158,-103.07525,1153.91235,102.21789,-0.142952831,0.261086699,,,,,,,,,,,,,,2023-04-19 14:42:41.263569+00:00
2023-04-19 07:42:41.463726-07:00,22.279236,4.06,-4.05,-0.02,0.33,18.49,887.32,49.05,85.0,0.0,0.000167693,0.000944808,-0.000284205,32.6911158,-103.07525,1153.91052,102.22515,-0.139480499,0.252582894,2.48264,95.0785,13332.5,26.6457,11673.0,0.828746,0.155609,12.0,-1210.0,74.0,,0.0,,2023-04-19 14:42:41.463726+00:00
2023-04-19 07:42:41.663516-07:00,22.479026,4.93,-4.91,0.08,0.52,17.54,887.3,52.0,78.0,0.0,0.000390185,-8.04867e-05,-0.000250835,32.6911158,-103.07525,1153.91223,102.225429,-0.136529102,0.254446887,2.48264,95.0785,13332.5,26.6457,11673.0,0.828746,0.155609,12.0,-1210.0,74.0,,0.0,,2023-04-19 14:42:41.663516+00:00
2023-04-19 07:42:41.863650-07:00,22.67916,4.89,-4.88,0.04,0.3,17.49,887.27,52.27,81.0,0.0,0.000191784,0.000397025,0.000478447,32.6911157,-103.07525,1153.91504,102.227699,-0.141129963,0.257161061,,,,,,,,,,,,,,2023-04-19 14:42:41.863650+00:00
2023-04-19 07:42:42.063908-07:00,22.879418,5.28,-5.26,-0.27,0.36,17.68,887.27,51.6,90.0,0.0,0.000603967,0.000773286,0.000821194,32.6911157,-103.07525,1153.9187,102.224139,-0.139514464,0.258500885,,,,,,,,,,,,,,2023-04-19 14:42:42.063908+00:00
2023-04-19 07:42:42.262919-07:00,23.078429,5.16,-5.12,-0.23,0.57,18.2,887.27,49.99,90.0,0.0,0.00160525,0.000461101,0.00107148,32.6911157,-103.07525,1153.92615,102.229688,-0.13799226,0.24982694,,,,,,,,,,,,,,2023-04-19 14:42:42.262919+00:00
2023-04-19 07:42:42.463341-07:00,23.278851,5.4,-5.29,0.28,1.02,18.52,887.27,48.95,82.0,0.0,-0.00222747,0.00160577,0.000836253,32.6911158,-103.07525,1153.92554,102.236063,-0.135638684,0.248738288,,,,,,,,,,,,,,2023-04-19 14:42:42.463341+00:00
2023-04-19 07:42:42.663580-07:00,23.47909,4.69,-4.42,0.67,1.41,18.58,887.29,48.81,79.0,0.0,0.00176269,0.000666599,-0.00216497,32.6911158,-103.07525,1153.91858,102.236971,-0.134467417,0.256752953,,,,,,,,,,,,,,2023-04-19 14:42:42.663580+00:00
2023-04-19 07:42:42.863600-07:00,23.67911,3.81,-3.41,0.18,1.68,18.61,887.3,48.63,85.0,0.0,0.000587023,0.00114735,-0.00816831,32.6911158,-103.07525,1153.90198,102.237553,-0.135779673,0.246135749,,,,,,,,,,,,,,2023-04-19 14:42:42.863600+00:00
2023-04-19 07:42:43.063520-07:00,23.87903,3.11,-2.72,0.24,1.48,18.68,887.33,48.56,91.0,0.0,-0.00157754,0.00223827,-0.0148838,32.6911158,-103.07525,1153.88733,102.233461,-0.131348493,0.252519394,,,,,,,,,,,,,,2023-04-19 14:42:43.063520+00:00
2023-04-19 07:42:43.263275-07:00,24.078785,3.6,-3.48,0.58,0.68,18.56,887.33,48.84,86.0,0.0,0.000855935,0.00151515,-0.0175912,32.6911157,-103.07525,1153.87793,102.232727,-0.130812257,0.245046163,,,,,,,,,,,,,,2023-04-19 14:42:43.263275+00:00
2023-04-19 07:42:43.463139-07:00,24.278649,3.26,-3.14,-0.18,0.86,18.67,887.32,48.49,79.0,0.0,-0.0031036,0.00228558,-0.0206476,32.6911157,-103.07525,1153.86108,102.239452,-0.12985023,0.24348964,,,,,,,,,,,,,,2023-04-19 14:42:43.463139+00:00
2023-04-19 07:42:43.663629-07:00,24.479139,3.49,-3.34,1.0,0.24,18.76,887.33,48.27,81.0,0.0,-0.00171938,0.00144221,-0.0210803,32.6911157,-103.07525,1153.84778,102.246129,-0.129540273,0.24926179,2.48343,95.488,13358.6,26.6446,11623.0,0.709018,0.138493,14.0,-1192.0,74.0,,0.0,,2023-04-19 14:42:43.663629+00:00
2023-04-19 07:42:43.863270-07:00,24.67878,3.61,-3.5,0.85,0.27,18.51,887.32,48.98,89.0,0.0,-0.00116126,0.0015025,-0.0210482,32.6911156,-103.07525,1153.83154,102.252693,-0.134194144,0.247426399,,,,,,,,,,,,,,2023-04-19 14:42:43.863270+00:00
2023-04-19 07:42:44.063575-07:00,24.879085,3.77,-3.74,0.27,0.41,17.99,887.32,50.66,90.0,0.0,-0.0028953,0.00169198,-0.0235431,32.6911156,-103.07525,1153.81116,102.259188,-0.133095273,0.253242521,,,,,,,,,,,,,,2023-04-19 14:42:44.063575+00:00
2023-04-19 07:42:44.262986-07:00,25.078496,3.71,-3.69,0.08,0.39,18.01,887.31,50.54,82.0,0.0,-0.000209573,0.00193888,-0.0228197,32.6911156,-103.07525,1153.80042,102.267542,-0.135820242,0.252663337,,,,,,,,,,,,,,2023-04-19 14:42:44.262986+00:00
2023-04-19 07:42:44.463452-07:00,25.278962,3.18,-3.15,0.33,0.18,18.03,887.31,50.53,79.0,0.0,-0.00166661,0.00441034,-0.0193681,32.6911156,-103.07525,1153.80127,102.271506,-0.139111349,0.258965903,2.47847,95.4892,13373.4,26.646,11623.0,0.639569,-1.0,14.0,-1192.0,74.0,,0.0,,2023-04-19 14:42:44.463452+00:00
2023-04-19 07:42:44.663811-07:00,25.479321,3.12,-2.9,1.12,0.18,17.86,887.31,51.08,84.0,0.0,8.59998e-05,0.00432913,-0.0126993,32.6911157,-103.07525,1153.81506,102.270344,-0.13803268,0.260306769,,,,,,,,,,,,,,2023-04-19 14:42:44.663811+00:00
2023-04-19 07:42:44.863635-07:00,25.679145,3.31,-3.28,-0.05,0.38,17.88,887.31,51.01,92.0,0.0,0.000372339,0.00428722,-0.00635087,32.6911157,-103.07525,1153.81921,102.269113,-0.137479513,0.257464634,,,,,,,,,,,,,,2023-04-19 14:42:44.863635+00:00
2023-04-19 07:42:45.063737-07:00,25.879247,3.03,-2.94,-0.13,0.71,18.45,887.32,49.18,87.0,0.0,-0.000185522,0.000985089,-0.00373704,32.6911157,-103.07525,1153.81604,102.270249,-0.135967437,0.256460319,,,,,,,,,,,,,,2023-04-19 14:42:45.063737+00:00
2023-04-19 07:42:45.263752-07:00,26.079262,4.48,-4.36,0.79,0.68,18.18,887.32,50.06,79.0,0.0,0.000369608,0.000603293,-0.00255692,32.6911157,-103.07525,1153.81433,102.272615,-0.134521911,0.254150678,,,,,,,,,,,,,,2023-04-19 14:42:45.263752+00:00
2023-04-19 07:42:45.463235-07:00,26.278745,4.33,-4.32,-0.04,0.28,17.84,887.31,51.1,81.0,0.0,-0.000530337,0.00100968,-0.00369499,32.6911157,-103.07525,1153.8031,102.279811,-0.128841072,0.247609162,,,,,,,,,,,,,,2023-04-19 14:42:45.463235+00:00
2023-04-19 07:42:45.663667-07:00,26.479177,4.56,-4.48,-0.69,0.44,17.99,887.31,50.73,89.0,0.0,5.79754e-05,0.000719856,-0.00378974,32.6911157,-103.07525,1153.79993,102.287639,-0.126786726,0.245880361,2.47926,95.0727,13376.2,26.6477,11688.0,0.588798,-1.0,14.0,-1214.0,74.0,,0.0,,2023-04-19 14:42:45.663667+00:00
2023-04-19 07:42:45.863755-07:00,26.679265,5.02,-4.98,-0.27,0.57,17.54,887.32,52.18,91.0,0.0,-0.000229169,0.00116816,-0.00251259,32.6911157,-103.07525,1153.80432,102.294089,-0.129084716,0.25010039,,,,,,,,,,,,,,2023-04-19 14:42:45.863755+00:00
2023-04-19 07:42:46.062970-07:00,26.87848,4.75,-4.72,-0.36,0.3,17.32,887.3,52.79,83.0,0.0,-0.000154665,0.000588197,-0.000416579,32.6911157,-103.07525,1153.82129,102.287289,-0.131116239,0.253885045,,,,,,,,,,,,,,2023-04-19 14:42:46.062970+00:00
2023-04-19 07:42:46.263742-07:00,27.079252,4.21,-4.2,0.1,0.29,17.62,887.3,51.84,79.0,0.0,0.0012058,-0.000251975,0.000723127,32.6911157,-103.07525,1153.82239,102.286998,-0.135810392,0.255201257,,,,,,,,,,,,,,2023-04-19 14:42:46.263742+00:00
2023-04-19 07:42:46.463472-07:00,27.278982,4.06,-4.03,0.36,0.27,17.68,887.3,51.66,83.0,0.0,-0.00117326,0.00142499,0.000506716,32.6911157,-103.07525,1153.83313,102.288401,-0.134003266,0.253045778,2.48109,95.1836,13385.4,26.6502,11630.0,0.518868,-1.0,15.0,-1185.0,74.0,,0.0,,2023-04-19 14:42:46.463472+00:00
2023-04-19 07:42:46.663386-07:00,27.478896,4.06,-4.01,-0.38,0.49,17.84,887.29,51.14,91.0,0.0,0.000476915,0.000342936,0.00130127,32.6911157,-103.07525,1153.85046,102.291313,-0.132941291,0.255666755,2.48109,95.1836,13385.4,26.6502,11630.0,0.518868,-1.0,15.0,-1185.0,74.0,,0.0,,2023-04-19 14:42:46.663386+00:00
2023-04-19 07:42:46.863485-07:00,27.678995,4.25,-4.2,-0.57,0.18,17.61,887.29,51.93,89.0,0.0,1.01251e-05,0.000641371,0.002463,32.6911157,-103.07525,1153.8562,102.293238,-0.125011058,0.242166572,,,,,,,,,,,,,,2023-04-19 14:42:46.863485+00:00
2023-04-19 07:42:47.063593-07:00,27.879103,3.8,-3.76,-0.28,0.41,17.61,887.31,51.99,80.0,0.0,-0.00120671,0.000727447,0.00245556,32.6911157,-103.07525,1153.86243,102.298765,-0.126434491,0.24620149,,,,,,,,,,,,,,2023-04-19 14:42:47.063593+00:00
2023-04-19 07:42:47.263118-07:00,28.078628,3.88,-3.84,-0.31,0.5,18.05,887.3,50.52,80.0,0.0,0.00106231,4.05166e-05,0.000583458,32.6911157,-103.07525,1153.86389,102.29963,-0.126232042,0.25017008,,,,,,,,,,,,,,2023-04-19 14:42:47.263118+00:00
2023-04-19 07:42:47.463467-07:00,28.278977,3.67,-3.65,-0.2,0.34,18.32,887.3,49.64,87.0,0.0,0.000467442,0.000505544,0.000376861,32.6911157,-103.07525,1153.86389,102.299125,-0.124917505,0.242986736,2.47573,94.5508,13396.1,26.6532,11654.0,0.415758,-1.0,11.0,-1199.0,74.0,,0.0,,2023-04-19 14:42:47.463467+00:00
2023-04-19 07:42:47.663477-07:00,28.478987,4.22,-3.91,1.08,1.17,18.34,887.31,49.57,92.0,0.0,-0.000794259,-3.13043e-05,-0.000175126,32.6911157,-103.07525,1153.86743,102.298437,-0.122889109,0.243723122,,,,,,,,,,,,,,2023-04-19 14:42:47.663477+00:00
2023-04-19 07:42:47.863540-07:00,28.67905,4.2,-4.02,0.57,1.05,18.33,887.3,49.59,85.0,0.0,0.000162215,1.73677e-05,-0.000367693,32.6911157,-103.07525,1153.86377,102.302759,-0.123984716,0.245448108,,,,,,,,,,,,,,2023-04-19 14:42:47.863540+00:00
2023-04-19 07:42:48.062997-07:00,28.878507,3.27,-3.15,-0.53,0.69,18.41,887.32,49.39,79.0,0.0,5.61347e-05,0.000184758,-0.000314504,32.6911157,-103.07525,1153.86072,102.306505,-0.12156741,0.244348437,,,,,,,,,,,,,,2023-04-19 14:42:48.062997+00:00
2023-04-19 07:42:48.263240-07:00,29.07875,3.88,-3.73,-0.26,1.03,18.42,887.3,49.36,82.0,0.0,-0.000232582,-0.000195166,-0.00127413,32.6911157,-103.07525,1153.85901,102.308112,-0.125685383,0.248213639,,,,,,,,,,,,,,2023-04-19 14:42:48.263240+00:00
2023-04-19 07:42:48.463704-07:00,29.279214,3.37,-3.2,-0.61,0.83,18.37,887.32,49.64,91.0,0.0,0.000822692,0.000210064,-0.000908939,32.6911156,-103.07525,1153.86157,102.314694,-0.120417464,0.241876233,,,,,,,,,,,,,,2023-04-19 14:42:48.463704+00:00
2023-04-19 07:42:48.663122-07:00,29.478632,3.71,-3.67,-0.34,0.45,18.56,887.32,49.0,90.0,0.0,-0.000574085,0.000647413,-0.00103465,32.6911156,-103.07525,1153.8584,102.321569,-0.119325977,0.239538554,2.47793,95.0809,13411.2,26.6551,11685.0,0.368952,-1.0,14.0,-1229.0,74.0,,0.0,,2023-04-19 14:42:48.663122+00:00
2023-04-19 07:42:48.863573-07:00,29.679083,4.87,-4.79,-0.27,0.87,18.08,887.32,50.43,81.0,0.0,0.000328418,0.00018753,-0.00273101,32.6911155,-103.07525,1153.8562,102.323867,-0.121081337,0.243819413,,,,,,,,,,,,,,2023-04-19 14:42:48.863573+00:00
2023-04-19 07:42:49.062900-07:00,29.87841,5.26,-5.16,0.92,0.39,17.68,887.3,51.72,79.0,0.0,2.63208e-06,0.00066648,-0.0017366,32.6911155,-103.07525,1153.86438,102.318911,-0.115352543,0.234199888,,,,,,,,,,,,,,2023-04-19 14:42:49.062900+00:00
2023-04-19 07:42:49.263369-07:00,30.078879,5.04,-4.96,0.83,0.32,17.58,887.29,52.03,85.0,0.0,0.000181606,0.000164747,-0.00115439,32.6911155,-103.07525,1153.86987,102.318082,-0.122237388,0.240842571,,,,,,,,,,,,,,2023-04-19 14:42:49.263369+00:00
2023-04-19 07:42:49.463716-07:00,30.279226,4.72,-4.57,1.17,0.2,17.21,887.3,53.23,92.0,0.0,-0.000686744,0.000908632,-0.000410278,32.6911155,-103.075251,1153.87451,102.322736,-0.123162659,0.242444745,,,,,,,,,,,,,,2023-04-19 14:42:49.463716+00:00
2023-04-19 07:42:49.663030-07:00,30.47854,4.9,-4.79,1.0,0.21,17.51,887.31,52.21,86.0,0.0,0.000306715,0.000115291,-0.00112119,32.6911155,-103.07525,1153.87451,102.324557,-0.124146421,0.246446285,2.47415,95.1155,13441.4,26.6573,11639.0,0.344435,-1.0,15.0,-1187.0,74.0,,0.0,,2023-04-19 14:42:49.663030+00:00
2023-04-19 07:42:49.862852-07:00,30.678362,4.84,-4.68,1.21,0.2,17.51,887.31,52.26,79.0,0.0,0.000158579,0.000260144,-0.000863407,32.6911156,-103.07525,1153.87646,102.33026,-0.127982415,0.245604856,,,,,,,,,,,,,,2023-04-19 14:42:49.862852+00:00
2023-04-19 07:42:50.062985-07:00,30.878495,3.97,-3.73,1.37,0.18,17.85,887.31,51.24,81.0,0.0,-0.00155133,0.00101365,0.000511663,32.6911156,-103.07525,1153.88416,102.335748,-0.126114992,0.244703797,,,,,,,,,,,,,,2023-04-19 14:42:50.062985+00:00
2023-04-19 07:42:50.263581-07:00,31.079091,3.76,-3.58,0.87,0.76,18.02,887.31,50.7,88.0,0.0,0.000723478,-9.78564e-05,0.000917003,32.6911156,-103.07525,1153.89001,102.341231,-0.130059056,0.2487234,,,,,,,,,,,,,,2023-04-19 14:42:50.263581+00:00
2023-04-19 07:42:50.463644-07:00,31.279154,4.09,-3.95,0.33,1.0,17.9,887.3,51.07,90.0,0.0,-0.0017117,0.00164108,0.00264413,32.6911155,-103.07525,1153.90051,102.350837,-0.132616767,0.249365818,2.4733,94.5302,13435.2,26.6596,11637.0,0.394889,-1.0,11.0,-1206.0,74.0,,0.0,,2023-04-19 14:42:50.463644+00:00
2023-04-19 07:42:50.662945-07:00,31.478455,4.62,-4.54,0.75,0.45,17.86,887.3,51.2,82.0,0.0,-0.00238431,0.00227286,0.00428311,32.6911155,-103.07525,1153.91003,102.352394,-0.126225196,0.251764865,2.4733,94.5302,13435.2,26.6596,11637.0,0.394889,-1.0,11.0,-1206.0,74.0,,0.0,,2023-04-19 14:42:50.662945+00:00
2023-04-19 07:42:50.863589-07:00,31.679099,4.06,-4.04,-0.13,0.45,17.68,887.3,51.79,79.0,0.0,-0.000882028,0.0015371,0.00165549,32.6911155,-103.07525,1153.9082,102.347707,-0.128866212,0.250706602,,,,,,,,,,,,,,2023-04-19 14:42:50.863589+00:00
2023-04-19 07:42:51.063752-07:00,31.879262,4.59,-4.52,-0.34,0.73,17.82,887.31,51.26,84.0,0.0,-0.00476943,0.00234744,-0.00198569,32.6911154,-103.07525,1153.91309,102.346906,-0.129821196,0.252489112,,,,,,,,,,,,,,2023-04-19 14:42:51.063752+00:00
2023-04-19 07:42:51.263349-07:00,32.078859,4.86,-4.81,-0.29,0.65,17.94,887.31,50.89,92.0,0.0,-0.00420474,0.00248221,-0.00634859,32.6911154,-103.07525,1153.9071,102.345587,-0.12909762,0.252843325,,,,,,,,,,,,,,2023-04-19 14:42:51.263349+00:00
2023-04-19 07:42:51.462986-07:00,32.278496,3.87,-3.86,0.02,0.32,17.8,887.3,51.4,87.0,0.0,-0.0048721,0.00382652,-0.0106935,32.6911154,-103.075251,1153.89905,102.344832,-0.126165141,0.24562516,,,,,,,,,,,,,,2023-04-19 14:42:51.462986+00:00
2023-04-19 07:42:51.663593-07:00,32.479103,3.77,-3.76,0.09,0.32,17.72,887.31,51.59,80.0,0.0,-0.0013256,0.00102851,-0.00882688,32.6911154,-103.075251,1153.90234,102.355346,-0.125059707,0.24613951,,,,,,,,,,,,,,2023-04-19 14:42:51.663593+00:00
2023-04-19 07:42:51.863545-07:00,32.679055,3.67,-3.59,0.74,0.25,17.65,887.32,51.83,80.0,0.0,-0.000870143,0.000482093,-0.00599694,32.6911155,-103.075251,1153.9115,102.357987,-0.125872116,0.24949778,,,,,,,,,,,,,,2023-04-19 14:42:51.863545+00:00
2023-04-19 07:42:52.063679-07:00,32.879189,3.84,-3.75,0.71,0.47,17.93,887.31,50.92,88.0,0.0,-0.00016615,0.000233089,-0.00244861,32.6911155,-103.075251,1153.927,102.36178,-0.129016062,0.250408445,,,,,,,,,,,,,,2023-04-19 14:42:52.063679+00:00
2023-04-19 07:42:52.263052-07:00,33.078562,4.48,-4.41,0.69,0.39,17.96,887.31,50.81,91.0,0.0,-0.00136847,0.000479287,-0.000192032,32.6911155,-103.075251,1153.93213,102.367128,-0.125512995,0.248645173,,,,,,,,,,,,,,2023-04-19 14:42:52.263052+00:00
2023-04-19 07:42:52.463100-07:00,33.27861,5.02,-4.96,0.02,0.79,17.99,887.29,50.71,83.0,0.0,-0.000504867,0.000232279,0.000388237,32.6911154,-103.075251,1153.94006,102.37092,-0.129758968,0.251367029,,,,,,,,,,,,,,2023-04-19 14:42:52.463100+00:00
2023-04-19 07:42:52.663308-07:00,33.478818,5.26,-5.16,-0.21,1.02,18.01,887.31,50.73,79.0,0.0,-0.000278228,0.000549902,0.000188276,32.6911154,-103.075251,1153.94373,102.37031,-0.130990139,0.253445161,2.47385,95.1725,13440.8,26.6648,11653.0,0.421123,-1.0,14.0,-1192.0,74.0,,0.0,,2023-04-19 14:42:52.663308+00:00
2023-04-19 07:42:52.863253-07:00,33.678763,5.13,-5.04,0.55,0.78,18.19,887.3,50.15,83.0,0.0,-0.000614353,0.000602336,-0.00101267,32.6911154,-103.075251,1153.94568,102.372835,-0.131395148,0.252191596,,,,,,,,,,,,,,2023-04-19 14:42:52.863253+00:00
2023-04-19 07:42:53.062900-07:00,33.87841,5.04,-4.98,0.47,0.63,17.48,887.31,52.45,91.0,0.0,-0.000681219,0.000924934,-0.00149037,32.6911153,-103.075251,1153.94702,102.369739,-0.128290366,0.250877599,,,,,,,,,,,,,,2023-04-19 14:42:53.062900+00:00
2023-04-19 07:42:53.263311-07:00,34.078821,5.04,-4.87,1.27,0.29,16.86,887.3,54.59,88.0,0.0,-7.41661e-05,0.000638854,-0.00260523,32.6911153,-103.075251,1153.94409,102.370877,-0.129672801,0.249425636,,,,,,,,,,,,,,2023-04-19 14:42:53.263311+00:00
2023-04-19 07:42:53.463109-07:00,34.278619,4.39,-4.21,1.27,0.09,16.85,887.31,54.59,80.0,0.0,-0.000507019,0.0008938,-0.00124376,32.6911153,-103.075251,1153.94873,102.368404,-0.122856451,0.243036255,,,,,,,,,,,,,,2023-04-19 14:42:53.463109+00:00
2023-04-19 07:42:53.663759-07:00,34.479269,3.52,-3.46,0.08,0.64,17.18,887.31,53.44,79.0,0.0,0.00149543,-0.000163985,-0.00139384,32.6911154,-103.075251,1153.94604,102.368997,-0.11912932,0.23233958,,,,,,,,,,,,,,2023-04-19 14:42:53.663759+00:00
2023-04-19 07:42:53.863555-07:00,34.679065,3.86,-3.69,0.57,0.99,17.45,887.31,52.46,87.0,0.0,-0.00379862,0.00121339,-0.000728096,32.6911154,-103.075251,1153.95447,102.368715,-0.114169504,0.227645628,,,,,,,,,,,,,,2023-04-19 14:42:53.863555+00:00
2023-04-19 07:42:54.063487-07:00,34.878997,5.24,-5.09,1.19,0.35,17.55,887.29,52.15,91.0,0.0,-0.00255167,0.0010656,0.00296718,32.6911154,-103.075251,1153.9707,102.368513,-0.115304282,0.241889253,,,,,,,,,,,,,,2023-04-19 14:42:54.063487+00:00
2023-04-19 07:42:54.263587-07:00,35.079097,5.45,-5.28,1.34,0.18,16.82,887.3,54.67,84.0,0.0,-0.00125829,0.00102463,0.00794462,32.6911154,-103.075251,1153.99402,102.380773,-0.120544107,0.235875033,,,,,,,,,,,,,,2023-04-19 14:42:54.263587+00:00
2023-04-19 07:42:54.463486-07:00,35.278996,5.04,-4.91,1.11,0.21,16.81,887.29,54.71,78.0,0.0,-0.00481396,0.00229804,0.0105488,32.6911154,-103.075251,1154.00635,102.387388,-0.117367575,0.243058187,,,,,,,,,,,,,,2023-04-19 14:42:54.463486+00:00
2023-04-19 07:42:54.663348-07:00,35.478858,5.27,-5.2,0.77,0.32,17.36,887.28,52.78,82.0,0.0,0.000424933,0.00160933,0.00757969,32.6911153,-103.075251,1154.01001,102.39357,-0.117134834,0.240105811,2.46974,94.8549,13427.7,26.6698,11683.0,0.537628,-1.0,10.0,-1221.0,74.0,,0.0,,2023-04-19 14:42:54.663348+00:00
2023-04-19 07:42:54.863109-07:00,35.678619,4.9,-4.89,0.12,0.28,17.27,887.28,53.25,91.0,0.0,-0.00320247,0.00331253,0.00326912,32.6911153,-103.075251,1154.01379,102.388753,-0.114064425,0.237844065,,,,,,,,,,,,,,2023-04-19 14:42:54.863109+00:00
2023-04-19 07:42:55.063372-07:00,35.878882,5.25,-5.19,0.7,0.43,16.92,887.29,54.37,89.0,0.0,-0.00120659,0.00356735,-0.00105212,32.6911153,-103.075251,1154.01624,102.385725,-0.115545237,0.241246516,,,,,,,,,,,,,,2023-04-19 14:42:55.063372+00:00
2023-04-19 07:42:55.263850-07:00,36.07936,5.24,-5.12,1.1,0.08,16.89,887.3,54.43,81.0,0.0,-0.0029394,0.00229643,-0.00362552,32.6911152,-103.075251,1154.02209,102.382557,-0.115954456,0.240096313,,,,,,,,,,,,,,2023-04-19 14:42:55.263850+00:00
2023-04-19 07:42:55.463335-07:00,36.278845,5.13,-5.06,0.57,0.6,16.89,887.29,54.49,79.0,0.0,-0.00133849,-0.000359619,-0.0062127,32.6911152,-103.075251,1154.02087,102.376249,-0.112610184,0.242126124,,,,,,,,,,,,,,2023-04-19 14:42:55.463335+00:00
2023-04-19 07:42:55.663763-07:00,36.479273,4.97,-4.89,0.73,0.48,17.25,887.29,53.27,86.0,0.0,-0.00241115,-0.000741821,-0.00401332,32.6911152,-103.075251,1154.04041,102.387087,-0.114214583,0.233335889,,,,,,,,,,,,,,2023-04-19 14:42:55.663763+00:00
2023-04-19 07:42:55.863344-07:00,36.678854,4.5,-4.43,0.57,0.51,17.27,887.3,53.2,91.0,0.0,-0.00777528,0.00125041,-0.00157342,32.6911152,-103.075251,1154.0354,102.39717,-0.113582486,0.244715963,,,,,,,,,,,,,,2023-04-19 14:42:55.863344+00:00
2023-04-19 07:42:56.063319-07:00,36.878829,4.79,-4.76,0.34,0.42,17.34,887.3,52.89,85.0,0.0,0.000201272,0.000451132,-0.00204267,32.6911152,-103.075251,1154.03479,102.402313,-0.121156362,0.247731039,,,,,,,,,,,,,,2023-04-19 14:42:56.063319+00:00
2023-04-19 07:42:56.263413-07:00,37.078923,4.77,-4.65,1.05,0.2,17.42,887.31,52.62,78.0,0.0,-0.00515935,0.00373763,-0.00243969,32.6911153,-103.075251,1154.03967,102.410027,-0.119367109,0.244206309,,,,,,,,,,,,,,2023-04-19 14:42:56.263413+00:00
2023-04-19 07:42:56.463716-07:00,37.279226,4.27,-4.25,0.19,0.41,17.54,887.29,52.29,81.0,0.0,-0.00245389,0.00273014,-0.00193135,32.6911153,-103.075251,1154.03223,102.409754,-0.12037081,0.247345584,2.47075,94.2454,13458.3,26.6744,11617.0,0.66991,-1.0,11.0,-1184.0,74.0,,0.0,,2023-04-19 14:42:56.463716+00:00
2023-04-19 07:42:56.663491-07:00,37.479001,4.42,-4.27,1.09,0.32,17.51,887.3,52.39,90.0,0.0,-0.00514784,0.00493473,-0.00366282,32.6911153,-103.075251,1154.03601,102.410443,-0.123353799,0.245746638,,,,,,,,,,,,,,2023-04-19 14:42:56.663491+00:00
2023-04-19 07:42:56.863235-07:00,37.678745,4.81,-4.75,0.51,0.52,17.49,887.29,52.51,89.0,0.0,-0.00901534,0.00667293,0.000109163,32.6911153,-103.075251,1154.0481,102.417446,-0.123061075,0.251453955,,,,,,,,,,,,,,2023-04-19 14:42:56.863235+00:00
2023-04-19 07:42:57.063229-07:00,37.878739,4.59,-4.54,0.47,0.42,17.42,887.31,52.7,81.0,0.0,-0.00613036,0.00548401,8.26416e-06,32.6911153,-103.075251,1154.04688,102.412817,-0.125431126,0.254899659,,,,,,,,,,,,,,2023-04-19 14:42:57.063229+00:00
2023-04-19 07:42:57.263095-07:00,38.078605,4.67,-4.56,0.89,0.42,17.58,887.29,52.17,79.0,0.0,-0.00908819,0.00532319,0.00406363,32.6911153,-103.075251,1154.05591,102.414383,-0.123772409,0.247860174,,,,,,,,,,,,,,2023-04-19 14:42:57.263095+00:00
2023-04-19 07:42:57.462901-07:00,38.278411,4.25,-4.08,1.18,0.21,17.58,887.3,52.15,87.0,0.0,-0.00809141,0.00438148,0.00454022,32.6911153,-103.075251,1154.04907,102.414907,-0.123320694,0.255890526,,,,,,,,,,,,,,2023-04-19 14:42:57.462901+00:00
2023-04-19 07:42:57.663778-07:00,38.479288,4.48,-4.4,0.62,0.6,17.49,887.3,52.45,92.0,0.0,-0.00776386,0.00355943,0.00580049,32.6911153,-103.075251,1154.05017,102.42159,-0.120587764,0.246655114,,,,,,,,,,,,,,2023-04-19 14:42:57.663778+00:00
2023-04-19 07:42:57.863091-07:00,38.678601,3.75,-3.63,0.79,0.51,17.61,887.3,52.02,84.0,0.0,-0.0116706,0.00363423,0.00381323,32.6911153,-103.075251,1154.03809,102.420035,-0.12212342,0.251607635,,,,,,,,,,,,,,2023-04-19 14:42:57.863091+00:00
2023-04-19 07:42:58.063568-07:00,38.879078,3.88,-3.55,1.51,0.35,17.53,887.32,52.33,79.0,0.0,-0.00858515,0.00269064,0.00153269,32.6911153,-103.075251,1154.04163,102.420401,-0.122662827,0.250781922,,,,,,,,,,,,,,2023-04-19 14:42:58.063568+00:00
2023-04-19 07:42:58.263746-07:00,39.079256,4.15,-4.05,0.84,0.32,17.55,887.31,52.21,82.0,0.0,-0.0130193,0.00292676,0.00113391,32.6911152,-103.075251,1154.04333,102.422499,-0.125658905,0.254439523,,,,,,,,,,,,,,2023-04-19 14:42:58.263746+00:00
2023-04-19 07:42:58.463377-07:00,39.278887,4.47,-4.27,1.28,0.41,17.57,887.3,52.15,90.0,0.0,-0.0095294,0.00221861,0.00153815,32.6911152,-103.075251,1154.04004,102.425199,-0.122293457,0.25049233,,,,,,,,,,,,,,2023-04-19 14:42:58.463377+00:00
2023-04-19 07:42:58.663557-07:00,39.479067,3.62,-3.28,1.46,0.47,17.83,887.29,51.3,89.0,0.0,-0.0139651,0.00339689,0.0037824,32.6911152,-103.075251,1154.04541,102.42673,-0.124377986,0.249254026,2.46851,94.1376,13485.2,26.6789,11678.0,0.726896,0.0651845,12.0,-1200.0,73.0,,0.0,,2023-04-19 14:42:58.663557+00:00
2023-04-19 07:42:58.863687-07:00,39.679197,3.51,-3.23,1.02,0.92,17.91,887.3,51.08,81.0,0.0,-0.010333,0.00392772,0.00356155,32.6911151,-103.075251,1154.04517,102.430534,-0.125950943,0.253485662,,,,,,,,,,,,,,2023-04-19 14:42:58.863687+00:00
2023-04-19 07:42:59.063567-07:00,39.879077,3.67,-3.37,0.47,1.37,18.04,887.31,50.68,79.0,0.0,-0.0110803,0.0039933,0.00527434,32.6911151,-103.075251,1154.04675,102.43869,-0.123262898,0.246745775,,,,,,,,,,,,,,2023-04-19 14:42:59.063567+00:00
2023-04-19 07:42:59.262916-07:00,40.078426,4.06,-3.83,0.38,1.3,17.94,887.31,50.98,85.0,0.0,-0.0105206,0.00321154,0.00590583,32.6911151,-103.075251,1154.0498,102.442138,-0.126101104,0.256018567,,,,,,,,,,,,,,2023-04-19 14:42:59.262916+00:00
2023-04-19 07:42:59.463625-07:00,40.279135,4.12,-3.84,1.17,0.93,17.64,887.3,51.86,92.0,0.0,-0.00880716,0.00273762,0.00848806,32.6911151,-103.075251,1154.06494,102.445413,-0.126163197,0.253698067,2.46952,94.9446,13496.0,26.6816,11621.0,0.714558,0.0620429,14.0,-1186.0,73.0,,0.0,,2023-04-19 14:42:59.463625+00:00
2023-04-19 07:42:59.662816-07:00,40.478326,4.11,-3.93,0.65,1.03,17.72,887.27,51.64,85.0,0.0,-0.00439252,0.00157849,0.0132131,32.6911152,-103.075251,1154.07666,102.44532,-0.121531625,0.248594373,2.46952,94.9446,13496.0,26.6816,11621.0,0.714558,0.0620429,14.0,-1186.0,73.0,,0.0,,2023-04-19 14:42:59.662816+00:00
2023-04-19 07:42:59.863316-07:00,40.678826,3.58,-3.38,0.39,1.11,17.73,887.3,51.67,79.0,0.0,-0.000801172,-0.000182077,0.011162,32.6911152,-103.075251,1154.0813,102.447808,-0.123054767,0.251393229,,,,,,,,,,,,,,2023-04-19 14:42:59.863316+00:00
2023-04-19 07:43:00.063651-07:00,40.879161,4.34,-4.23,-0.5,0.85,17.51,887.28,52.47,81.0,0.0,-0.00212521,0.000911404,0.00807645,32.6911152,-103.075251,1154.08276,102.450006,-0.121746252,0.248946771,,,,,,,,,,,,,,2023-04-19 14:43:00.063651+00:00
2023-04-19 07:43:00.263578-07:00,41.079088,3.68,-3.65,0.2,0.42,17.49,887.29,52.52,89.0,0.0,-0.00128591,0.000197609,0.00471042,32.6911152,-103.075251,1154.08069,102.45061,-0.117715332,0.250406898,,,,,,,,,,,,,,2023-04-19 14:43:00.263578+00:00
2023-04-19 07:43:00.462855-07:00,41.278365,4.7,-4.61,-0.26,0.89,17.53,887.29,52.34,91.0,0.0,-0.000672891,1.11417e-05,0.00300809,32.6911151,-103.075251,1154.07849,102.45071,-0.12198157,0.247730292,,,,,,,,,,,,,,2023-04-19 14:43:00.462855+00:00
2023-04-19 07:43:00.700639-07:00,41.516149,4.51,-4.44,0.01,0.79,17.69,887.3,51.73,81.0,0.0,-0.00169865,0.000676459,-0.000125626,32.6911151,-103.075251,1154.06641,102.448137,-0.128157053,0.257289982,,,,,,,,,,,,,,2023-04-19 14:43:00.700639+00:00
2023-04-19 07:43:00.863726-07:00,41.679236,4.59,-4.46,0.98,0.38,17.68,887.29,51.77,79.0,0.0,-0.000457771,0.00018671,-0.000478076,32.6911151,-103.075251,1154.06702,102.450312,-0.125203903,0.254451983,,,,,,,,,,,,,,2023-04-19 14:43:00.863726+00:00
2023-04-19 07:43:01.063116-07:00,41.878626,4.14,-4.07,0.74,0.22,17.76,887.29,51.58,84.0,0.0,-0.00206008,0.000664157,0.000523506,32.691115,-103.075251,1154.06714,102.447712,-0.126388831,0.252187567,,,,,,,,,,,,,,2023-04-19 14:43:01.063116+00:00
2023-04-19 07:43:01.263124-07:00,42.078634,4.66,-4.61,-0.13,0.65,17.71,887.3,51.69,92.0,0.0,-0.000504578,0.00048404,0.000893165,32.691115,-103.075251,1154.06165,102.443302,-0.122772889,0.251232478,,,,,,,,,,,,,,2023-04-19 14:43:01.263124+00:00
2023-04-19 07:43:01.462935-07:00,42.278445,5.61,-5.58,-0.1,0.61,17.74,887.29,51.58,87.0,0.0,-0.00036469,5.17516e-05,0.000208895,32.691115,-103.075251,1154.05994,102.453847,-0.123804669,0.241521914,,,,,,,,,,,,,,2023-04-19 14:43:01.462935+00:00
2023-04-19 07:43:01.708777-07:00,42.524287,5.3,-5.27,0.28,0.41,17.51,887.29,52.44,79.0,0.0,-0.00419748,0.00199699,0.00205117,32.6911151,-103.075251,1154.06775,102.463092,-0.120527586,0.251662891,,,,,,,,,,,,,,2023-04-19 14:43:01.708777+00:00
2023-04-19 07:43:01.863550-07:00,42.67906,5.2,-5.18,-0.15,0.35,17.14,887.28,53.64,80.0,0.0,-0.00188823,0.00139957,0.00340412,32.6911151,-103.075251,1154.06372,102.459152,-0.119427211,0.247904624,,,,,,,,,,,,,,2023-04-19 14:43:01.863550+00:00
2023-04-19 07:43:02.063229-07:00,42.878739,4.65,-4.63,0.04,0.42,17.44,887.28,52.58,89.0,0.0,-0.00133449,0.00104077,0.00173098,32.691115,-103.075251,1154.05786,102.459432,-0.114859988,0.234341989,,,,,,,,,,,,,,2023-04-19 14:43:02.063229+00:00
2023-04-19 07:43:02.263658-07:00,43.079168,4.65,-4.58,0.69,0.29,17.47,887.3,52.41,90.0,0.0,-0.00522584,6.70184e-05,0.00215207,32.691115,-103.075251,1154.05945,102.461318,-0.121009519,0.248432634,,,,,,,,,,,,,,2023-04-19 14:43:02.263658+00:00
2023-04-19 07:43:02.463016-07:00,43.278526,4.84,-4.81,0.49,0.15,17.31,887.28,52.93,83.0,0.0,-0.00194773,-0.000200297,0.00280287,32.6911149,-103.075251,1154.06775,102.468676,-0.120899792,0.245277431,,,,,,,,,,,,,,2023-04-19 14:43:02.463016+00:00
2023-04-19 07:43:02.714189-07:00,43.529699,5.0,-4.86,1.14,0.25,17.75,887.29,51.55,78.0,0.0,-0.003149,0.000814273,0.00596811,32.6911149,-103.075251,1154.06738,102.462193,-0.125831175,0.25262537,,,,,,,,,,,,,,2023-04-19 14:43:02.714189+00:00
2023-04-19 07:43:02.863212-07:00,43.678722,5.34,-5.25,0.94,0.07,17.64,887.27,51.95,83.0,0.0,-0.00207787,-0.000367217,0.00565416,32.6911149,-103.075251,1154.06384,102.458684,-0.126004035,0.250881307,,,,,,,,,,,,,,2023-04-19 14:43:02.863212+00:00
2023-04-19 07:43:03.063047-07:00,43.878557,4.97,-4.94,0.5,0.31,17.61,887.27,52.05,91.0,0.0,-0.00448449,0.000854498,0.00555299,32.6911149,-103.075251,1154.06018,102.460747,-0.124267774,0.242877825,,,,,,,,,,,,,,2023-04-19 14:43:03.063047+00:00
2023-04-19 07:43:03.263300-07:00,44.07881,4.67,-4.59,0.58,0.62,17.74,887.29,51.63,88.0,0.0,-0.00776451,0.00133596,0.00100308,32.6911149,-103.075251,1154.04675,102.463264,-0.123318144,0.247044759,,,,,,,,,,,,,,2023-04-19 14:43:03.263300+00:00
2023-04-19 07:43:03.463449-07:00,44.278959,4.82,-4.66,1.13,0.41,17.8,887.28,51.43,80.0,0.0,-0.00345042,-0.00060406,-0.00220865,32.6911149,-103.075251,1154.03979,102.465396,-0.124409509,0.244946538,,,,,,,,,,,,,,2023-04-19 14:43:03.463449+00:00
2023-04-19 07:43:03.738137-07:00,44.553647,4.62,-4.52,0.89,0.4,17.83,887.3,51.41,80.0,0.0,-0.00797178,-0.000435835,-0.00254347,32.6911148,-103.075251,1154.04626,102.467031,-0.123946602,0.248788501,,,,,,,,,,,,,,2023-04-19 14:43:03.738137+00:00
2023-04-19 07:43:03.863487-07:00,44.678997,4.86,-4.82,0.61,0.09,17.59,887.29,52.12,87.0,0.0,-0.00470887,-0.00128165,-0.000714612,32.6911148,-103.075251,1154.05042,102.468117,-0.123681718,0.250219279,,,,,,,,,,,,,,2023-04-19 14:43:03.863487+00:00
2023-04-19 07:43:04.063084-07:00,44.878594,4.88,-4.84,0.43,0.44,17.62,887.28,51.96,91.0,0.0,-0.00417608,-0.00105725,0.00353427,32.6911148,-103.075251,1154.05005,102.469029,-0.122075468,0.235919269,,,,,,,,,,,,,,2023-04-19 14:43:04.063084+00:00
2023-04-19 07:43:04.263440-07:00,45.07895,4.85,-4.82,0.0,0.51,17.75,887.27,51.72,83.0,0.0,-0.00647868,-0.000535819,0.00585121,32.6911148,-103.075251,1154.05383,102.470716,-0.123926591,0.246735157,,,,,,,,,,,,,,2023-04-19 14:43:04.263440+00:00
2023-04-19 07:43:04.463546-07:00,45.279056,4.59,-4.51,-0.09,0.82,17.88,887.31,51.12,79.0,0.0,-0.00365336,-0.00103312,0.00752088,32.6911148,-103.075251,1154.0625,102.46915,-0.121459698,0.241526983,,,,,,,,,,,,,,2023-04-19 14:43:04.463546+00:00
2023-04-19 07:43:04.777802-07:00,45.593312,4.77,-4.71,0.01,0.74,17.87,887.28,51.11,82.0,0.0,-0.00564062,-0.00267814,0.000337164,32.6911148,-103.075251,1154.03467,102.467988,-0.1273102,0.247576291,,,,,,,,,,,,,,2023-04-19 14:43:04.777802+00:00
2023-04-19 07:43:04.863818-07:00,45.679328,4.63,-4.53,0.13,0.97,18.08,887.3,50.51,90.0,0.0,-0.00399052,-0.00168673,-0.00385387,32.6911148,-103.075251,1154.02612,102.462325,-0.123300355,0.246572725,,,,,,,,,,,,,,2023-04-19 14:43:04.863818+00:00
2023-04-19 07:43:05.063158-07:00,45.878668,5.1,-5.03,-0.16,0.8,17.72,887.3,51.69,88.0,0.0,-0.0032056,-0.000654851,-0.00882025,32.6911147,-103.075251,1154.01953,102.46608,-0.131645541,0.245856349,,,,,,,,,,,,,,2023-04-19 14:43:05.063158+00:00
2023-04-19 07:43:05.263187-07:00,46.078697,4.68,-4.57,0.93,0.41,17.6,887.31,52.05,80.0,0.0,-0.0049894,0.000199942,-0.00762509,32.6911147,-103.075251,1154.02881,102.473484,-0.133776745,0.253997104,,,,,,,,,,,,,,2023-04-19 14:43:05.263187+00:00
2023-04-19 07:43:05.463802-07:00,46.279312,4.01,-3.72,1.52,0.04,17.89,887.3,51.2,79.0,0.0,-0.000978984,0.000264745,-0.00323059,32.6911147,-103.075251,1154.0376,102.478513,-0.133426065,0.251689225,2.45922,94.4912,13549.0,26.6942,11686.0,0.727305,0.0555044,13.0,-1231.0,73.0,,0.0,,2023-04-19 14:43:05.463802+00:00
2023-04-19 07:43:05.663699-07:00,46.479209,3.95,-3.85,0.66,0.6,17.81,887.31,51.42,86.0,0.0,-0.00296249,0.000428971,0.00421773,32.6911147,-103.075251,1154.05505,102.479725,-0.136367932,0.254202812,,,,,,,,,,,,,,2023-04-19 14:43:05.663699+00:00
2023-04-19 07:43:05.863698-07:00,46.679208,4.44,-4.25,1.26,0.26,17.71,887.31,51.78,91.0,0.0,-0.000865901,0.00108632,0.00778488,32.6911147,-103.075251,1154.04541,102.480554,-0.134365772,0.256098902,,,,,,,,,,,,,,2023-04-19 14:43:05.863698+00:00
2023-04-19 07:43:06.062910-07:00,46.87842,3.32,-3.0,1.39,0.33,18.01,887.31,50.73,85.0,0.0,-0.00134694,0.00324985,0.00481797,32.6911147,-103.075251,1154.04456,102.47467,-0.136786026,0.254726074,,,,,,,,,,,,,,2023-04-19 14:43:06.062910+00:00
2023-04-19 07:43:06.262964-07:00,47.078474,4.26,-4.16,0.44,0.81,17.78,887.32,51.45,79.0,0.0,0.000122445,0.00371312,0.00162151,32.6911147,-103.075251,1154.02747,102.47169,-0.135185568,0.255677347,,,,,,,,,,,,,,2023-04-19 14:43:06.262964+00:00
