Timestamp,Seconds,S,Um,Vm,Wm,T,P,H,MD,Sts,Vx,Vy,Vz,Lat,Lon,Alt,Yaw,Roll,Pitch,CH4,C2H6,H2O,T_a,Batt,R,C2C1,Power,Current,SOC,Lat_a,Lon_a,TS,Timestamp_UTC,Rho,Rho_err,Sc,V,U,W,WD,V_err,U_err,Sc_avg,WD_avg,V_avg,U_avg,W_avg,U_err_avg,V_err_avg,Nx,Ny,cross_wind,cross_wind_err,CH4_sub,CH4_res,CH4_adj,CH4_adj_err,BG_Samples_CH4,C2H6_sub,C2H6_res,C2H6_adj,C2H6_adj_err,BG_Samples_C2H6,x_dist,y_dist,s_dist,z_dist,velocity_s,velocity_z,x_src_dist,y_src_dist,s_src_dist,collecting,group,transect_num
2022-10-28 08:10:23.124630-07:00,0.391708,4.54,2.11,-4.0,-0.37,7.8,869.59,44.53,21.0,-1.0,,,,,,,,,,1.9574,2.28004,6167.06,15.3318,11856.0,-0.924968,-1.0,13.0,-1186.0,98.0,,0.0,,2022-10-28 15:10:23.124630+00:00,1.0782521928771773,0.014583073478756335,,,,,,,,,,,,,,,,,,,,,,,,,,,,,,,,,,,,,,False,,
2022-10-28 08:10:24.124689-07:00,1.391767,3.31,0.75,-3.23,-0.15,8.04,869.65,43.87,22.0,-1.0,,,,,,,,,,1.96079,1.51578,6172.37,15.3379,11781.0,-0.917562,-1.0,11.0,-1201.0,98.0,,0.0,,2022-10-28 15:10:24.124689+00:00,1.0774062217893097,0.014567460427464408,,,,,,,,,,,,,,,,,,,,,,,,,,,,,,,,,,,,,,False,,
2022-10-28 08:10:25.124648-07:00,2.391726,3.57,1.13,-3.37,-0.37,7.99,869.63,44.09,26.0,-1.0,,,,,,,,,,1.9584,1.33451,6164.55,15.3433,11853.0,-0.915863,-1.0,14.0,-1187.0,98.0,,0.0,,2022-10-28 15:10:25.124648+00:00,1.0775730532815384,0.014570675572054314,,,,,,,,,,,,,,,,,,,,,,,,,,,,,,,,,,,,,,False,,
2022-10-28 08:10:26.124268-07:00,3.391346,3.19,1.62,-2.75,-0.15,7.87,869.63,44.53,24.0,-1.0,,,,,,,,,,1.95994,1.40853,6155.11,15.3504,11789.0,-0.923852,-1.0,11.0,-1190.0,98.0,,0.0,,2022-10-28 15:10:26.124268+00:00,1.0780331940771892,0.01457862063913975,,,,,,,,,,,,,,,,,,,,,,,,,,,,,,,,,,,,,,False,,
2022-10-28 08:10:27.135054-07:00,4.402132,4.05,0.81,-3.96,-0.27,8.18,869.66,43.5,21.0,-1.0,,,,,,,,,,1.9585,1.44304,6159.57,15.3552,11789.0,-0.922713,-1.0,11.0,-1190.0,98.0,,0.0,,2022-10-28 15:10:27.135054+00:00,1.0768824482195933,0.014558252706534668,,,,,,,,,,,,,,,,,,,,,,,,,,,,,,,,,,,,,,False,,
2022-10-28 08:10:28.150180-07:00,5.417258,3.86,0.35,-3.85,-0.13,7.93,869.68,44.29,21.0,-1.0,,,,,,,,,,1.95878,0.818261,6165.44,15.3615,11851.0,-0.922787,-1.0,14.0,-1181.0,98.0,,0.0,,2022-10-28 15:10:28.150180+00:00,1.0778650436280863,0.014574879027247082,,,,,,,,,,,,,,,,,,,,,,,,,,,,,,,,,,,,,,False,,
2022-10-28 08:10:29.175856-07:00,6.442934,2.67,0.42,-2.64,0.13,8.1,869.67,43.74,25.0,-1.0,,,,,,,,,,1.96075,1.20043,6172.91,15.3673,11792.0,-0.926034,-1.0,12.0,-1178.0,98.0,,0.0,,2022-10-28 15:10:29.175856+00:00,1.0772011477699568,0.014563585616730972,,,,,,,,,,,,,,,,,,,,,,,,,,,,,,,,,,,,,,False,,
2022-10-28 08:10:30.192869-07:00,7.459947,3.39,0.4,-3.37,-0.11,8.27,869.66,43.36,24.0,-1.0,,,,,,,,,,1.95931,0.603145,6176.04,15.3731,11804.0,-0.92934,-1.0,10.0,-1175.0,98.0,,0.0,,2022-10-28 15:10:30.192869+00:00,1.076538054003334,0.014552309953688707,,,,,,,,,,,,,,,,,,,,,,,,,,,,,,,,,,,,,,False,,
2022-10-28 08:10:37.125525-07:00,14.392603,2.59,0.29,-2.57,0.17,8.11,869.66,43.91,26.0,-1.0,,,,,,,,,,1.96366,0.0918087,6216.61,15.4076,11862.0,-0.955252,-1.0,11.0,-1161.0,98.0,,0.0,,2022-10-28 15:10:37.125525+00:00,1.0771504627661885,0.01456287825292644,,,,,,,,,,,,,,,,,,,,,,,,,,,,,,,,,,,,,,False,,
2022-10-28 08:10:38.125807-07:00,15.392885,3.07,0.55,-3.02,-0.0,7.7,869.67,45.18,22.0,-1.0,,,,,,,,,,1.96276,0.232714,6207.97,15.4137,11862.0,-0.954897,-1.0,11.0,-1161.0,98.0,,0.0,,2022-10-28 15:10:38.125807+00:00,1.0787353491554224,0.01459007723715284,,,,,,,,,,,,,,,,,,,,,,,,,,,,,,,,,,,,,,False,,
2022-10-28 08:10:39.125468-07:00,16.392546,3.72,1.16,-3.52,-0.25,8.01,869.65,44.28,21.0,-1.0,,,,,,,,,,1.96332,-0.373259,6185.6,15.4195,11831.0,-0.958452,-1.0,13.0,-1165.0,98.0,,0.0,,2022-10-28 15:10:39.125468+00:00,1.0775211819068715,0.01456944498311265,,,,,,,,,,,,,,,,,,,,,,,,,,,,,,,,,,,,,,False,,
2022-10-28 08:10:40.126224-07:00,17.393302,3.02,0.53,-2.97,-0.09,7.74,869.66,45.15,22.0,-1.0,,,,,,,,,,1.9639,-0.742593,6162.79,15.4255,11845.0,-0.957881,-1.0,9.0,-1189.0,98.0,,0.0,,2022-10-28 15:10:40.126224+00:00,1.0785693301919548,0.014587377186686176,,,,,,,,,,,,,,,,,,,,,,,,,,,,,,,,,,,,,,False,,
2022-10-28 08:10:41.125760-07:00,18.392838,1.91,-0.14,-1.89,0.21,7.73,869.65,45.18,28.0,-1.0,,,,,,,,,,1.96723,-1.16418,6146.68,15.4313,11811.0,-0.96379,-1.0,13.0,-1156.0,98.0,,0.0,,2022-10-28 15:10:41.125760+00:00,1.0785953272035604,0.014587993986504106,,,,,,,,,,,,,,,,,,,,,,,,,,,,,,,,,,,,,,False,,
2022-10-28 08:10:42.125542-07:00,19.39262,2.63,0.67,-2.55,-0.06,8.06,869.66,44.21,20.0,-1.0,,,,,,,,,,1.9632,-1.26483,6133.87,15.4364,11852.0,-0.95314,-1.0,9.0,-1195.0,98.0,,0.0,,2022-10-28 15:10:42.125542+00:00,1.0773419834202844,0.01456618404062946,,,,,,,,,,,,,,,,,,,,,,,,,,,,,,,,,,,,,,False,,
2022-10-28 08:10:43.125571-07:00,20.392649,2.43,-0.04,-2.41,0.27,7.71,869.65,45.36,20.0,-1.0,,,,,,,,,,1.96317,-1.22022,6136.07,15.4431,11796.0,-0.946798,-1.0,14.0,-1171.0,98.0,,0.0,,2022-10-28 15:10:43.125571+00:00,1.078672133820893,0.014589320748745532,,,,,,,,,,,,,,,,,,,,,,,,,,,,,,,,,,,,,,False,,
2022-10-28 08:10:44.125484-07:00,21.392562,2.41,0.22,-2.4,0.03,7.95,869.67,44.63,23.0,-1.0,,,,,,,,,,1.96466,-1.87242,6142.63,15.4486,11858.0,-0.940126,-1.0,11.0,-1184.0,98.0,,0.0,,2022-10-28 15:10:44.125484+00:00,1.0777759616161522,0.014573508530795145,,,,,,,,,,,,,,,,,,,,,,,,,,,,,,,,,,,,,,False,,
2022-10-28 08:10:45.126037-07:00,22.393115,3.14,1.59,-2.7,0.23,8.16,869.65,43.99,25.0,-1.0,,,,,,,,,,1.96602,-1.47048,6140.78,15.454,11788.0,-0.94155,-1.0,11.0,-1169.0,98.0,,0.0,,2022-10-28 15:10:45.126037+00:00,1.0769466265150047,0.014559527686272866,,,,,,,,,,,,,,,,,,,,,,,,,,,,,,,,,,,,,,False,,
2022-10-28 08:10:46.125853-07:00,23.392931,2.59,0.89,-2.42,-0.19,8.38,869.65,42.87,20.0,-1.0,,,,,,,,,,1.96642,-1.83906,6145.03,15.4604,11795.0,-0.942699,-1.0,9.0,-1193.0,98.0,,0.0,,2022-10-28 15:10:46.125853+00:00,1.0761050527650198,0.014545007067631724,,,,,,,,,,,,,,,,,,,,,,,,,,,,,,,,,,,,,,False,,
2022-10-28 08:10:47.126209-07:00,24.393287,3.29,0.88,-3.17,-0.07,8.36,869.66,42.97,19.0,-1.0,,,,,,,,,,1.96426,-2.08103,6157.31,15.4661,11795.0,-0.935663,-1.0,9.0,-1193.0,98.0,,0.0,,2022-10-28 15:10:47.126209+00:00,1.076193879995802,0.014546372120789306,,,,,,,,,,,,,,,,,,,,,,,,,,,,,,,,,,,,,,False,,
2022-10-28 08:10:48.125881-07:00,25.392959,3.21,0.73,-3.12,0.07,7.92,869.66,44.26,25.0,-1.0,,,,,,,,,,1.96713,-1.8287,6168.53,15.4719,11856.0,-0.935217,-1.0,13.0,-1163.0,98.0,,0.0,,2022-10-28 15:10:48.125881+00:00,1.0778786037557126,0.014575448350964547,,,,,,,,,,,,,,,,,,,,,,,,,,,,,,,,,,,,,,False,,
2022-10-28 08:10:49.126106-07:00,26.393184,2.89,0.48,-2.85,0.16,8.0,869.66,43.98,22.0,-1.0,,,,,,,,,,1.96543,-2.02729,6172.31,15.4774,11813.0,-0.929803,-1.0,7.0,-1174.0,98.0,,0.0,,2022-10-28 15:10:49.126106+00:00,1.0775718981241977,0.014570152996102544,,,,,,,,,,,,,,,,,,,,,,,,,,,,,,,,,,,,,,False,,
2022-10-28 08:10:50.125756-07:00,27.392834,3.68,0.26,-3.66,-0.17,7.74,869.64,44.83,20.0,-1.0,,,,,,,,,,1.96576,-2.45831,6160.28,15.4834,11835.0,-0.925128,-1.0,13.0,-1161.0,98.0,,0.0,,2022-10-28 15:10:50.125756+00:00,1.078544525801039,0.014587284208033959,,,,,,,,,,,,,,,,,,,,,,,,,,,,,,,,,,,,,,False,,
2022-10-28 08:10:51.126287-07:00,28.393365,2.33,1.51,-1.78,-0.12,8.0,869.62,44.13,22.0,-1.0,,,,,,,,,,1.96621,-1.61402,6155.23,15.4895,11827.0,-0.918783,-1.0,11.0,-1192.0,98.0,,0.0,,2022-10-28 15:10:51.126287+00:00,1.0775223352192407,0.014569967508242788,,,,,,,,,,,,,,,,,,,,,,,,,,,,,,,,,,,,,,False,,
2022-10-28 08:10:52.125959-07:00,29.393037,3.98,1.02,-3.85,-0.08,7.88,869.64,44.49,27.0,-1.0,,,,,,,,,,1.96895,-2.18488,6159.73,15.4947,11823.0,-0.908901,-1.0,13.0,-1164.0,98.0,,0.0,,2022-10-28 15:10:52.125959+00:00,1.0780072300190509,0.014578004640247047,,,,,,,,,,,,,,,,,,,,,,,,,,,,,,,,,,,,,,False,,
2022-10-28 08:10:53.126392-07:00,30.39347,2.13,-0.27,-2.04,0.57,8.2,869.67,43.59,24.0,-1.0,,,,,,,,,,1.96927,-2.3569,6164.17,15.5001,11838.0,-0.901179,-1.0,8.0,-1195.0,98.0,,0.0,,2022-10-28 15:10:53.126392+00:00,1.0768182790485175,0.014556977952512963,,,,,,,,,,,,,,,,,,,,,,,,,,,,,,,,,,,,,,False,,
2022-10-28 08:10:54.126234-07:00,31.393312,1.32,0.18,-1.31,0.0,7.96,869.64,44.3,21.0,-1.0,,,,,,,,,,1.96897,-2.46103,6165.23,15.5067,11846.0,-0.895776,-1.0,8.0,-1198.0,98.0,,0.0,,2022-10-28 15:10:54.126234+00:00,1.077700444140208,0.014572707404922298,,,,,,,,,,,,,,,,,,,,,,,,,,,,,,,,,,,,,,False,,
2022-10-28 08:10:55.125963-07:00,32.393041,1.54,-1.13,-0.94,0.45,7.73,869.66,44.97,22.0,-1.0,,,,,,,,,,1.97151,-2.99167,6160.55,15.5123,11800.0,-0.906386,-1.0,13.0,-1188.0,98.0,,0.0,,2022-10-28 15:10:55.125963+00:00,1.0786077298405659,0.014588040480530228,,,,,,,,,,,,,,,,,,,,,,,,,,,,,,,,,,,,,,False,,
2022-10-28 08:10:56.126276-07:00,33.393354,1.37,-0.19,-1.35,0.13,7.96,869.65,44.3,25.0,-1.0,,,,,,,,,,1.96775,-3.4062,6155.72,15.5171,11854.0,-0.894837,-1.0,9.0,-1196.0,98.0,,0.0,,2022-10-28 15:10:56.126276+00:00,1.0777128366295614,0.014572753795051057,,,,,,,,,,,,,,,,,,,,,,,,,,,,,,,,,,,,,,False,,
2022-10-28 08:10:57.126075-07:00,34.393153,1.27,-0.67,-0.97,0.47,8.11,869.63,43.81,21.0,-1.0,,,,,,,,,,1.96898,-3.81831,6164.48,15.5225,11854.0,-0.892301,-1.0,9.0,-1196.0,98.0,,0.0,,2022-10-28 15:10:57.126075+00:00,1.077113305125406,0.014562739284572525,,,,,,,,,,,,,,,,,,,,,,,,,,,,,,,,,,,,,,False,,
2022-10-28 08:10:58.125690-07:00,35.392768,1.63,-0.06,-1.57,0.42,7.98,869.66,44.35,20.0,-1.0,,,,,,,,,,1.97074,-3.64961,6182.92,15.5287,11789.0,-0.891855,-1.0,9.0,-1176.0,98.0,,0.0,,2022-10-28 15:10:58.125690+00:00,1.0776485581674604,0.014571476468875175,,,,,,,,,,,,,,,,,,,,,,,,,,,,,,,,,,,,,,False,,
2022-10-28 08:10:59.125916-07:00,36.392994,2.5,1.38,-2.08,-0.15,8.39,869.62,43.13,23.0,-1.0,,,,,,,,,,1.97185,-4.08986,6188.44,15.5345,11857.0,-0.898825,-1.0,12.0,-1169.0,98.0,,0.0,,2022-10-28 15:10:59.125916+00:00,1.0760297099768754,0.014544209146534882,,,,,,,,,,,,,,,,,,,,,,,,,,,,,,,,,,,,,,False,,
2022-10-28 08:11:00.126112-07:00,37.39319,2.71,2.03,-1.79,0.13,8.76,869.63,42.11,23.0,-1.0,,,,,,,,,,1.97264,-3.15541,6189.73,15.54,11798.0,-0.889645,-1.0,11.0,-1176.0,98.0,,0.0,,2022-10-28 15:11:00.126112+00:00,1.0746298045460314,0.014519903024654432,,,,,,,,,,,,,,,,,,,,,,,,,,,,,,,,,,,,,,False,,
2022-10-28 08:11:01.125841-07:00,38.392919,2.83,0.95,-2.66,-0.21,8.36,869.66,43.22,20.0,-1.0,,,,,,,,,,1.96863,-3.95279,6211.69,15.5448,11850.0,-0.874199,-1.0,11.0,-1174.0,98.0,,0.0,,2022-10-28 15:11:01.125841+00:00,1.076193879995802,0.014546372120789306,,,,,,,,,,,,,,,,,,,,,,,,,,,,,,,,,,,,,,False,,
2022-10-28 08:11:02.125438-07:00,39.392516,2.19,1.02,-1.93,-0.12,8.31,869.65,43.42,22.0,-1.0,,,,,,,,,,1.97122,-3.0863,6220.31,15.552,11831.0,-0.866507,-1.0,11.0,-1157.0,98.0,,0.0,,2022-10-28 15:11:02.125438+00:00,1.0763726835249627,0.01454962407622366,,,,,,,,,,,,,,,,,,,,,,,,,,,,,,,,,,,,,,False,,
2022-10-28 08:11:03.125359-07:00,40.392437,4.61,0.27,-4.6,0.01,7.94,869.67,44.58,25.0,-1.0,,,,,,,,,,1.9713,-3.73143,6220.48,15.5574,11830.0,-0.861301,-1.0,10.0,-1185.0,98.0,,0.0,,2022-10-28 15:11:03.125359+00:00,1.077814304351988,0.01457417054612928,,,,,,,,,,,,,,,,,,,,,,,,,,,,,,,,,,,,,,False,,
2022-10-28 08:11:04.126185-07:00,41.393263,3.39,0.48,-3.35,0.18,8.33,869.66,43.41,21.0,-1.0,,,,,,,,,,1.97157,-3.53693,6220.45,15.5631,11813.0,-0.855713,-1.0,11.0,-1155.0,98.0,,0.0,,2022-10-28 15:11:04.126185+00:00,1.0763085802103816,0.014548350852132104,,,,,,,,,,,,,,,,,,,,,,,,,,,,,,,,,,,,,,False,,
2022-10-28 08:11:05.126098-07:00,42.393176,3.38,1.21,-3.15,-0.15,8.38,869.66,43.32,21.0,-1.0,,,,,,,,,,1.97215,-4.22725,6213.73,15.569,11848.0,-0.856805,-1.0,8.0,-1190.0,98.0,,0.0,,2022-10-28 15:11:05.126098+00:00,1.0761174267666616,0.014545053269904639,,,,,,,,,,,,,,,,,,,,,,,,,,,,,,,,,,,,,,False,,
2022-10-28 08:11:06.125935-07:00,43.393013,2.83,-0.4,-2.76,0.52,8.08,869.66,44.12,24.0,-1.0,,,,,,,,,,1.97241,-4.72582,6211.66,15.5745,11848.0,-0.86293,-1.0,8.0,-1190.0,98.0,,0.0,,2022-10-28 15:11:06.125935+00:00,1.077265366986517,0.014564861542866226,,,,,,,,,,,,,,,,,,,,,,,,,,,,,,,,,,,,,,False,,
2022-10-28 08:11:07.125542-07:00,44.39262,2.85,0.56,-2.79,-0.11,8.41,869.65,43.24,25.0,-1.0,,,,,,,,,,1.97262,-4.98685,6210.63,15.5797,11791.0,-0.867558,-1.0,8.0,-1174.0,98.0,,0.0,,2022-10-28 15:11:07.125542+00:00,1.0759903946048301,0.014543029259563555,,,,,,,,,,,,,,,,,,,,,,,,,,,,,,,,,,,,,,False,,
2022-10-28 08:11:09.125661-07:00,46.392739,2.86,0.21,-2.85,0.08,8.23,869.65,43.8,20.0,-1.0,,,,,,,,,,1.97095,-4.4445,6203.81,15.586,11854.0,-0.855812,-1.0,10.0,-1185.0,98.0,,0.0,,2022-10-28 15:11:09.125661+00:00,1.0766787103025661,0.01455490430003145,,,,,,,,,,,,,,,,,,,,,,,,,,,,,,,,,,,,,,False,,
2022-10-28 08:11:10.125497-07:00,47.392575,3.11,0.63,-3.04,-0.09,8.09,869.65,44.18,25.0,-1.0,,,,,,,,,,1.97231,-5.74517,6198.46,15.5918,11801.0,-0.838156,-1.0,8.0,-1188.0,98.0,,0.0,,2022-10-28 15:11:10.125497+00:00,1.0772146760949226,0.014564154053192077,,,,,,,,,,,,,,,,,,,,,,,,,,,,,,,,,,,,,,False,,
2022-10-28 08:11:11.125660-07:00,48.392738,3.17,0.74,-3.08,-0.06,8.09,869.64,44.3,22.0,-1.0,,,,,,,,,,1.97291,-5.41138,6197.03,15.5978,11838.0,-0.833644,-1.0,6.0,-1201.0,98.0,,0.0,,2022-10-28 15:11:11.125660+00:00,1.0772022893338569,0.014564107721435642,,,,,,,,,,,,,,,,,,,,,,,,,,,,,,,,,,,,,,False,,
2022-10-28 08:11:12.125566-07:00,49.392644,3.85,1.08,-3.69,-0.2,8.08,869.66,44.37,20.0,-1.0,,,,,,,,,,1.97409,-5.72807,6202.62,15.6032,11780.0,-0.856505,-1.0,11.0,-1181.0,98.0,,0.0,,2022-10-28 15:11:12.125566+00:00,1.077265366986517,0.014564861542866226,,,,,,,,,,,,,,,,,,,,,,,,,,,,,,,,,,,,,,False,,
2022-10-28 08:11:13.125866-07:00,50.392944,3.99,-0.04,-3.98,0.22,8.16,869.67,44.16,23.0,-1.0,,,,,,,,,,1.97548,-5.6097,6202.81,15.6097,11846.0,-0.861541,-1.0,13.0,-1191.0,97.0,,0.0,,2022-10-28 15:11:13.125866+00:00,1.0769713938725973,0.014559620288158616,,,,,,,,,,,,,,,,,,,,,,,,,,,,,,,,,,,,,,False,,
2022-10-28 08:11:14.126344-07:00,51.393422,3.14,0.67,-3.07,-0.11,8.34,869.66,43.59,25.0,-1.0,,,,,,,,,,1.97571,-6.03284,6207.83,15.6152,11807.0,-0.86632,-1.0,9.0,-1200.0,97.0,,0.0,,2022-10-28 15:11:14.126344+00:00,1.07627034408902,0.014547691214338108,,,,,,,,,,,,,,,,,,,,,,,,,,,,,,,,,,,,,,False,,
2022-10-28 08:11:15.125591-07:00,52.392669,2.57,0.67,-2.46,-0.33,8.65,869.67,42.69,21.0,-1.0,,,,,,,,,,1.97197,-5.72777,6213.7,15.6205,11812.0,-0.852297,-1.0,11.0,-1156.0,97.0,,0.0,,2022-10-28 15:11:15.125591+00:00,1.0750987324709027,0.01452731858267468,,,,,,,,,,,,,,,,,,,,,,,,,,,,,,,,,,,,,,False,,
2022-10-28 08:11:16.126046-07:00,53.393124,2.28,0.35,-2.25,0.13,8.49,869.67,43.25,21.0,-1.0,,,,,,,,,,1.9735,-5.68801,6216.94,15.6265,11838.0,-0.847035,-1.0,9.0,-1192.0,97.0,,0.0,,2022-10-28 15:11:16.126046+00:00,1.0757094972670798,0.014537850078244798,,,,,,,,,,,,,,,,,,,,,,,,,,,,,,,,,,,,,,False,,
2022-10-28 08:11:17.125309-07:00,54.392387,1.62,0.02,-1.62,0.01,8.72,869.67,42.53,24.0,-1.0,,,,,,,,,,1.97089,-5.29261,6231.73,15.6321,11838.0,-0.824293,-1.0,9.0,-1192.0,97.0,,0.0,,2022-10-28 15:11:17.125309+00:00,1.0748317409099952,0.014522715919859715,,,,,,,,,,,,,,,,,,,,,,,,,,,,,,,,,,,,,,False,,
2022-10-28 08:11:18.126281-07:00,55.393359,2.37,0.15,-2.36,0.14,8.5,869.68,43.27,24.0,-1.0,,,,,,,,,,1.97322,-6.00452,6238.48,15.6379,11842.0,-0.822472,-1.0,10.0,-1162.0,97.0,,0.0,,2022-10-28 15:11:18.126281+00:00,1.0756836728669714,0.014537237555363234,,,,,,,,,,,,,,,,,,,,,,,,,,,,,,,,,,,,,,False,,
2022-10-28 08:11:19.125623-07:00,56.392701,2.66,0.48,-2.61,-0.19,8.51,869.68,43.37,21.0,-1.0,,,,,,,,,,1.97384,-5.85391,6248.24,15.6447,11811.0,-0.816247,-1.0,9.0,-1180.0,97.0,,0.0,,2022-10-28 15:11:19.125623+00:00,1.075645482010163,0.01453657893912818,,,,,,,,,,,,,,,,,,,,,,,,,,,,,,,,,,,,,,False,,
2022-10-28 08:11:20.125571-07:00,57.392649,4.13,0.65,-4.07,-0.26,8.07,869.68,44.55,23.0,-1.0,,,,,,,,,,1.97447,-5.6282,6250.23,15.6503,11806.0,-0.807241,-1.0,13.0,-1151.0,97.0,,0.0,,2022-10-28 15:11:20.125571+00:00,1.077328449125178,0.014565615444683502,,,,,,,,,,,,,,,,,,,,,,,,,,,,,,,,,,,,,,False,,
2022-10-28 08:11:21.125462-07:00,58.39254,3.93,0.85,-3.84,-0.12,8.03,869.67,44.73,26.0,-1.0,,,,,,,,,,1.97571,-6.15874,6244.48,15.656,11848.0,-0.813791,-1.0,11.0,-1193.0,97.0,,0.0,,2022-10-28 15:11:21.125462+00:00,1.0774693179113037,0.014568214603601236,,,,,,,,,,,,,,,,,,,,,,,,,,,,,,,,,,,,,,False,,
2022-10-28 08:11:22.125390-07:00,59.392468,4.03,0.49,-3.99,-0.25,7.75,869.69,45.59,21.0,-1.0,,,,,,,,,,1.97358,-6.00135,6231.72,15.6616,11788.0,-0.781063,-1.0,11.0,-1175.0,97.0,,0.0,,2022-10-28 15:11:22.125390+00:00,1.078568138539212,0.014586853411378102,,,,,,,,,,,,,,,,,,,,,,,,,,,,,,,,,,,,,,False,,
2022-10-28 08:11:23.125560-07:00,60.392638,3.54,0.52,-3.5,-0.2,8.11,869.68,44.49,21.0,-1.0,,,,,,,,,,1.976,-6.70481,6211.53,15.6681,11844.0,-0.785595,-1.0,12.0,-1149.0,97.0,,0.0,,2022-10-28 15:11:23.125560+00:00,1.0771752345267103,0.014562970900422271,,,,,,,,,,,,,,,,,,,,,,,,,,,,,,,,,,,,,,False,,
2022-10-28 08:11:24.125745-07:00,61.392823,2.42,-0.43,-2.34,0.42,8.17,869.67,44.34,25.0,-1.0,,,,,,,,,,1.9756,-6.92381,6199.03,15.6738,11833.0,-0.788295,-1.0,9.0,-1184.0,97.0,,0.0,,2022-10-28 15:11:24.125745+00:00,1.0769331110845313,0.014558959613020882,,,,,,,,,,,,,,,,,,,,,,,,,,,,,,,,,,,,,,False,,
2022-10-28 08:11:25.125386-07:00,62.392464,2.56,1.12,-2.3,-0.08,8.4,869.65,43.76,24.0,-1.0,,,,,,,,,,1.97803,-7.63837,6205.88,15.6794,11850.0,-0.804759,-1.0,9.0,-1185.0,97.0,,0.0,,2022-10-28 15:11:25.125386+00:00,1.076028611276633,0.01454368846828428,,,,,,,,,,,,,,,,,,,,,,,,,,,,,,,,,,,,,,False,,
2022-10-28 08:11:26.125456-07:00,63.392534,2.66,0.85,-2.48,-0.41,8.2,869.66,44.31,21.0,-1.0,,,,,,,,,,1.97456,-7.49462,6215.47,15.6856,11850.0,-0.807338,-1.0,9.0,-1185.0,97.0,,0.0,,2022-10-28 15:11:26.125456+00:00,1.0768058971303296,0.014556931669303094,,,,,,,,,,,,,,,,,,,,,,,,,,,,,,,,,,,,,,False,,
2022-10-28 08:11:27.125863-07:00,64.392941,3.21,1.09,-3.0,-0.36,8.35,869.66,43.92,23.0,-1.0,,,,,,,,,,1.97726,-7.19732,6210.17,15.6904,11793.0,-0.81438,-1.0,9.0,-1179.0,97.0,,0.0,,2022-10-28 15:11:27.125863+00:00,1.0762321106842563,0.014547031637226577,,,,,,,,,,,,,,,,,,,,,,,,,,,,,,,,,,,,,,False,,
2022-10-28 08:11:28.125422-07:00,65.3925,3.5,1.29,-3.26,-0.11,8.48,869.66,43.52,26.0,-1.0,,,,,,,,,,1.9765,-6.93402,6212.65,15.6973,11828.0,-0.818868,-1.0,13.0,-1155.0,97.0,,0.0,,2022-10-28 15:11:28.125422+00:00,1.075735323501112,0.014538462653142811,,,,,,,,,,,,,,,,,,,,,,,,,,,,,,,,,,,,,,False,,
2022-10-28 08:11:29.125918-07:00,66.392996,4.13,1.23,-3.94,-0.21,8.81,869.66,42.62,23.0,-1.0,,,,,,,,,,1.97794,-6.98854,6217.02,15.7021,11849.0,-0.815388,-1.0,11.0,-1191.0,97.0,,0.0,,2022-10-28 15:11:29.125918+00:00,1.0744763057086757,0.01451675654591986,,,,,,,,,,,,,,,,,,,,,,,,,,,,,,,,,,,,,,False,,
2022-10-28 08:11:30.125986-07:00,67.393064,3.1,1.02,-2.92,-0.16,8.84,869.69,42.52,21.0,-1.0,,,,,,,,,,1.97903,-6.95947,6231.65,15.708,11789.0,-0.810054,-1.0,11.0,-1166.0,97.0,,0.0,,2022-10-28 15:11:30.125986+00:00,1.0743990571143116,0.014514924517982197,,,,,,,,,,,,,,,,,,,,,,,,,,,,,,,,,,,,,,False,,
2022-10-28 08:11:31.125869-07:00,68.392947,2.76,1.13,-2.5,-0.25,8.86,869.67,42.48,24.0,-1.0,,,,,,,,,,1.97759,-7.63922,6251.4,15.7135,11849.0,-0.848015,-1.0,11.0,-1172.0,97.0,,0.0,,2022-10-28 15:11:31.125869+00:00,1.0742981554210858,0.014513519466056656,,,,,,,,,,,,,,,,,,,,,,,,,,,,,,,,,,,,,,False,,
2022-10-28 08:11:32.126009-07:00,69.393087,2.32,1.1,-2.03,-0.2,8.9,869.71,42.45,23.0,-1.0,,,,,,,,,,1.97834,-6.74876,6269.76,15.72,11823.0,-0.833801,-1.0,8.0,-1189.0,97.0,,0.0,,2022-10-28 15:11:32.126009+00:00,1.0741952044709415,0.014511077965829884,,,,,,,,,,,,,,,,,,,,,,,,,,,,,,,,,,,,,,False,,
2022-10-28 08:11:33.126341-07:00,70.393419,4.08,2.27,-3.39,-0.14,8.57,869.66,43.42,19.0,-1.0,,,,,,,,,,1.97998,-8.02913,6294.15,15.7252,11854.0,-0.853036,-1.0,11.0,-1203.0,97.0,,0.0,,2022-10-28 15:11:33.126341+00:00,1.0753916624933204,0.014532536276812643,,,,,,,,,,,,,,,,,,,,,,,,,,,,,,,,,,,,,,False,,
2022-10-28 08:11:34.125620-07:00,71.392698,4.86,2.85,-3.94,-0.07,7.16,869.62,47.84,22.0,-1.0,,,,,,,,,,1.97842,-6.89649,6290.9,15.7315,11794.0,-0.845608,-1.0,9.0,-1179.0,97.0,,0.0,,2022-10-28 15:11:34.125620+00:00,1.0807513272694143,0.014625762623360692,,,,,,,,,,,,,,,,,,,,,,,,,,,,,,,,,,,,,,False,,
2022-10-28 08:12:26.570748-07:00,123.837826,4.08,2.04,-3.52,-0.25,7.44,869.66,47.21,23.0,0.0,0.00016481,0.000934172,0.00267322,33.99436,-106.894676,1329.0578899999998,-11.8040165,3.01414949,2.28107421,1.98852,-11.4698,6062.57,16.0269,11809.0,-0.601839,-1.0,10.0,-1174.0,97.0,,0.0,,2022-10-28 15:12:26.570748+00:00,1.0797225102734174,0.01460730265204428,4.067829721039323,-3.027316638358439,2.7170926760949867,-0.24732678,318.0912271787297,0.2776506960249897,0.22227608336205193,4.230261522437205,318.51654680128695,-3.1684995213353413,2.801326286787876,-0.23549692000000003,0.22713653466907396,0.28064358411497226,0.984791474807114,-0.17374047066596005,3.30921884352344,0.22044308291122636,,,,,,,,,,,0.5233075942284042,0.09231286334282629,0.5313873379331422,0.3836699999999382,,,-798.767650848072,518.2005637683043,952.1352762770298,False,,
2022-10-28 08:12:27.524970-07:00,124.792048,4.16,1.14,-4.0,-0.17,8.27,869.69,44.57,26.0,0.0,0.000547931,0.00064929,0.00428596,33.9943598,-106.894676,1329.06631,-11.7703483,3.02164376,2.30160403,1.99013,-11.7089,6055.85,16.033,11834.0,-0.601626,-1.0,11.0,-1156.0,97.0,,0.0,,2022-10-28 15:12:27.524970+00:00,1.076575190518317,0.014552448710429256,4.158958378690358,-3.6826951007097692,1.9325350167298392,-0.16571404,332.31126004954274,0.2872281323269015,0.24584863409908372,4.146207791288773,328.01812650472635,-3.5013447809286453,2.1986629542712257,-0.191306879,0.23928879302646675,0.2848250823520781,0.7642377830334643,-0.6449345788404398,3.9384396234734362,0.1832150570438616,,,,,,,,,,,0.5010391863684922,0.09231286368196957,0.5094722083469976,0.3920900000000529,-0.02191512958614461,0.008420000000114669,-798.7899192559319,518.2005637686434,952.1539578214429,False,,
2022-10-28 08:12:28.525074-07:00,125.792152,3.82,1.09,-3.65,-0.28,7.82,869.69,46.07,22.0,0.0,0.000219307,0.000124318,2.99996e-05,33.9943596,-106.894676,1329.0145499999999,-11.7408838,3.01311354,2.3164927,1.98817,-11.4714,6072.46,16.0388,11843.0,-0.605976,-1.0,13.0,-1191.0,97.0,,0.0,,2022-10-28 15:12:28.525074+00:00,1.0782994273967494,0.01458221240043418,3.809272966394406,-3.351710162258412,1.8101379838887772,-0.27997000040000003,331.6281148971383,0.28013108191909303,0.2337706074635849,3.497847241865744,333.2697554094754,-3.114830335141744,1.5832912653040252,-0.12829124647999998,0.22569648238262124,0.2750863235564077,0.4931447818712224,-0.8699472536385091,3.4905299212734424,0.21530144968395315,,,,,,,,,,,0.47877077464159823,0.09231286315028442,0.48758908863295863,0.34032999999999447,-0.021883119714038946,-0.051760000000058426,-798.8121876676588,518.2005637681117,952.172639522886,False,,
2022-10-28 08:12:29.524508-07:00,126.791586,4.39,0.24,-4.38,-0.13,8.24,869.73,44.7,23.0,0.0,5.39495e-05,-0.00123473,0.00381719,33.9943594,-106.894676,1328.98318,-11.7144725,3.00864594,2.30856045,1.98632,-11.6141,6093.38,16.0448,11777.0,-0.557496,-1.0,11.0,-1166.0,97.0,,0.0,,2022-10-28 15:12:29.524508+00:00,1.0767394887039106,0.014554614189483842,4.387777735300077,-4.241277836648119,1.1243468178246965,-0.12618281,345.15262060804423,0.29545831353520374,0.267470474656621,4.113911725459059,341.13766994507023,-3.883949330246076,1.335867156787376,-0.048858849999999995,0.25388947641706483,0.2891035902352115,0.9990468098220512,0.04365170998233945,1.1650527915844786,0.2534062959604296,,,,,,,,,,,0.456502364026876,0.09231286291365064,0.46574249647357807,0.30896000000007007,-0.021846592159380562,-0.0313699999999244,-798.8344560782735,518.2005637678751,952.1913213778073,False,,
2022-10-28 08:12:29.724194-07:00,126.991272,4.63,1.02,-4.51,-0.22,8.11,869.72,45.16,22.0,0.0,-0.000780033,-0.000321033,0.00318772,33.9943594,-106.894676,1328.97292,-11.7082525,3.00729869,2.29979108,1.98632,-11.6141,6093.38,16.0448,11777.0,-0.557496,-1.0,11.0,-1166.0,97.0,,0.0,,2022-10-28 15:12:29.724194+00:00,1.0772247780477537,0.01456315620003753,4.6238747105308615,-4.209497233841342,1.913204217267187,-0.21681228,335.5583421369274,0.298392740779018,0.2662638180081413,4.322438255350533,341.0275888481491,-4.0788717721984336,1.4103826704712703,-0.13219683200000001,0.2614252719257755,0.2935445483697786,0.38059059638682463,-0.9247436390383668,4.308689107481955,0.253864936002771,,,,,,,,,,,0.45650236329268573,0.09231286276518437,0.4657424957245269,0.2987000000000535,-7.490511544361311e-10,-0.01026000000001659,-798.8344560790077,518.2005637677266,952.1913213783424,False,,
2022-10-28 08:12:30.524236-07:00,127.791314,2.72,-0.54,-2.6,0.61,7.11,869.72,48.24,25.0,0.0,-0.000404964,-0.00119505,0.00339503,33.9943593,-106.894676,1328.9915999999998,-11.6815105,3.01022083,2.30763591,1.98958,-11.6339,6101.18,16.0497,11844.0,-0.546005,-1.0,13.0,-1163.0,97.0,,0.0,,2022-10-28 15:12:30.524236+00:00,1.0810684402829915,0.01462956518319301,2.6566803345453955,-2.656678864025974,-0.0027952455876617465,0.61339503,360.06028418336325,0.2618404699169666,0.21039668805877823,3.2002449560268347,351.2029396724166,-3.1207463007336385,0.5243340265323904,0.25805048199999997,0.22740244119350797,0.27245320307649773,0.947099053533796,-0.32094140087465794,1.4981729497962517,0.20590067539156237,,,,,,,,,,,0.44536816083861724,0.09231286314414265,0.4548345450717674,0.31737999999995736,-0.010907950652759513,0.018679999999903885,-798.8455902814618,518.2005637681056,952.2006623615212,False,,
2022-10-28 08:12:31.724677-07:00,128.991755,2.35,0.19,-2.33,0.17,7.86,869.69,45.93,25.0,0.0,-0.000189499,-0.000143531,0.00238868,33.9943591,-106.894676,1329.0376199999998,-11.6449061,3.00609356,2.31588047,1.98774,-11.7579,6088.65,16.0563,11846.0,-0.495454,-1.0,10.0,-1196.0,97.0,,0.0,,2022-10-28 15:12:31.724677+00:00,1.0781459382785832,0.01457956173886567,2.3378185055350724,-2.2438352952983984,0.6562000704018465,0.17238868000000002,343.69866595672465,0.25791725724762277,0.19816683466858567,2.851768157174995,336.1237942028971,-2.5783575762927287,1.1456122928762866,-0.06588021558,0.20857267701253476,0.2644999698181893,0.6037805817752989,-0.7971505560877955,2.7470376324167076,0.18447493629110343,,,,,,,,,,,0.4230997556009577,0.09231286402737278,0.43305319310048546,0.363399999999956,-0.021781351971281948,0.04601999999999862,-798.8678586866995,518.2005637689888,952.2193444438998,False,,
2022-10-28 08:12:32.724352-07:00,129.99143,3.69,0.16,-3.67,0.37,7.97,869.7,45.58,21.0,0.0,0.000105084,-0.000371663,0.00137055,33.994359,-106.894676,1329.0355499999998,-11.6206541,3.00747427,2.28248213,1.98826,-12.0314,6091.67,16.0616,11798.0,-0.545084,-1.0,11.0,-1154.0,97.0,,0.0,,2022-10-28 15:12:32.724352+00:00,1.07773646047363,0.014572323844667275,3.673872151683073,-3.5629176111933405,0.8960773865915553,0.37137055,345.8828424054416,0.28048031738371293,0.2417543283029911,3.198468865731376,346.51299157860217,-3.031486040810136,0.8312647567424696,0.22600920120000004,0.22420271189825808,0.2716736796867088,0.9622763267717218,0.2720740173826277,-0.024882189069637684,0.2085780266995772,,,,,,,,,,,0.41196555159618164,0.09231286410607034,0.4221815730007789,0.36132999999995263,-0.010871620099706547,-0.002070000000003347,-798.8789928907042,518.2005637690675,952.2286855438903,False,,
2022-10-28 08:12:33.525125-07:00,130.792203,1.91,0.12,-1.89,0.23,8.08,869.69,44.71,23.0,0.0,-1.54996e-05,-0.0011112,0.00099991,33.9943589,-106.894676,1329.0176,-11.5980494,3.01410073,2.32095839,1.99044,-11.7005,6095.33,16.0689,11848.0,-0.532725,-1.0,14.0,-1176.0,97.0,,0.0,,2022-10-28 15:12:33.525125+00:00,1.0773025285910633,0.014565000555064376,1.8948738137192547,-1.8283960101695966,0.4975085928050422,0.23099991,344.77827906668404,0.25232515170893055,0.1873292593507758,1.6913138572984807,356.8500433151483,-1.6475489132944474,0.1622438581853778,0.2695740846,0.18418538499060313,0.2503282167526886,0.9999027335304536,-0.013947167394378852,0.18520671778223113,0.18414956304703586,,,,,,,,,,,0.40083134660086134,0.092312863954978,0.41132400035668976,0.34338000000002467,-0.010857572644089153,-0.017949999999927968,-798.8901270956995,518.2005637689164,952.2380266831427,False,,
2022-10-28 08:12:34.524878-07:00,131.791956,2.52,0.89,-2.35,-0.15,8.1,869.68,44.66,22.0,0.0,-0.000267449,-0.00158308,0.000851644,33.9943587,-106.894676,1329.02029,-11.5708964,3.02059897,2.31144876,1.9901,-11.6943,6104.85,16.0737,11796.0,-0.440282,-1.0,11.0,-1186.0,97.0,,0.0,,2022-10-28 15:12:34.524878+00:00,1.0772135340906044,0.014563631945157243,2.514081962697919,-2.1253081628842003,1.343009057281747,-0.14914835599999998,327.710691039931,0.25807092435001805,0.19507742709553794,2.277539287302278,334.20498821675955,-2.045503475081923,0.990498076842216,-0.1133978032,0.19350967720368553,0.2564478250926693,0.9860276603057441,-0.16658167099648202,1.317401888154327,0.18827442618768542,,,,,,,,,,,0.3785629383799106,0.0923128642112059,0.38965569829492874,0.3460700000000543,-0.021668302061761013,0.002690000000029613,-798.9123955039205,518.2005637691726,952.2567090761298,False,,
2022-10-28 08:12:34.724429-07:00,131.991507,2.64,0.57,-2.57,-0.02,8.04,869.69,44.77,22.0,0.0,0.000259399,-0.000308081,0.00113019,33.9943586,-106.894677,1329.0190699999998,-11.5682984,3.02243357,2.311738,1.9901,-11.6943,6104.85,16.0737,11796.0,-0.440282,-1.0,11.0,-1186.0,97.0,,0.0,,2022-10-28 15:12:34.724429+00:00,1.077455777643816,0.014567645848103218,2.6328384274325947,-2.4037965550786615,1.0740578693709648,-0.01886981,335.92408229862275,0.26123009741702297,0.20303918286050482,2.5198047332995404,334.763705155146,-2.2733506827572483,1.0755896579455602,-0.07580694119999999,0.19956065073180085,0.25957864772391437,0.7649572338085131,0.6440810744339782,-0.6414420608604259,0.15884628653426094,,,,,,,,,,,0.36742873376053,0.0,0.36742873376053,0.34484999999995125,-0.022226964534398763,-0.0012200000001030276,-798.9235297085398,518.1082509049614,952.2158190125548,False,,
2022-10-28 08:12:35.724296-07:00,132.991374,3.1,1.01,-2.93,-0.21,8.19,869.68,44.33,24.0,0.0,0.000275971,-0.00110762,0.00157886,33.9943585,-106.894677,1329.0209,-11.5436785,3.02159759,2.32738042,1.9895,-12.9088,6099.58,16.0792,11813.0,-0.415086,-1.0,11.0,-1156.0,97.0,,0.0,,2022-10-28 15:12:35.724296+00:00,1.0768689360310746,0.014557684733281784,3.100287525322864,-2.6697247995420947,1.5761828048746411,-0.20842114,329.44275919085106,0.26689236520742576,0.21123074736043174,3.5072803217770883,331.80636930940915,-3.0849950841375984,1.6610669103329585,-0.1921164444,0.2252222393530753,0.2746372411581003,0.970334720197722,0.2417654457915946,0.8659456838862216,0.21266460300927345,,,,,,,,,,,0.35629453002401096,0.0,0.35629453002401096,0.3466800000001058,-0.011134203736519022,0.0018300000001545413,-798.9346639122764,518.1082509049614,952.2251607978128,False,,
2022-10-28 08:12:36.724579-07:00,133.991657,3.73,2.16,-3.03,-0.21,7.44,869.63,46.71,20.0,0.0,0.000268891,0.000561891,0.00188217,33.9943584,-106.894677,1329.01675,-11.5158144,3.02288409,2.3091464,1.98947,-12.313,6097.7,16.0848,11850.0,-0.400792,-1.0,14.0,-1171.0,97.0,,0.0,,2022-10-28 15:12:36.724579+00:00,1.079685263906667,0.01460716277828569,3.720902041428246,-2.537224173324708,2.721691660751019,-0.20811783,312.9910541975098,0.2685553914549348,0.20724701875620222,3.7346859898751115,313.6744977696334,-2.5771544258754924,2.6788191344774916,-0.19880948599999998,0.20904449557163826,0.26940549507926326,0.9020338947477715,-0.4316652090754665,3.5288535612628946,0.17734533142093875,,,,,,,,,,,0.3451603259575549,0.0,0.3451603259575549,0.34253000000012435,-0.011134204066456044,-0.004149999999981446,-798.9457981163429,518.1082509049614,952.2345026218902,False,,
2022-10-28 08:12:38.724983-07:00,135.992061,3.19,0.08,-3.19,0.19,8.15,869.67,44.51,24.0,0.0,0.00033785,-0.000202328,0.00331265,33.9943582,-106.894677,1329.03372,-11.4714733,3.01615827,2.31676506,1.9913,-12.1128,6089.86,16.0968,11820.0,-0.395478,-1.0,13.0,-1162.0,97.0,,0.0,,2022-10-28 15:12:38.724983+00:00,1.0770096793825112,0.014560281024127647,3.1912756762585084,-3.110567993323493,0.7131670216650938,0.19331265,347.086842098312,0.27132240804132024,0.22603841148350773,3.3673712702437855,340.2546099914645,-3.089295739789086,1.1800229973603023,-0.08116986400000001,0.22549145277717955,0.27285788921116877,0.5137823178513925,0.8579205848231237,-2.0440954570697136,0.20946628742531842,,,,,,,,,,,0.3228919184388722,0.0,0.3228919184388722,0.35950000000002547,-0.022268407518682698,0.01696999999990112,-798.9680665238615,518.1082509049614,952.2531863851525,False,,
2022-10-28 08:12:39.525010-07:00,136.792088,3.38,0.64,-3.31,-0.17,7.71,869.68,45.74,23.0,0.0,0.00110414,-0.00123385,0.00121844,33.9943581,-106.894677,1329.0241899999999,-11.4509826,3.01753938,2.31657708,1.98996,-12.5219,6091.24,16.1026,11841.0,-0.406845,-1.0,14.0,-1187.0,97.0,,0.0,,2022-10-28 15:12:39.525010+00:00,1.0787093443814804,0.014589460259029415,3.372866881325224,-3.118289102724208,1.2854975966418596,-0.16878156000000002,337.5963629886058,0.2734911408879617,0.22632689143714807,3.218900280430277,335.7293209275568,-2.918749942126356,1.2973725991261962,-0.12084319214800002,0.21996188968687083,0.27019419156810015,0.7451906069756246,0.666851527159757,-0.9795829816880192,0.17133759042238322,,,,,,,,,,,0.31175771410885406,0.0,0.31175771410885406,0.3499699999999848,-0.01113420433001816,-0.009530000000040673,-798.9792007281916,518.1082509049614,952.2625283250719,False,,
2022-10-28 08:12:39.724417-07:00,136.991495,3.2,1.19,-2.97,-0.16,7.78,869.67,45.59,20.0,0.0,0.000273895,-8.17676e-05,0.000923399,33.9943581,-106.894677,1329.02859,-11.44239,3.01777514,2.31382718,1.98996,-12.5219,6091.24,16.1026,11841.0,-0.406845,-1.0,14.0,-1187.0,97.0,,0.0,,2022-10-28 15:12:39.724417+00:00,1.078428159364612,0.014584771094895626,3.1997498638044632,-2.674976822439755,1.7558183819309992,-0.159076601,326.7196501265221,0.2674542152664275,0.21173684030982076,3.4264729694337843,332.33425812092264,-3.0200824633568066,1.5829252468086816,-0.22485335014799998,0.22362383076262882,0.27328807184518544,0.28606089812139374,0.958211439383804,-2.4410645465097898,0.25159105781776214,,,,,,,,,,,0.3117577143238786,0.0,0.3117577143238786,0.35437000000001717,2.1502455371802398e-10,0.004400000000032378,-798.9792007279765,518.1082509049614,952.2625283248914,False,,
2022-10-28 08:12:40.524931-07:00,137.792009,2.76,0.09,-2.76,0.19,7.55,869.69,46.24,23.0,0.0,0.000464056,0.000389756,0.000260532,33.9943581,-106.894677,1329.00076,-11.4308303,3.0189103,2.33538008,1.9919,-11.5624,6079.81,16.1084,11787.0,-0.382828,-1.0,11.0,-1172.0,97.0,,0.0,,2022-10-28 15:12:40.524931+00:00,1.0793366231409502,0.014600129968784941,2.761194494055486,-2.6870281168748784,0.635668886391474,0.190260532,346.69025940307165,0.2639802306706851,0.2121679498389123,3.143001139779961,341.4974701927873,-2.8988293549853155,1.1006005246931871,-0.029860221399999998,0.22001524332358202,0.2700603560494468,0.6431427054347041,-0.765746342104309,2.9276111740186304,0.18264220601595244,,,,,,,,,,,0.31175771296384824,0.0,0.31175771296384824,0.3265400000000227,-1.3600303661043256e-09,-0.02782999999999447,-798.9792007293365,518.1082509049614,952.2625283260326,False,,
2022-10-28 08:12:40.724331-07:00,137.991409,2.38,0.08,-2.38,0.06,7.6,869.7,46.16,22.0,0.0,0.000404353,0.000453644,0.00279807,33.994358,-106.894677,1329.00369,-11.4239111,3.0184876,2.32228625,1.9919,-11.5624,6079.81,16.1084,11787.0,-0.382828,-1.0,11.0,-1172.0,97.0,,0.0,,2022-10-28 15:12:40.724331+00:00,1.0791568077234082,0.014596855086062586,2.3809961816374847,-2.3165499140337116,0.5502175140457498,0.06279807,346.63891741112155,0.25825160840740596,0.20097230695478863,2.769691102537415,344.6852283820864,-2.6348370129187066,0.7816699431345,0.0744076766,0.21118888415270104,0.26424543146595797,0.7464984523488722,-0.665387150943523,2.3367020960240557,0.16594394134228171,,,,,,,,,,,0.3006235085868938,0.0,0.3006235085868938,0.3294700000001285,-0.011134204376954449,0.0029300000001057924,-798.9903349337135,518.1082509049614,952.2718703045292,False,,
2022-10-28 08:12:41.524906-07:00,138.791984,3.38,0.39,-3.35,-0.05,7.66,869.69,45.97,20.0,0.0,2.64305e-05,-0.000117757,0.00224397,33.9943579,-106.894677,1329.01724,-11.4019474,3.0093288,2.32980266,1.98825,-11.5344,6067.19,16.1139,11844.0,-0.372182,-1.0,14.0,-1202.0,97.0,,0.0,,2022-10-28 15:12:41.524906+00:00,1.0789138211447764,0.014592824830223413,3.3727452430543283,-3.2069043277833282,1.0445932734754517,-0.047756030000000005,341.9578819031869,0.2741995400012158,0.22957693749890687,2.675489049436813,347.2867801767669,-2.548501137560345,0.6649258134002904,0.12242347199999999,0.20870529633768173,0.26263374245434196,0.9757246539256574,0.21900091260461912,0.09066043426660919,0.19909436787895057,,,,,,,,,,,0.289489305389891,0.0,0.289489305389891,0.3430200000000241,-0.011134203197002812,0.01354999999989559,-799.0014691369105,518.1082509049614,952.2812123205728,False,,
2022-10-28 08:12:41.724140-07:00,138.991218,3.26,0.8,-3.15,-0.31,7.72,869.67,45.77,24.0,0.0,-0.000833916,1.28166e-05,0.00123622,33.9943579,-106.894677,1329.02615,-11.3939601,3.00954406,2.31209645,1.98825,-11.5344,6067.19,16.1139,11844.0,-0.372182,-1.0,14.0,-1202.0,97.0,,0.0,,2022-10-28 15:12:41.724140+00:00,1.0786585353020983,0.01458875033448104,3.2496276309555467,-2.929863798263933,1.405694797419482,-0.30876378,334.3691643310525,0.27053855876042243,0.22015356838509756,2.610546465245222,347.92637701398064,-2.4916728282643,0.6246303899060551,0.106065784,0.20713318114317322,0.2617632624674843,0.015367359007290528,0.9998819151665566,-2.481779680044829,0.26170145014653373,,,,,,,,,,,0.289489305794214,0.0,0.289489305794214,0.3519300000000385,4.0432301950943383e-10,0.008910000000014406,-799.0014691365062,518.1082509049614,952.2812123202335,False,,
2022-10-28 08:12:42.524761-07:00,139.791839,2.21,-0.87,-2.0,0.37,7.68,869.69,45.91,22.0,0.0,-0.000325447,0.000493942,0.000993114,33.9943577,-106.894677,1329.0276099999999,-11.3745594,3.00528935,2.32789311,1.98903,-11.6394,6062.5,16.1191,11844.0,-0.375355,-1.0,14.0,-1202.0,97.0,,0.0,,2022-10-28 15:12:42.524761+00:00,1.0788369836401548,0.014591497419744283,2.180617412132564,-2.1318069335587744,-0.45879352232399095,0.370993114,372.1455690312289,0.2531815620233688,0.1959563635820857,2.1533489460580992,356.2516055713735,-2.1213968191468586,0.14498280706534672,0.35697315892000003,0.1960517190398908,0.25477765139211456,0.8350402884055679,0.5501888009943005,-1.046102287333837,0.15695966017316057,,,,,,,,,,,0.2672208981532055,0.0,0.2672208981532055,0.3533899999999903,-0.022268407641008514,0.0014599999999518332,-799.0237375441471,518.1082509049614,952.299896468973,False,,
2022-10-28 08:12:42.724418-07:00,139.991496,2.38,-0.39,-2.26,0.63,7.85,869.69,45.36,20.0,0.0,-0.000222399,-0.00188909,0.00211779,33.9943577,-106.894677,1329.03127,-11.3666679,3.0120684,2.31185143,1.98903,-11.6394,6062.5,16.1191,11844.0,-0.375355,-1.0,14.0,-1202.0,97.0,,0.0,,2022-10-28 15:12:42.724418+00:00,1.0781843064614403,0.014580224312616208,2.2952858604545647,-2.2944253843723517,0.06284374869816549,0.63211779,358.43107490444487,0.25649994525383135,0.20045347976181466,2.43394739532203,355.8560799549691,-2.389750067091719,0.22908486373830353,0.38590472692,0.20457540291377532,0.2592946741260852,0.9931412601157733,-0.11692064597689274,0.5069247518141955,0.2018099000957127,,,,,,,,,,,0.2672208983065152,0.0,0.2672208983065152,0.35705000000007203,1.533096982697657e-10,0.003660000000081709,-799.0237375439939,518.1082509049614,952.2998964688444,False,,
2022-10-28 08:12:43.525043-07:00,140.792121,4.26,0.06,-4.26,0.05,7.75,869.69,45.72,24.0,0.0,-8.1927e-05,0.000677642,-0.00278655,33.9943575,-106.894677,1329.02737,-11.3515146,3.0146122,2.31682744,1.99081,-11.7891,6065.16,16.1251,11780.0,-0.351769,-1.0,10.0,-1189.0,97.0,,0.0,,2022-10-28 15:12:43.525043+00:00,1.078568138539212,0.014586853411378102,4.259742817845213,-4.164178945197796,0.8972305091531637,0.047213450000000004,347.8407135002004,0.29291092262545976,0.26538063859823596,3.8788462052544084,344.3304736123358,-3.7272766254006955,1.043474603923531,0.05364725619999999,0.2487873919282518,0.28442693075573844,0.9927707362395818,0.12002610243742283,0.5885605647315144,0.24523752876403235,,,,,,,,,,,0.24495248972847006,0.0,0.24495248972847006,0.3531500000001415,-0.02226840857804513,-0.0038999999999305146,-799.0460059525719,518.1082509049614,952.3185807725039,False,,
2022-10-28 08:12:44.524972-07:00,141.79205,3.6,1.42,-3.3,-0.33,7.81,869.67,45.53,20.0,0.0,0.000199044,0.000346494,-0.00500416,33.9943572,-106.894677,1328.99624,-11.3206075,3.01663203,2.31626563,1.9878,-11.8514,6065.57,16.1307,11835.0,-0.3111,-1.0,16.0,-1157.0,97.0,,0.0,,2022-10-28 15:12:44.524972+00:00,1.0783130082940646,0.014582782300683501,3.5923756932381616,-2.9567047643505675,2.0403578259302995,-0.33500416,325.3912849195666,0.2732084467024189,0.22127360314064654,3.4285739973745004,327.5509228888357,-2.863725862612083,1.803465015941682,-0.1735396314,0.21868412656424024,0.2709048705095913,0.8671117518813646,-0.4981136514383347,2.990266655574045,0.1776331539417862,,,,,,,,,,,0.21154987642826611,0.0,0.21154987642826611,0.3220200000000659,-0.03340261330020394,-0.031130000000075597,-799.0794085658721,518.1082509049614,952.3466075173379,False,,
2022-10-28 08:12:47.525047-07:00,144.792125,2.52,0.56,-2.46,-0.16,8.39,869.7,43.84,22.0,0.0,0.000581837,-0.000690928,0.000330021,33.9943569,-106.894677,1329.00039,-11.2610638,3.01717797,2.33077057,1.99028,-11.8307,6092.86,16.1428,11797.0,-0.0847911,-1.0,12.0,-1165.0,97.0,,0.0,,2022-10-28 15:12:47.525047+00:00,1.0761286984739182,0.014544578730498383,2.523803032558791,-2.3039733636160893,1.0301885686128112,-0.159669979,335.9088804003801,0.25914396183143057,0.2010998923948058,2.549125457114958,332.90943945299443,-2.2624078856063146,1.1663904958871294,-0.15969298839999999,0.2000262435164768,0.2590245673323645,0.7649096191412661,0.6441376208118598,-0.5651187227614249,0.15889317426147104,,,,,,,,,,,0.1781472644392582,0.0,0.1781472644392582,0.32617000000004737,-0.0334026119890079,0.004149999999981446,-799.1128111778611,518.1082509049614,952.3746346078219,False,,
2022-10-28 08:12:49.724683-07:00,146.991761,2.0,-0.01,-1.96,0.37,8.32,869.69,44.08,22.0,0.0,2.73347e-05,-0.000156841,-0.00141274,33.9943568,-106.894677,1329.0035599999999,-11.2118639,3.01864389,2.32510645,1.99026,-11.6968,6114.09,16.1538,11810.0,-0.0925191,-1.0,13.0,-1252.0,97.0,,0.0,,2022-10-28 15:12:49.724683+00:00,1.0763839489667273,0.01454914924023415,1.96018468932404,-1.9246944497735214,0.3713156221752391,0.36858725999999997,349.08054287802605,0.25238591918958103,0.1910536143280694,2.451139980510197,340.1630149389197,-2.2787358499639305,0.8613088550441939,0.013858845399999991,0.2007671350976401,0.2584487112972422,0.985150188574562,0.17169480467243273,0.45727147430810067,0.1949975957644794,,,,,,,,,,,0.167013060007867,0.0,0.167013060007867,0.32934000000000196,-0.01113420443139121,0.003169999999954598,-799.1239453822925,518.1082509049614,952.383977048732,False,,
2022-10-28 08:12:50.724740-07:00,147.991818,2.59,0.54,-2.53,-0.17,8.08,869.67,44.81,25.0,0.0,0.000657358,6.00473e-05,0.000558971,33.9943566,-106.894677,1329.01174,-11.1832473,3.01823662,2.32429491,1.99087,-12.0159,6117.21,16.1596,11836.0,-0.106914,-1.0,13.0,-1187.0,97.0,,0.0,,2022-10-28 15:12:50.724740+00:00,1.0772777541880325,0.014564907879880216,2.5871908557125165,-2.3771684120536367,1.0210910168133178,-0.16944102900000002,336.7544995071289,0.26006557931221314,0.20348673579711604,3.1252019244544744,336.4677604710913,-2.8513208381321165,1.253300289677055,-0.13302825952,0.21849378671348657,0.2686668299711736,0.09096768364391031,-0.9958538449654455,2.9535086441461282,0.2664497144593353,,,,,,,,,,,0.14474465257015445,0.0,0.14474465257015445,0.33752000000004045,-0.02226840743771255,0.00818000000003849,-799.1462137897303,518.1082509049614,952.4026620449251,False,,
2022-10-28 08:12:51.524440-07:00,148.791518,3.08,0.1,-3.05,0.44,8.16,869.7,44.53,23.0,0.0,0.000351198,-0.00195417,-0.00199785,33.9943565,-106.894677,1328.98721,-11.1648013,3.01221029,2.30962383,1.99103,-12.337,6126.35,16.1655,11829.0,-0.155576,-1.0,12.0,-1206.0,97.0,,0.0,,2022-10-28 15:12:51.524440+00:00,1.077008544908986,0.014559759193875917,3.053621919545229,-2.974867601148907,0.6890352553836675,0.43800215,346.95917642720093,0.2685475229728907,0.22225699192416015,3.40835380379892,337.90690161992103,-3.141912055556398,1.2894074858216447,-0.05676601800000001,0.2286151097361176,0.27426419342673086,0.9842318125990441,0.17688340529286542,0.7133237634314914,0.22162844564864118,,,,,,,,,,,0.1336104482304671,0.0,0.1336104482304671,0.3129900000001271,-0.011134204339687342,-0.024529999999913343,-799.1573479940699,518.1082509049614,952.4120046013246,False,,
2022-10-28 08:12:52.524941-07:00,149.792019,2.16,0.02,-2.1,0.48,8.41,869.7,43.77,25.0,0.0,0.000177199,3.38373e-05,0.0021986,33.9943564,-106.894677,1329.00283,-11.1483776,3.01265745,2.34458909,1.99065,-12.2612,6135.19,16.1724,11778.0,-0.196505,-1.0,11.0,-1187.0,97.0,,0.0,,2022-10-28 15:12:52.524941+00:00,1.076052258020837,0.014543260207735203,2.100098024353686,-2.056471646751783,0.4258357406327779,0.4821986,348.3010436189155,0.25400437792470576,0.1946712267735092,2.5121718643915782,341.76133823226473,-2.3672736155193137,0.8026322965904196,0.13574078799999997,0.20345317517337586,0.25935702729145504,0.18756735051906043,-0.9822517442179779,2.4758062511975383,0.2503348069859633,,,,,,,,,,,0.1224762440389714,0.0,0.1224762440389714,0.32861000000002605,-0.011134204191495717,0.015619999999898937,-799.1684821982615,518.1082509049614,952.4213471961195,False,,
2022-10-28 08:12:54.724996-07:00,151.992074,3.29,0.92,-3.16,-0.12,8.1,869.67,44.75,22.0,0.0,1.07315e-05,-0.000372775,0.00088566,33.9943564,-106.894677,1329.0345699999998,-11.093339,3.01371034,2.28945191,1.99036,-11.1919,6139.91,16.183,11835.0,-0.122699,-1.0,14.0,-1191.0,97.0,,0.0,,2022-10-28 15:12:54.724996+00:00,1.0772011477699568,0.014563585616730972,3.291536496751674,-2.9243130460913656,1.5108294800897022,-0.11911434,332.67712309449695,0.27044773435209785,0.22083601784380347,3.341557683673816,337.9517398800359,-3.0833883144552408,1.2572118687223508,-0.11385005439999998,0.2265210046754443,0.2727211003235456,0.9995858787985011,0.028776221201335234,1.1679629664463607,0.22633354188795307,,,,,,,,,,,0.12247624464833565,0.0,0.12247624464833565,0.3603499999999258,6.093642535009991e-10,0.03173999999989974,-799.1684821976521,518.1082509049614,952.4213471956083,False,,
2022-10-28 08:12:57.724683-07:00,154.991761,3.11,0.62,-3.05,0.03,8.08,869.7,44.82,22.0,0.0,0.000614564,-0.000359945,-0.00493597,33.9943561,-106.894677,1329.0069799999999,-11.0523365,3.01697882,2.30105056,1.98756,-11.5242,6161.34,16.1996,11805.0,-0.0669396,-1.0,11.0,-1215.0,97.0,,0.0,,2022-10-28 15:12:57.724683+00:00,1.0773149157925785,0.014565046893234538,3.112946591573072,-2.8749325527767526,1.193817112865681,0.02506403,337.44930829739985,0.26843420098674864,0.2193306317850824,3.375670309860707,337.42236569164913,-3.1158652245292533,1.2955910412446778,-0.002457393599999999,0.22747975009298765,0.2731747972224005,0.5053885650736659,0.862891880998298,-2.033877907274287,0.21153701110492198,,,,,,,,,,,0.08907363195751342,0.0,0.08907363195751342,0.3327600000000075,-0.03340261269082223,-0.02758999999991829,-799.2018848103429,518.1082509049614,952.4493752111989,False,,
2022-10-28 08:12:58.724575-07:00,155.991653,3.43,0.67,-3.36,0.03,8.15,869.69,44.55,23.0,0.0,0.000276224,0.000247275,-0.00114749,33.994356,-106.894677,1329.0204099999999,-11.0253736,3.0164067,2.31449388,1.98856,-10.5127,6166.21,16.206,11786.0,-0.137784,-1.0,11.0,-1185.0,97.0,,0.0,,2022-10-28 15:12:58.724575+00:00,1.0770344476205644,0.01456037363651976,3.4260255089425695,-3.1696025425758028,1.3004885658944487,0.028852509999999998,337.691647324616,0.27412594934735757,0.22935292308588678,3.5157126510501095,337.9629565886802,-3.257336055176497,1.3216307209269675,-0.036183575600000004,0.23245993530698666,0.275942377602232,0.6669854070029474,-0.745070779755261,3.308454318860351,0.1848238907072513,,,,,,,,,,,0.07793942830396737,0.0,0.07793942830396737,0.3461899999999787,-0.011134203653546046,0.013429999999971187,-799.2130190139965,518.1082509049614,952.4587179596107,False,,
2022-10-28 08:13:00.724548-07:00,157.991626,2.79,1.37,-2.41,-0.29,8.75,869.67,42.76,21.0,0.0,-0.000345858,-0.000127777,-0.00397643,33.9943557,-106.894677,1328.99319,-10.9959577,3.0177538,2.29849956,1.99007,-11.5813,6148.14,16.2178,11822.0,-0.0730051,-1.0,12.0,-1217.0,97.0,,0.0,,2022-10-28 15:13:00.724548+00:00,1.0747173565459396,0.014520744255819394,2.772055142226917,-2.104568282910195,1.804184595354679,-0.29397642999999996,319.39448509338234,0.25799573403583254,0.19645010601324003,3.0425568333099955,327.41324174604705,-2.554662413002404,1.6155194402607709,-0.178392819,0.20977502865924147,0.2645610877402092,0.3465544808041827,-0.938029845918851,2.95621509049196,0.2341466705099363,,,,,,,,,,,0.04453681588248435,0.0,0.04453681588248435,0.3189700000000357,-0.03340261242148302,-0.027219999999942956,-799.2464216264179,518.1082509049614,952.4867464371524,False,,
2022-10-28 08:13:01.724343-07:00,158.991421,4.02,0.36,-4.0,0.1,7.77,869.7,45.73,24.0,0.0,7.96582e-05,-0.00130998,-8.93491e-05,33.9943556,-106.894677,1329.0073499999999,-10.9828786,3.02000126,2.3051695,1.98694,-11.3162,6146.36,16.2229,11784.0,-0.144337,-1.0,11.0,-1174.0,97.0,,0.0,,2022-10-28 15:13:01.724343+00:00,1.0785037511332298,0.01458557358006408,4.017447900865776,-3.859460977485004,1.1155485643580632,0.09991065090000001,343.87845446501797,0.2872281323269014,0.25446262393363256,4.043568475329224,342.01020329440564,-3.841067693737048,1.254841996103623,0.026463713380000004,0.25388808572869037,0.2875275983021557,0.998156261732359,0.060696599282681236,1.0193886492711535,0.2529549603463557,,,,,,,,,,,0.033402611454810674,0.0,0.033402611454810674,0.33312999999998283,-0.011134204427673676,0.014159999999947104,-799.2575558308456,518.1082509049614,952.4960893402638,False,,
2022-10-28 08:13:02.724794-07:00,159.991872,4.42,0.4,-4.41,-0.07,8.15,869.71,44.66,24.0,0.0,0.000589895,0.000186367,-0.00475319,33.9943554,-106.894677,1329.00723,-10.974977,3.01779339,2.27787259,1.99044,-10.9469,6143.47,16.2289,11844.0,-0.104699,-1.0,13.0,-1183.0,97.0,,0.0,,2022-10-28 15:13:02.724794+00:00,1.0770592158586174,0.014560466250452592,4.428088626399499,-4.253004489474059,1.2328510436229123,-0.07475319000000001,343.83430631418463,0.29647601923653566,0.26976326237466336,3.757157830592427,340.9376800165259,-3.5539319284537756,1.2129249105903184,-0.05836735828000002,0.24382539603380002,0.28181380413985196,0.3012553770188277,-0.9535434955036105,3.754228825075115,0.25719155815923045,,,,,,,,,,,0.011134203818060785,0.0,0.011134203818060785,0.3330100000000584,-0.02226840763674989,-0.0001199999999244028,-799.2798242384823,518.1082509049614,952.5147752609918,False,,
2022-10-28 08:13:03.724278-07:00,160.991356,3.1,0.6,-3.04,0.08,8.3,869.69,44.13,21.0,0.0,0.00042099,-0.000815295,-0.00219501,33.9943553,-106.894677,1329.0204099999999,-10.9481326,3.01526723,2.27597422,1.98723,-11.4858,6123.63,16.2339,11844.0,-0.15995,-1.0,13.0,-1183.0,97.0,,0.0,,2022-10-28 15:13:03.724278+00:00,1.0764604374335216,0.014550468846152707,3.099558665926363,-2.8715336370802285,1.1668583867102336,0.07780499,337.8854507746448,0.2681510389330578,0.21951188453328868,3.5513487643205126,335.2242592151434,-3.2158720252568207,1.4777254243006777,-0.129154946,0.23144170315377327,0.2757753361630869,0.8885351027226092,0.458808643368586,-0.16245896947825522,0.19172214070276689,,,,,,,,,,,0.0,0.0,0.0,0.3461899999999787,-0.011134203818060785,0.013179999999920256,-799.2909584423004,518.1082509049614,952.5241182791171,False,,
2022-10-28 08:13:04.524992-07:00,161.79207,3.31,0.8,-3.22,0.0,8.34,869.67,44.14,24.0,0.0,-0.000253626,0.00146263,-0.00623166,33.9943551,-106.894677,1329.0215099999998,-10.9507877,3.01768133,2.27987606,1.9856,-11.752,6127.0,16.2401,11783.0,-0.14634,-1.0,9.0,-1151.0,97.0,,0.0,,2022-10-28 15:13:04.524992+00:00,1.0762827198490192,0.014547737434880153,3.316457485356181,-3.007930826048237,1.3968687833450264,-0.00623166,335.0900684869646,0.2714270697042687,0.22409951063651615,3.330556250478395,330.12873350003304,-2.8978554403969325,1.5731412192678367,-0.15752649600000002,0.22213771766209928,0.271107299341648,0.9852962891310099,0.1708543901240511,1.0548988816869505,0.21579840873071185,,,,,,,,,,,-0.022268408394227075,0.0,0.022268408394227075,0.34728999999992993,0.022268408394227075,0.001099999999951251,-799.3132268506946,518.1082509049614,952.5428044315219,False,,
2022-10-28 08:13:04.724233-07:00,161.991311,2.58,1.41,-2.15,-0.2,8.36,869.68,44.03,22.0,0.0,-1.4666e-05,0.000710774,-0.00394041,33.9943551,-106.894677,1329.03054,-10.9459526,3.0152393,2.31716389,1.9856,-11.752,6127.0,16.2401,11783.0,-0.14634,-1.0,9.0,-1151.0,97.0,,0.0,,2022-10-28 15:13:04.724233+00:00,1.0762186297573177,0.014546464544371066,2.570588998545721,-1.8424387714622577,1.7925811481930018,-0.20394041000000002,315.7858147513322,0.25428663466665075,0.1899440256635879,3.109269731067088,328.8601511218806,-2.6668983131406305,1.5446059948807034,-0.15389121,0.21445457640994614,0.26682321611344273,0.9997871901874144,0.020629453147259013,1.4892606337689753,0.21436334012156993,,,,,,,,,,,-0.02226840842574772,0.0,0.02226840842574772,0.3563200000000961,3.152064373401764e-11,0.009030000000166183,-799.3132268507261,518.1082509049614,952.5428044315482,False,,
2022-10-28 08:13:05.724225-07:00,162.991303,1.7,1.01,-1.34,-0.23,8.64,869.69,43.73,25.0,0.0,-0.000260028,-0.000215795,-0.00292473,33.9943548,-106.894677,1329.0269999999998,-10.926733,3.01095143,2.32117265,1.98908,-11.6473,6134.07,16.2459,11843.0,-0.151204,-1.0,13.0,-1153.0,97.0,,0.0,,2022-10-28 15:13:05.724225+00:00,1.0751616101198223,0.014528068521992243,1.6779563472638879,-1.1244729819440507,1.245430855648367,-0.23292473,312.0782075302625,0.24537197279881492,0.17541528341986812,2.0538631045048716,322.16195447283707,-1.6236362343448971,1.2138662971095282,-0.17784167,0.18580125875347073,0.2506400427723788,0.6386199383052482,-0.7695223027300775,2.024623513619984,0.16664511754662106,,,,,,,,,,,-0.05567102067934752,0.0,0.05567102067934752,0.3527799999999388,0.0334026122535998,-0.003540000000157306,-799.3466294629798,518.1082509049614,952.5708339486491,False,,
2022-10-28 08:13:06.724393-07:00,163.991471,3.23,0.53,-3.18,-0.06,8.37,869.7,43.99,21.0,0.0,-0.000253687,0.0001462,-0.00663278,33.9943547,-106.894677,1329.02444,-10.9167258,3.01092091,2.30828979,1.98677,-11.8287,6144.89,16.2507,11840.0,-0.150978,-1.0,11.0,-1194.0,97.0,,0.0,,2022-10-28 15:13:06.724393+00:00,1.0762051497881033,0.014545897495836159,3.2236387559819404,-3.021934327845628,1.1223901938528258,-0.06663278,339.6242738391991,0.2706568699073123,0.22462420260411908,2.932439575716869,339.2981843522474,-2.73594339609566,1.0448241934770892,-0.020069686000000003,0.21543991602440665,0.2655562774549142,0.49931783108161176,0.8664188961258608,-1.848773706959466,0.20645778935481907,,,,,,,,,,,-0.0668052245051052,0.0,0.0668052245051052,0.3502200000000357,0.011134203825757687,-0.0025599999999030842,-799.3577636668055,518.1082509049614,952.5801771978015,False,,
2022-10-28 08:13:08.724465-07:00,165.991543,2.43,0.74,-2.31,-0.17,8.32,869.69,44.13,24.0,0.0,0.00015402,-0.00083373,-0.0072169,33.9943543,-106.894677,1329.0094199999999,-10.8772508,3.00860815,2.30496998,1.98834,-11.5351,6177.85,16.2629,11846.0,-0.211351,-1.0,14.0,-1185.0,97.0,,0.0,,2022-10-28 15:13:08.724465+00:00,1.0763839489667273,0.01454914924023415,2.426439496986603,-2.1296895106852407,1.1627687734944812,-0.1772169,331.3663239557934,0.25636139353510046,0.19749645795302775,2.4545551169347988,336.8099566157128,-2.239561981695546,0.951497269140466,-0.11321892400000003,0.20074665334632055,0.25744989057301554,0.983360986933363,0.1816622398228158,0.5288214478295316,0.194307615954721,,,,,,,,,,,-0.11134204105186615,0.0,0.11134204105186615,0.3351999999999862,0.04453681654676095,-0.01502000000004955,-799.4023004833523,518.1082509049614,952.6175505804385,False,,
2022-10-28 08:13:10.524823-07:00,167.791901,2.59,-0.06,-2.55,0.49,7.68,869.69,46.72,25.0,0.0,0.000714409,-0.00138533,-0.00548834,33.9943539,-106.894677,1328.9984399999998,-10.8624425,3.0176686,2.30496122,1.9855,-10.6179,6135.76,16.2727,11824.0,-0.354715,-1.0,14.0,-1154.0,97.0,,0.0,,2022-10-28 15:13:10.524823+00:00,1.0788369836401548,0.014591497419744283,2.552190192384146,-2.517002691721105,0.42234136426655794,0.48451166,350.47476797650825,0.2598942196881369,0.20860205189304204,2.296625046646468,348.87924686983007,-2.225233237581831,0.4966549523253011,0.30868947599999996,0.20152096163360816,0.25686648902623394,0.8887774987629228,0.4583389113884209,-0.5784952334226879,0.16808377279807368,,,,,,,,,,,-0.15587885677936528,0.0,0.15587885677936528,0.3242199999999684,0.044536815727499124,-0.010980000000017753,-799.4468372990798,518.1082509049614,952.654924578307,False,,
2022-10-28 08:13:11.524875-07:00,168.791953,2.45,0.28,-2.43,0.08,8.01,869.67,45.68,21.0,0.0,5.06259e-05,-0.000692682,-0.00425234,33.9943537,-106.894677,1329.0021,-10.8441695,3.01147235,2.30155426,1.98383,-10.898,6127.4,16.2793,11851.0,-0.448863,-1.0,12.0,-1201.0,97.0,,0.0,,2022-10-28 15:13:11.524875+00:00,1.07754596247795,0.014569537719602364,2.446754576107883,-2.33462018956967,0.7322271001257356,0.07574766,342.5865596079496,0.2580485488800796,0.2033119229900683,2.5375648037398713,344.69942820402196,-2.406697804940252,0.7175307666990361,0.081277356,0.2057886313944995,0.2594397440971158,0.9973398136351093,0.07289235994454818,0.5401921184616149,0.20469985695500176,,,,,,,,,,,-0.17814726519526933,0.0,0.17814726519526933,0.32788000000005013,0.02226840841590405,0.003660000000081709,-799.4691057074957,518.1082509049614,952.6736118086516,False,,
2022-10-28 08:13:12.724503-07:00,169.991581,2.24,1.32,-1.81,-0.06,8.5,869.68,44.25,23.0,0.0,-1.22158e-06,-6.08253e-05,-0.00201625,33.9943536,-106.894677,1329.03677,-10.8280772,3.01732209,2.32222173,1.98376,-11.199,6121.59,16.2846,11783.0,-0.465917,-1.0,11.0,-1180.0,97.0,,0.0,,2022-10-28 15:13:12.724503+00:00,1.0756836728669714,0.014537237555363234,2.2402415284640194,-1.5298556334864672,1.6365279852616412,-0.062016249999999995,313.0704912505118,0.2498583221368233,0.18327371654377664,2.381284105439833,324.4714660150689,-1.9243789951943697,1.3637449775569999,-0.188427276,0.1926318051552076,0.2541292913978992,0.9997983891227264,-0.02007937019931879,1.402110349983998,0.19255416691071248,,,,,,,,,,,-0.1892814707413151,0.0,0.1892814707413151,0.36255000000005566,0.011134205546045772,0.03467000000000553,-799.4802399130417,518.1082509049614,952.6829554826795,False,,
2022-10-28 08:13:13.524464-07:00,170.791542,2.75,0.53,-2.7,0.01,8.24,869.68,44.53,24.0,0.0,-0.000134929,-0.000490461,-0.00834421,33.9943535,-106.894677,1329.0204099999999,-10.8171327,3.01220304,2.30354324,1.98397,-10.8749,6138.16,16.2901,11812.0,-0.514126,-1.0,13.0,-1166.0,97.0,,0.0,,2022-10-28 15:13:13.524464+00:00,1.0766775879135098,0.014554382855318583,2.7519314837023376,-2.5530468685052936,1.0271701797693813,0.0016557900000000007,338.08354284687147,0.26220796828158816,0.20986099963817267,2.784036087541717,338.83892283474444,-2.597276416759991,0.9972545247397309,-0.11563189,0.21146291560350497,0.2629816556525342,0.964179139638885,-0.26525193059659236,1.6504645935031261,0.19745353766461443,,,,,,,,,,,-0.20041567338870944,0.0,0.20041567338870944,0.3461899999999787,0.011134202647394342,-0.01636000000007698,-799.4913741156892,518.1082509049614,952.6922991927621,False,,
2022-10-28 08:13:14.524533-07:00,171.791611,2.09,0.2,-2.08,0.1,8.18,869.68,45.21,21.0,0.0,0.000128736,-7.09392e-05,-0.00639032,33.9943533,-106.894677,1329.01296,-10.7983029,3.01192702,2.31729163,1.98342,-10.7192,6132.86,16.2958,11850.0,-0.558726,-1.0,10.0,-1199.0,97.0,,0.0,,2022-10-28 15:13:14.524533+00:00,1.0769072138164524,0.014558345291262816,2.089697467201055,-2.0057695204660817,0.5862799119838316,0.09360968,343.70653014372266,0.2530963047421123,0.19451038047558816,2.2395661476681497,338.5526814312341,-2.074346772533822,0.823387190718293,-0.011073313999999996,0.1963368107768999,0.2546146148923509,0.4826206015601471,0.8758295239084611,-1.4193905249079681,0.20059161857360122,,,,,,,,,,,-0.22268408151904273,0.0,0.22268408151904273,0.3387400000001435,0.02226840813033329,-0.0074499999998351996,-799.5136425238194,518.1082509049614,952.710986730763,False,,
