Timestamp,Seconds,S,Um,Vm,Wm,T,P,H,MD,Sts,Vx,Vy,Vz,Lat,Lon,Alt,Yaw,Roll,Pitch,CH4,C2H6,H2O,T_a,Batt,R,C2C1,Power,Current,SOC,Lat_a,Lon_a,TS,Timestamp_UTC
2022-10-28 08:10:22.732922-07:00,0.0,4.03,2.18,-3.38,-0.22,8.15,869.62,43.53,24.0,-1.0,,,,,,,,,,,,,,,,,,,,,,,2022-10-28 15:10:22.732922+00:00
2022-10-28 08:10:22.925016-07:00,0.192094,4.61,2.72,-3.72,-0.18,8.04,869.6,43.88,24.0,-1.0,,,,,,,,,,,,,,,,,,,,,,,2022-10-28 15:10:22.925016+00:00
2022-10-28 08:10:23.124630-07:00,0.391708,4.54,2.11,-4.0,-0.37,7.8,869.59,44.53,21.0,-1.0,,,,,,,,,,1.9574,2.28004,6167.06,15.3318,11856.0,-0.924968,-1.0,13.0,-1186.0,98.0,,0.0,,2022-10-28 15:10:23.124630+00:00
2022-10-28 08:10:23.325097-07:00,0.592175,3.8,1.47,-3.5,-0.28,8.03,869.63,43.89,26.0,-1.0,,,,,,,,,,,,,,,,,,,,,,,2022-10-28 15:10:23.325097+00:00
2022-10-28 08:10:23.524714-07:00,0.791792,4.01,1.59,-3.67,-0.25,8.11,869.62,43.71,24.0,-1.0,,,,,,,,,,,,,,,,,,,,,,,2022-10-28 15:10:23.524714+00:00
2022-10-28 08:10:23.724555-07:00,0.991633,3.84,0.81,-3.74,-0.3,8.03,869.64,43.85,21.0,-1.0,,,,,,,,,,,,,,,,,,,,,,,2022-10-28 15:10:23.724555+00:00
2022-10-28 08:10:23.924595-07:00,1.191673,3.65,0.4,-3.62,-0.32,7.93,869.65,44.32,27.0,-1.0,,,,,,,,,,,,,,,,,,,,,,,2022-10-28 15:10:23.924595+00:00
2022-10-28 08:10:24.124689-07:00,1.391767,3.31,0.75,-3.23,-0.15,8.04,869.65,43.87,22.0,-1.0,,,,,,,,,,1.96079,1.51578,6172.37,15.3379,11781.0,-0.917562,-1.0,11.0,-1201.0,98.0,,0.0,,2022-10-28 15:10:24.124689+00:00
2022-10-28 08:10:24.324513-07:00,1.591591,4.02,1.1,-3.85,-0.33,7.91,869.65,44.33,21.0,-1.0,,,,,,,,,,,,,,,,,,,,,,,2022-10-28 15:10:24.324513+00:00
2022-10-28 08:10:24.524865-07:00,1.791943,3.72,1.36,-3.45,-0.23,7.75,869.64,44.74,27.0,-1.0,,,,,,,,,,,,,,,,,,,,,,,2022-10-28 15:10:24.524865+00:00
2022-10-28 08:10:24.724190-07:00,1.991268,3.61,1.39,-3.33,-0.24,7.68,869.63,45.03,21.0,-1.0,,,,,,,,,,,,,,,,,,,,,,,2022-10-28 15:10:24.724190+00:00
2022-10-28 08:10:24.924319-07:00,2.191397,3.65,1.56,-3.29,-0.26,7.75,869.63,44.74,21.0,-1.0,,,,,,,,,,,,,,,,,,,,,,,2022-10-28 15:10:24.924319+00:00
2022-10-28 08:10:25.124648-07:00,2.391726,3.57,1.13,-3.37,-0.37,7.99,869.63,44.09,26.0,-1.0,,,,,,,,,,1.9584,1.33451,6164.55,15.3433,11853.0,-0.915863,-1.0,14.0,-1187.0,98.0,,0.0,,2022-10-28 15:10:25.124648+00:00
2022-10-28 08:10:25.324735-07:00,2.591813,3.46,1.15,-3.26,-0.24,8.08,869.64,43.81,22.0,-1.0,,,,,,,,,,,,,,,,,,,,,,,2022-10-28 15:10:25.324735+00:00
2022-10-28 08:10:25.524924-07:00,2.792002,3.31,0.68,-3.23,-0.22,8.06,869.65,43.86,23.0,-1.0,,,,,,,,,,,,,,,,,,,,,,,2022-10-28 15:10:25.524924+00:00
2022-10-28 08:10:25.724232-07:00,2.99131,3.51,1.07,-3.34,-0.19,8.12,869.65,43.69,26.0,-1.0,,,,,,,,,,,,,,,,,,,,,,,2022-10-28 15:10:25.724232+00:00
2022-10-28 08:10:25.924867-07:00,3.191945,3.38,1.71,-2.9,-0.16,7.98,869.64,44.14,21.0,-1.0,,,,,,,,,,,,,,,,,,,,,,,2022-10-28 15:10:25.924867+00:00
2022-10-28 08:10:26.124268-07:00,3.391346,3.19,1.62,-2.75,-0.15,7.87,869.63,44.53,24.0,-1.0,,,,,,,,,,1.95994,1.40853,6155.11,15.3504,11789.0,-0.923852,-1.0,11.0,-1190.0,98.0,,0.0,,2022-10-28 15:10:26.124268+00:00
2022-10-28 08:10:26.324392-07:00,3.59147,3.15,1.2,-2.9,-0.2,8.13,869.64,43.55,24.0,-1.0,,,,,,,,,,,,,,,,,,,,,,,2022-10-28 15:10:26.324392+00:00
2022-10-28 08:10:26.524169-07:00,3.791247,3.22,0.97,-3.06,-0.21,8.17,869.65,43.49,21.0,-1.0,,,,,,,,,,,,,,,,,,,,,,,2022-10-28 15:10:26.524169+00:00
2022-10-28 08:10:26.724280-07:00,3.991358,3.02,0.76,-2.91,-0.14,8.09,869.65,43.78,25.0,-1.0,,,,,,,,,,,,,,,,,,,,,,,2022-10-28 15:10:26.724280+00:00
2022-10-28 08:10:26.924573-07:00,4.191651,2.98,0.56,-2.93,-0.02,8.15,869.66,43.61,23.0,-1.0,,,,,,,,,,,,,,,,,,,,,,,2022-10-28 15:10:26.924573+00:00
2022-10-28 08:10:27.135054-07:00,4.402132,4.05,0.81,-3.96,-0.27,8.18,869.66,43.5,21.0,-1.0,,,,,,,,,,1.9585,1.44304,6159.57,15.3552,11789.0,-0.922713,-1.0,11.0,-1190.0,98.0,,0.0,,2022-10-28 15:10:27.135054+00:00
2022-10-28 08:10:27.324989-07:00,4.592067,3.18,1.11,-2.98,-0.2,8.33,869.65,43.13,26.0,-1.0,,,,,,,,,,,,,,,,,,,,,,,2022-10-28 15:10:27.324989+00:00
2022-10-28 08:10:27.524539-07:00,4.791617,2.65,0.7,-2.55,-0.12,8.39,869.65,42.89,22.0,-1.0,,,,,,,,,,,,,,,,,,,,,,,2022-10-28 15:10:27.524539+00:00
2022-10-28 08:10:27.725149-07:00,4.992227,2.93,0.28,-2.92,0.01,8.34,869.66,43.05,20.0,-1.0,,,,,,,,,,,,,,,,,,,,,,,2022-10-28 15:10:27.725149+00:00
2022-10-28 08:10:27.924368-07:00,5.191446,3.55,0.4,-3.53,-0.14,7.9,869.66,44.35,26.0,-1.0,,,,,,,,,,,,,,,,,,,,,,,2022-10-28 15:10:27.924368+00:00
2022-10-28 08:10:28.150180-07:00,5.417258,3.86,0.35,-3.85,-0.13,7.93,869.68,44.29,21.0,-1.0,,,,,,,,,,1.95878,0.818261,6165.44,15.3615,11851.0,-0.922787,-1.0,14.0,-1181.0,98.0,,0.0,,2022-10-28 15:10:28.150180+00:00
2022-10-28 08:10:28.324973-07:00,5.592051,3.1,0.47,-3.07,-0.04,8.15,869.67,43.69,21.0,-1.0,,,,,,,,,,,,,,,,,,,,,,,2022-10-28 15:10:28.324973+00:00
2022-10-28 08:10:28.525002-07:00,5.79208,2.57,0.63,-2.49,-0.05,8.41,869.65,42.94,26.0,-1.0,,,,,,,,,,,,,,,,,,,,,,,2022-10-28 15:10:28.525002+00:00
2022-10-28 08:10:28.724487-07:00,5.991565,2.67,0.61,-2.6,-0.14,8.46,869.66,42.74,21.0,-1.0,,,,,,,,,,,,,,,,,,,,,,,2022-10-28 15:10:28.724487+00:00
2022-10-28 08:10:28.924328-07:00,6.191406,2.65,0.72,-2.55,-0.17,8.52,869.66,42.6,21.0,-1.0,,,,,,,,,,,,,,,,,,,,,,,2022-10-28 15:10:28.924328+00:00
2022-10-28 08:10:29.175856-07:00,6.442934,2.67,0.42,-2.64,0.13,8.1,869.67,43.74,25.0,-1.0,,,,,,,,,,1.96075,1.20043,6172.91,15.3673,11792.0,-0.926034,-1.0,12.0,-1178.0,98.0,,0.0,,2022-10-28 15:10:29.175856+00:00
2022-10-28 08:10:29.324407-07:00,6.591485,3.27,0.58,-3.22,-0.13,8.07,869.68,43.94,20.0,-1.0,,,,,,,,,,,,,,,,,,,,,,,2022-10-28 15:10:29.324407+00:00
2022-10-28 08:10:29.524621-07:00,6.791699,2.6,-0.04,-2.54,0.54,8.01,869.67,44.11,23.0,-1.0,,,,,,,,,,,,,,,,,,,,,,,2022-10-28 15:10:29.524621+00:00
2022-10-28 08:10:29.725017-07:00,6.992095,2.87,0.08,-2.86,0.31,7.95,869.67,44.19,24.0,-1.0,,,,,,,,,,,,,,,,,,,,,,,2022-10-28 15:10:29.725017+00:00
2022-10-28 08:10:29.924388-07:00,7.191466,2.99,0.43,-2.96,-0.03,8.19,869.66,43.57,20.0,-1.0,,,,,,,,,,,,,,,,,,,,,,,2022-10-28 15:10:29.924388+00:00
2022-10-28 08:10:30.192869-07:00,7.459947,3.39,0.4,-3.37,-0.11,8.27,869.66,43.36,24.0,-1.0,,,,,,,,,,1.95931,0.603145,6176.04,15.3731,11804.0,-0.92934,-1.0,10.0,-1175.0,98.0,,0.0,,2022-10-28 15:10:30.192869+00:00
2022-10-28 08:10:30.324616-07:00,7.591694,2.84,0.33,-2.82,0.01,8.3,869.66,43.19,25.0,-1.0,,,,,,,,,,,,,,,,,,,,,,,2022-10-28 15:10:30.324616+00:00
2022-10-28 08:10:30.524540-07:00,7.791618,3.15,0.51,-3.11,0.01,8.3,869.68,43.25,20.0,-1.0,,,,,,,,,,,,,,,,,,,,,,,2022-10-28 15:10:30.524540+00:00
2022-10-28 08:10:30.724703-07:00,7.991781,3.35,0.39,-3.32,0.02,8.21,869.67,43.51,24.0,-1.0,,,,,,,,,,,,,,,,,,,,,,,2022-10-28 15:10:30.724703+00:00
2022-10-28 08:10:30.925107-07:00,8.192185,2.31,-0.2,-2.26,0.43,8.14,869.67,43.78,24.0,-1.0,,,,,,,,,,,,,,,,,,,,,,,2022-10-28 15:10:30.925107+00:00
2022-10-28 08:10:31.226647-07:00,8.493725,2.61,0.37,-2.59,-0.07,8.27,869.66,43.33,20.0,-1.0,,,,,,,,,,,,,,,,,,,,,,,2022-10-28 15:10:31.226647+00:00
2022-10-28 08:10:31.325100-07:00,8.592178,2.4,0.68,-2.29,-0.2,8.4,869.67,43.0,25.0,-1.0,,,,,,,,,,,,,,,,,,,,,,,2022-10-28 15:10:31.325100+00:00
2022-10-28 08:10:31.524855-07:00,8.791933,2.91,0.75,-2.81,-0.12,8.41,869.66,42.93,22.0,-1.0,,,,,,,,,,,,,,,,,,,,,,,2022-10-28 15:10:31.524855+00:00
2022-10-28 08:10:31.724272-07:00,8.99135,3.11,0.84,-2.99,-0.15,8.44,869.66,42.94,20.0,-1.0,,,,,,,,,,,,,,,,,,,,,,,2022-10-28 15:10:31.724272+00:00
2022-10-28 08:10:31.924174-07:00,9.191252,2.71,0.42,-2.68,-0.05,8.42,869.66,42.91,26.0,-1.0,,,,,,,,,,,,,,,,,,,,,,,2022-10-28 15:10:31.924174+00:00
2022-10-28 08:10:32.250768-07:00,9.517846,2.41,0.27,-2.39,-0.15,8.37,869.67,43.11,22.0,-1.0,,,,,,,,,,,,,,,,,,,,,,,2022-10-28 15:10:32.250768+00:00
2022-10-28 08:10:32.324947-07:00,9.592025,2.1,0.42,-2.05,-0.19,8.41,869.66,42.92,20.0,-1.0,,,,,,,,,,,,,,,,,,,,,,,2022-10-28 15:10:32.324947+00:00
2022-10-28 08:10:32.524166-07:00,9.791244,2.29,0.58,-2.21,-0.12,8.4,869.66,42.97,25.0,-1.0,,,,,,,,,,,,,,,,,,,,,,,2022-10-28 15:10:32.524166+00:00
2022-10-28 08:10:32.724674-07:00,9.991752,1.46,-0.08,-1.43,0.28,8.23,869.68,43.56,22.0,-1.0,,,,,,,,,,,,,,,,,,,,,,,2022-10-28 15:10:32.724674+00:00
2022-10-28 08:10:32.925145-07:00,10.192223,1.08,0.17,-1.07,-0.04,8.3,869.67,43.29,22.0,-1.0,,,,,,,,,,,,,,,,,,,,,,,2022-10-28 15:10:32.925145+00:00
2022-10-28 08:10:33.269735-07:00,10.536813,1.52,0.66,-1.35,-0.28,8.54,869.67,42.54,27.0,-1.0,,,,,,,,,,,,,,,,,,,,,,,2022-10-28 15:10:33.269735+00:00
2022-10-28 08:10:33.325118-07:00,10.592196,1.83,0.42,-1.72,-0.44,8.51,869.65,42.69,21.0,-1.0,,,,,,,,,,,,,,,,,,,,,,,2022-10-28 15:10:33.325118+00:00
2022-10-28 08:10:33.524870-07:00,10.791948,1.3,0.2,-1.28,-0.06,8.58,869.67,42.5,23.0,-1.0,,,,,,,,,,,,,,,,,,,,,,,2022-10-28 15:10:33.524870+00:00
2022-10-28 08:10:33.724661-07:00,10.991739,2.28,0.21,-2.25,-0.3,8.64,869.66,42.33,27.0,-1.0,,,,,,,,,,,,,,,,,,,,,,,2022-10-28 15:10:33.724661+00:00
2022-10-28 08:10:33.924341-07:00,11.191419,2.04,0.66,-1.91,-0.31,8.81,869.65,41.84,21.0,-1.0,,,,,,,,,,,,,,,,,,,,,,,2022-10-28 15:10:33.924341+00:00
2022-10-28 08:10:34.297721-07:00,11.564799,2.11,0.55,-2.02,-0.26,8.53,869.66,42.57,23.0,-1.0,,,,,,,,,,,,,,,,,,,,,,,2022-10-28 15:10:34.297721+00:00
2022-10-28 08:10:34.327337-07:00,11.594415,1.88,0.54,-1.76,-0.41,8.53,869.65,42.7,25.0,-1.0,,,,,,,,,,,,,,,,,,,,,,,2022-10-28 15:10:34.327337+00:00
2022-10-28 08:10:34.524229-07:00,11.791307,2.03,0.83,-1.82,-0.34,8.78,869.66,41.97,21.0,-1.0,,,,,,,,,,,,,,,,,,,,,,,2022-10-28 15:10:34.524229+00:00
2022-10-28 08:10:34.724766-07:00,11.991844,1.96,1.06,-1.64,-0.17,8.5,869.65,42.78,24.0,-1.0,,,,,,,,,,,,,,,,,,,,,,,2022-10-28 15:10:34.724766+00:00
2022-10-28 08:10:34.924867-07:00,12.191945,1.88,1.04,-1.55,-0.2,8.24,869.65,43.54,25.0,-1.0,,,,,,,,,,,,,,,,,,,,,,,2022-10-28 15:10:34.924867+00:00
2022-10-28 08:10:35.317982-07:00,12.58506,1.84,0.51,-1.74,-0.33,8.21,869.65,43.61,21.0,-1.0,,,,,,,,,,,,,,,,,,,,,,,2022-10-28 15:10:35.317982+00:00
2022-10-28 08:10:35.346654-07:00,12.613732,2.1,0.26,-2.09,-0.08,8.57,869.67,42.53,24.0,-1.0,,,,,,,,,,,,,,,,,,,,,,,2022-10-28 15:10:35.346654+00:00
2022-10-28 08:10:35.524973-07:00,12.792051,1.64,0.08,-1.64,0.06,8.59,869.68,42.51,23.0,-1.0,,,,,,,,,,,,,,,,,,,,,,,2022-10-28 15:10:35.524973+00:00
2022-10-28 08:10:35.724376-07:00,12.991454,1.62,0.19,-1.61,-0.01,8.55,869.67,42.62,20.0,-1.0,,,,,,,,,,,,,,,,,,,,,,,2022-10-28 15:10:35.724376+00:00
2022-10-28 08:10:35.925001-07:00,13.192079,1.86,0.15,-1.84,0.17,8.48,869.66,42.78,26.0,-1.0,,,,,,,,,,,,,,,,,,,,,,,2022-10-28 15:10:35.925001+00:00
2022-10-28 08:10:36.243598-07:00,13.510676,2.61,0.26,-2.59,-0.21,8.29,869.68,43.43,22.0,-1.0,,,,,,,,,,,,,,,,,,,,,,,2022-10-28 15:10:36.243598+00:00
2022-10-28 08:10:36.324316-07:00,13.591394,2.45,0.5,-2.39,-0.09,8.31,869.68,43.39,22.0,-1.0,,,,,,,,,,,,,,,,,,,,,,,2022-10-28 15:10:36.324316+00:00
2022-10-28 08:10:36.524643-07:00,13.791721,2.49,0.61,-2.42,-0.05,8.32,869.68,43.36,26.0,-1.0,,,,,,,,,,,,,,,,,,,,,,,2022-10-28 15:10:36.524643+00:00
2022-10-28 08:10:36.724906-07:00,13.991984,2.63,-0.01,-2.62,0.29,7.93,869.67,44.46,22.0,-1.0,,,,,,,,,,,,,,,,,,,,,,,2022-10-28 15:10:36.724906+00:00
2022-10-28 08:10:36.924598-07:00,14.191676,2.65,0.22,-2.64,0.01,8.17,869.67,43.73,22.0,-1.0,,,,,,,,,,,,,,,,,,,,,,,2022-10-28 15:10:36.924598+00:00
2022-10-28 08:10:37.125525-07:00,14.392603,2.59,0.29,-2.57,0.17,8.11,869.66,43.91,26.0,-1.0,,,,,,,,,,1.96366,0.0918087,6216.61,15.4076,11862.0,-0.955252,-1.0,11.0,-1161.0,98.0,,0.0,,2022-10-28 15:10:37.125525+00:00
2022-10-28 08:10:37.324485-07:00,14.591563,2.53,0.48,-2.49,-0.06,8.35,869.68,43.17,22.0,-1.0,,,,,,,,,,,,,,,,,,,,,,,2022-10-28 15:10:37.324485+00:00
2022-10-28 08:10:37.525145-07:00,14.792223,3.0,1.05,-2.8,-0.13,8.47,869.67,42.91,21.0,-1.0,,,,,,,,,,,,,,,,,,,,,,,2022-10-28 15:10:37.525145+00:00
2022-10-28 08:10:37.724726-07:00,14.991804,3.22,0.67,-3.15,-0.2,7.54,869.68,45.67,25.0,-1.0,,,,,,,,,,,,,,,,,,,,,,,2022-10-28 15:10:37.724726+00:00
2022-10-28 08:10:37.924905-07:00,15.191983,3.09,0.48,-3.05,-0.11,7.44,869.68,46.04,20.0,-1.0,,,,,,,,,,,,,,,,,,,,,,,2022-10-28 15:10:37.924905+00:00
2022-10-28 08:10:38.125807-07:00,15.392885,3.07,0.55,-3.02,-0.0,7.7,869.67,45.18,22.0,-1.0,,,,,,,,,,1.96276,0.232714,6207.97,15.4137,11862.0,-0.954897,-1.0,11.0,-1161.0,98.0,,0.0,,2022-10-28 15:10:38.125807+00:00
2022-10-28 08:10:38.324519-07:00,15.591597,2.93,0.48,-2.89,-0.03,7.73,869.67,45.06,28.0,-1.0,,,,,,,,,,,,,,,,,,,,,,,2022-10-28 15:10:38.324519+00:00
2022-10-28 08:10:38.524882-07:00,15.79196,3.68,0.66,-3.61,-0.17,7.77,869.67,44.96,21.0,-1.0,,,,,,,,,,,,,,,,,,,,,,,2022-10-28 15:10:38.524882+00:00
2022-10-28 08:10:38.724595-07:00,15.991673,3.6,0.79,-3.5,-0.26,7.91,869.66,44.61,21.0,-1.0,,,,,,,,,,,,,,,,,,,,,,,2022-10-28 15:10:38.724595+00:00
2022-10-28 08:10:38.924307-07:00,16.191385,3.62,1.09,-3.44,-0.22,8.17,869.66,43.83,27.0,-1.0,,,,,,,,,,,,,,,,,,,,,,,2022-10-28 15:10:38.924307+00:00
2022-10-28 08:10:39.125468-07:00,16.392546,3.72,1.16,-3.52,-0.25,8.01,869.65,44.28,21.0,-1.0,,,,,,,,,,1.96332,-0.373259,6185.6,15.4195,11831.0,-0.958452,-1.0,13.0,-1165.0,98.0,,0.0,,2022-10-28 15:10:39.125468+00:00
2022-10-28 08:10:39.324850-07:00,16.591928,3.38,1.17,-3.16,-0.26,7.98,869.65,44.37,23.0,-1.0,,,,,,,,,,,,,,,,,,,,,,,2022-10-28 15:10:39.324850+00:00
2022-10-28 08:10:39.524751-07:00,16.791829,3.05,0.41,-3.02,0.01,7.66,869.65,45.39,28.0,-1.0,,,,,,,,,,,,,,,,,,,,,,,2022-10-28 15:10:39.524751+00:00
2022-10-28 08:10:39.724772-07:00,16.99185,3.37,0.4,-3.34,-0.07,7.7,869.67,45.28,20.0,-1.0,,,,,,,,,,,,,,,,,,,,,,,2022-10-28 15:10:39.724772+00:00
2022-10-28 08:10:39.924460-07:00,17.191538,3.25,0.78,-3.14,-0.22,7.66,869.65,45.39,24.0,-1.0,,,,,,,,,,,,,,,,,,,,,,,2022-10-28 15:10:39.924460+00:00
2022-10-28 08:10:40.126224-07:00,17.393302,3.02,0.53,-2.97,-0.09,7.74,869.66,45.15,22.0,-1.0,,,,,,,,,,1.9639,-0.742593,6162.79,15.4255,11845.0,-0.957881,-1.0,9.0,-1189.0,98.0,,0.0,,2022-10-28 15:10:40.126224+00:00
2022-10-28 08:10:40.324289-07:00,17.591367,2.06,-0.1,-2.02,0.41,7.7,869.67,45.27,19.0,-1.0,,,,,,,,,,,,,,,,,,,,,,,2022-10-28 15:10:40.324289+00:00
2022-10-28 08:10:40.525111-07:00,17.792189,2.18,0.12,-2.18,0.1,7.8,869.67,44.97,24.0,-1.0,,,,,,,,,,,,,,,,,,,,,,,2022-10-28 15:10:40.525111+00:00
2022-10-28 08:10:40.724709-07:00,17.991787,2.35,0.4,-2.31,-0.04,7.92,869.66,44.6,24.0,-1.0,,,,,,,,,,,,,,,,,,,,,,,2022-10-28 15:10:40.724709+00:00
2022-10-28 08:10:40.924915-07:00,18.191993,2.69,0.68,-2.61,-0.05,8.04,869.66,44.22,20.0,-1.0,,,,,,,,,,,,,,,,,,,,,,,2022-10-28 15:10:40.924915+00:00
2022-10-28 08:10:41.125760-07:00,18.392838,1.91,-0.14,-1.89,0.21,7.73,869.65,45.18,28.0,-1.0,,,,,,,,,,1.96723,-1.16418,6146.68,15.4313,11811.0,-0.96379,-1.0,13.0,-1156.0,98.0,,0.0,,2022-10-28 15:10:41.125760+00:00
2022-10-28 08:10:41.324985-07:00,18.592063,2.64,0.52,-2.58,-0.22,7.84,869.66,44.83,22.0,-1.0,,,,,,,,,,,,,,,,,,,,,,,2022-10-28 15:10:41.324985+00:00
2022-10-28 08:10:41.524215-07:00,18.791293,1.82,0.07,-1.82,-0.0,7.79,869.65,45.06,21.0,-1.0,,,,,,,,,,,,,,,,,,,,,,,2022-10-28 15:10:41.524215+00:00
2022-10-28 08:10:41.724815-07:00,18.991893,2.3,0.64,-2.19,-0.27,8.0,869.65,44.46,26.0,-1.0,,,,,,,,,,,,,,,,,,,,,,,2022-10-28 15:10:41.724815+00:00
2022-10-28 08:10:41.924459-07:00,19.191537,2.64,0.62,-2.56,-0.17,8.06,869.65,44.28,22.0,-1.0,,,,,,,,,,,,,,,,,,,,,,,2022-10-28 15:10:41.924459+00:00
2022-10-28 08:10:42.125542-07:00,19.39262,2.63,0.67,-2.55,-0.06,8.06,869.66,44.21,20.0,-1.0,,,,,,,,,,1.9632,-1.26483,6133.87,15.4364,11852.0,-0.95314,-1.0,9.0,-1195.0,98.0,,0.0,,2022-10-28 15:10:42.125542+00:00
2022-10-28 08:10:42.325694-07:00,19.592772,2.67,0.76,-2.56,-0.08,8.13,869.65,44.01,26.0,-1.0,,,,,,,,,,,,,,,,,,,,,,,2022-10-28 15:10:42.325694+00:00
2022-10-28 08:10:42.524392-07:00,19.79147,2.8,0.82,-2.68,-0.16,8.18,869.65,43.91,21.0,-1.0,,,,,,,,,,,,,,,,,,,,,,,2022-10-28 15:10:42.524392+00:00
2022-10-28 08:10:42.724413-07:00,19.991491,2.33,0.77,-2.19,-0.17,7.9,869.66,44.77,23.0,-1.0,,,,,,,,,,,,,,,,,,,,,,,2022-10-28 15:10:42.724413+00:00
2022-10-28 08:10:42.924765-07:00,20.191843,2.38,0.43,-2.34,0.1,7.8,869.65,45.01,21.0,-1.0,,,,,,,,,,,,,,,,,,,,,,,2022-10-28 15:10:42.924765+00:00
2022-10-28 08:10:43.125571-07:00,20.392649,2.43,-0.04,-2.41,0.27,7.71,869.65,45.36,20.0,-1.0,,,,,,,,,,1.96317,-1.22022,6136.07,15.4431,11796.0,-0.946798,-1.0,14.0,-1171.0,98.0,,0.0,,2022-10-28 15:10:43.125571+00:00
2022-10-28 08:10:43.324793-07:00,20.591871,2.32,-0.39,-2.23,0.52,7.57,869.65,45.73,23.0,-1.0,,,,,,,,,,,,,,,,,,,,,,,2022-10-28 15:10:43.324793+00:00
2022-10-28 08:10:43.524366-07:00,20.791444,1.78,-0.92,-1.48,0.33,7.81,869.67,44.93,26.0,-1.0,,,,,,,,,,,,,,,,,,,,,,,2022-10-28 15:10:43.524366+00:00
2022-10-28 08:10:43.724661-07:00,20.991739,1.77,-0.07,-1.75,0.2,7.61,869.67,45.19,21.0,-1.0,,,,,,,,,,,,,,,,,,,,,,,2022-10-28 15:10:43.724661+00:00
2022-10-28 08:10:43.925009-07:00,21.192087,1.5,0.02,-1.45,0.37,7.78,869.67,45.06,24.0,-1.0,,,,,,,,,,,,,,,,,,,,,,,2022-10-28 15:10:43.925009+00:00
2022-10-28 08:10:44.125484-07:00,21.392562,2.41,0.22,-2.4,0.03,7.95,869.67,44.63,23.0,-1.0,,,,,,,,,,1.96466,-1.87242,6142.63,15.4486,11858.0,-0.940126,-1.0,11.0,-1184.0,98.0,,0.0,,2022-10-28 15:10:44.125484+00:00
2022-10-28 08:10:44.324476-07:00,21.591554,1.84,-0.02,-1.81,0.32,7.96,869.66,44.59,20.0,-1.0,,,,,,,,,,,,,,,,,,,,,,,2022-10-28 15:10:44.324476+00:00
2022-10-28 08:10:44.524812-07:00,21.79189,2.06,0.28,-2.03,0.26,7.92,869.67,44.22,26.0,-1.0,,,,,,,,,,,,,,,,,,,,,,,2022-10-28 15:10:44.524812+00:00
2022-10-28 08:10:44.724623-07:00,21.991701,2.87,0.91,-2.72,0.08,8.25,869.66,43.23,23.0,-1.0,,,,,,,,,,,,,,,,,,,,,,,2022-10-28 15:10:44.724623+00:00
2022-10-28 08:10:44.925023-07:00,22.192101,2.49,1.28,-2.13,0.06,8.17,869.66,43.89,19.0,-1.0,,,,,,,,,,,,,,,,,,,,,,,2022-10-28 15:10:44.925023+00:00
2022-10-28 08:10:45.126037-07:00,22.393115,3.14,1.59,-2.7,0.23,8.16,869.65,43.99,25.0,-1.0,,,,,,,,,,1.96602,-1.47048,6140.78,15.454,11788.0,-0.94155,-1.0,11.0,-1169.0,98.0,,0.0,,2022-10-28 15:10:45.126037+00:00
2022-10-28 08:10:45.324346-07:00,22.591424,2.46,0.54,-2.37,0.34,8.27,869.65,43.23,23.0,-1.0,,,,,,,,,,,,,,,,,,,,,,,2022-10-28 15:10:45.324346+00:00
2022-10-28 08:10:45.524977-07:00,22.792055,2.82,0.1,-2.81,0.22,7.9,869.68,44.77,20.0,-1.0,,,,,,,,,,,,,,,,,,,,,,,2022-10-28 15:10:45.524977+00:00
2022-10-28 08:10:45.724820-07:00,22.991898,2.92,0.76,-2.82,-0.08,8.14,869.66,43.58,26.0,-1.0,,,,,,,,,,,,,,,,,,,,,,,2022-10-28 15:10:45.724820+00:00
2022-10-28 08:10:45.924188-07:00,23.191266,2.74,0.83,-2.6,-0.12,8.31,869.65,43.08,21.0,-1.0,,,,,,,,,,,,,,,,,,,,,,,2022-10-28 15:10:45.924188+00:00
2022-10-28 08:10:46.125853-07:00,23.392931,2.59,0.89,-2.42,-0.19,8.38,869.65,42.87,20.0,-1.0,,,,,,,,,,1.96642,-1.83906,6145.03,15.4604,11795.0,-0.942699,-1.0,9.0,-1193.0,98.0,,0.0,,2022-10-28 15:10:46.125853+00:00
2022-10-28 08:10:46.324778-07:00,23.591856,2.81,1.4,-2.43,-0.25,8.4,869.66,43.27,24.0,-1.0,,,,,,,,,,,,,,,,,,,,,,,2022-10-28 15:10:46.324778+00:00
2022-10-28 08:10:46.524204-07:00,23.791282,2.58,1.17,-2.29,-0.23,8.35,869.66,43.42,21.0,-1.0,,,,,,,,,,,,,,,,,,,,,,,2022-10-28 15:10:46.524204+00:00
2022-10-28 08:10:46.724204-07:00,23.991282,2.49,0.87,-2.32,-0.15,8.38,869.65,42.86,21.0,-1.0,,,,,,,,,,,,,,,,,,,,,,,2022-10-28 15:10:46.724204+00:00
2022-10-28 08:10:46.924967-07:00,24.192045,2.9,1.33,-2.57,-0.22,8.54,869.65,42.4,25.0,-1.0,,,,,,,,,,,,,,,,,,,,,,,2022-10-28 15:10:46.924967+00:00
2022-10-28 08:10:47.126209-07:00,24.393287,3.29,0.88,-3.17,-0.07,8.36,869.66,42.97,19.0,-1.0,,,,,,,,,,1.96426,-2.08103,6157.31,15.4661,11795.0,-0.935663,-1.0,9.0,-1193.0,98.0,,0.0,,2022-10-28 15:10:47.126209+00:00
2022-10-28 08:10:47.324957-07:00,24.592035,4.24,0.84,-4.16,-0.17,8.02,869.66,43.97,20.0,-1.0,,,,,,,,,,,,,,,,,,,,,,,2022-10-28 15:10:47.324957+00:00
2022-10-28 08:10:47.524935-07:00,24.792013,4.91,0.73,-4.84,-0.33,7.75,869.68,45.22,23.0,-1.0,,,,,,,,,,,,,,,,,,,,,,,2022-10-28 15:10:47.524935+00:00
2022-10-28 08:10:47.725128-07:00,24.992206,4.6,0.66,-4.54,-0.39,7.79,869.67,44.62,21.0,-1.0,,,,,,,,,,,,,,,,,,,,,,,2022-10-28 15:10:47.725128+00:00
2022-10-28 08:10:47.925081-07:00,25.192159,3.58,1.04,-3.42,-0.2,8.16,869.64,43.57,22.0,-1.0,,,,,,,,,,,,,,,,,,,,,,,2022-10-28 15:10:47.925081+00:00
2022-10-28 08:10:48.125881-07:00,25.392959,3.21,0.73,-3.12,0.07,7.92,869.66,44.26,25.0,-1.0,,,,,,,,,,1.96713,-1.8287,6168.53,15.4719,11856.0,-0.935217,-1.0,13.0,-1163.0,98.0,,0.0,,2022-10-28 15:10:48.125881+00:00
2022-10-28 08:10:48.325054-07:00,25.592132,3.59,0.74,-3.52,-0.09,7.99,869.67,44.0,21.0,-1.0,,,,,,,,,,,,,,,,,,,,,,,2022-10-28 15:10:48.325054+00:00
2022-10-28 08:10:48.524860-07:00,25.791938,3.43,0.78,-3.34,-0.04,7.89,869.66,44.36,21.0,-1.0,,,,,,,,,,,,,,,,,,,,,,,2022-10-28 15:10:48.524860+00:00
2022-10-28 08:10:48.724947-07:00,25.992025,3.53,0.17,-3.52,0.21,7.72,869.66,44.94,24.0,-1.0,,,,,,,,,,,,,,,,,,,,,,,2022-10-28 15:10:48.724947+00:00
2022-10-28 08:10:48.924486-07:00,26.191564,3.69,0.34,-3.67,0.02,7.96,869.65,44.16,20.0,-1.0,,,,,,,,,,,,,,,,,,,,,,,2022-10-28 15:10:48.924486+00:00
2022-10-28 08:10:49.126106-07:00,26.393184,2.89,0.48,-2.85,0.16,8.0,869.66,43.98,22.0,-1.0,,,,,,,,,,1.96543,-2.02729,6172.31,15.4774,11813.0,-0.929803,-1.0,7.0,-1174.0,98.0,,0.0,,2022-10-28 15:10:49.126106+00:00
2022-10-28 08:10:49.324517-07:00,26.591595,3.68,0.81,-3.59,-0.13,8.03,869.65,43.94,24.0,-1.0,,,,,,,,,,,,,,,,,,,,,,,2022-10-28 15:10:49.324517+00:00
2022-10-28 08:10:49.524916-07:00,26.791994,3.96,0.99,-3.83,-0.19,8.06,869.66,43.9,20.0,-1.0,,,,,,,,,,,,,,,,,,,,,,,2022-10-28 15:10:49.524916+00:00
2022-10-28 08:10:49.724780-07:00,26.991858,3.96,0.96,-3.83,-0.25,8.09,869.63,43.8,24.0,-1.0,,,,,,,,,,,,,,,,,,,,,,,2022-10-28 15:10:49.724780+00:00
2022-10-28 08:10:49.925072-07:00,27.19215,4.0,0.4,-3.96,-0.39,7.72,869.66,44.82,24.0,-1.0,,,,,,,,,,,,,,,,,,,,,,,2022-10-28 15:10:49.925072+00:00
2022-10-28 08:10:50.125756-07:00,27.392834,3.68,0.26,-3.66,-0.17,7.74,869.64,44.83,20.0,-1.0,,,,,,,,,,1.96576,-2.45831,6160.28,15.4834,11835.0,-0.925128,-1.0,13.0,-1161.0,98.0,,0.0,,2022-10-28 15:10:50.125756+00:00
2022-10-28 08:10:50.324755-07:00,27.591833,3.39,1.42,-3.07,-0.24,8.0,869.63,44.04,26.0,-1.0,,,,,,,,,,,,,,,,,,,,,,,2022-10-28 15:10:50.324755+00:00
2022-10-28 08:10:50.524757-07:00,27.791835,3.66,1.71,-3.21,-0.32,7.83,869.62,44.54,22.0,-1.0,,,,,,,,,,,,,,,,,,,,,,,2022-10-28 15:10:50.524757+00:00
2022-10-28 08:10:50.724985-07:00,27.992063,3.23,1.46,-2.85,-0.37,7.95,869.62,44.19,20.0,-1.0,,,,,,,,,,,,,,,,,,,,,,,2022-10-28 15:10:50.724985+00:00
2022-10-28 08:10:50.924575-07:00,28.191653,2.6,1.66,-2.0,-0.15,8.06,869.61,43.92,25.0,-1.0,,,,,,,,,,,,,,,,,,,,,,,2022-10-28 15:10:50.924575+00:00
2022-10-28 08:10:51.126287-07:00,28.393365,2.33,1.51,-1.78,-0.12,8.0,869.62,44.13,22.0,-1.0,,,,,,,,,,1.96621,-1.61402,6155.23,15.4895,11827.0,-0.918783,-1.0,11.0,-1192.0,98.0,,0.0,,2022-10-28 15:10:51.126287+00:00
2022-10-28 08:10:51.324377-07:00,28.591455,2.84,1.73,-2.24,-0.09,8.27,869.61,43.34,22.0,-1.0,,,,,,,,,,,,,,,,,,,,,,,2022-10-28 15:10:51.324377+00:00
2022-10-28 08:10:51.524985-07:00,28.792063,2.66,1.88,-1.86,0.25,8.7,869.62,42.04,25.0,-1.0,,,,,,,,,,,,,,,,,,,,,,,2022-10-28 15:10:51.524985+00:00
2022-10-28 08:10:51.724768-07:00,28.991846,2.94,1.91,-2.24,-0.01,7.98,869.62,44.15,22.0,-1.0,,,,,,,,,,,,,,,,,,,,,,,2022-10-28 15:10:51.724768+00:00
2022-10-28 08:10:51.924713-07:00,29.191791,3.51,1.61,-3.12,-0.1,7.99,869.62,44.11,22.0,-1.0,,,,,,,,,,,,,,,,,,,,,,,2022-10-28 15:10:51.924713+00:00
2022-10-28 08:10:52.125959-07:00,29.393037,3.98,1.02,-3.85,-0.08,7.88,869.64,44.49,27.0,-1.0,,,,,,,,,,1.96895,-2.18488,6159.73,15.4947,11823.0,-0.908901,-1.0,13.0,-1164.0,98.0,,0.0,,2022-10-28 15:10:52.125959+00:00
2022-10-28 08:10:52.324839-07:00,29.591917,3.06,0.04,-3.0,0.6,8.03,869.66,44.06,22.0,-1.0,,,,,,,,,,,,,,,,,,,,,,,2022-10-28 15:10:52.324839+00:00
2022-10-28 08:10:52.524907-07:00,29.791985,1.99,-0.25,-1.9,0.52,8.1,869.68,43.83,22.0,-1.0,,,,,,,,,,,,,,,,,,,,,,,2022-10-28 15:10:52.524907+00:00
2022-10-28 08:10:52.725071-07:00,29.992149,2.49,-0.11,-2.37,0.75,8.1,869.68,43.78,26.0,-1.0,,,,,,,,,,,,,,,,,,,,,,,2022-10-28 15:10:52.725071+00:00
2022-10-28 08:10:52.925020-07:00,30.192098,2.94,0.28,-2.91,0.29,8.15,869.66,43.63,21.0,-1.0,,,,,,,,,,,,,,,,,,,,,,,2022-10-28 15:10:52.925020+00:00
2022-10-28 08:10:53.126392-07:00,30.39347,2.13,-0.27,-2.04,0.57,8.2,869.67,43.59,24.0,-1.0,,,,,,,,,,1.96927,-2.3569,6164.17,15.5001,11838.0,-0.901179,-1.0,8.0,-1195.0,98.0,,0.0,,2022-10-28 15:10:53.126392+00:00
2022-10-28 08:10:53.324276-07:00,30.591354,1.49,-0.32,-1.38,0.45,7.74,869.67,44.99,25.0,-1.0,,,,,,,,,,,,,,,,,,,,,,,2022-10-28 15:10:53.324276+00:00
2022-10-28 08:10:53.524661-07:00,30.791739,0.88,-0.3,-0.82,0.16,7.87,869.66,44.49,20.0,-1.0,,,,,,,,,,,,,,,,,,,,,,,2022-10-28 15:10:53.524661+00:00
2022-10-28 08:10:53.724636-07:00,30.991714,1.26,-0.03,-1.26,0.07,7.8,869.66,44.81,23.0,-1.0,,,,,,,,,,,,,,,,,,,,,,,2022-10-28 15:10:53.724636+00:00
2022-10-28 08:10:53.924584-07:00,31.191662,1.48,0.62,-1.32,-0.25,7.85,869.64,44.58,25.0,-1.0,,,,,,,,,,,,,,,,,,,,,,,2022-10-28 15:10:53.924584+00:00
2022-10-28 08:10:54.126234-07:00,31.393312,1.32,0.18,-1.31,0.0,7.96,869.64,44.3,21.0,-1.0,,,,,,,,,,1.96897,-2.46103,6165.23,15.5067,11846.0,-0.895776,-1.0,8.0,-1198.0,98.0,,0.0,,2022-10-28 15:10:54.126234+00:00
2022-10-28 08:10:54.325084-07:00,31.592162,1.57,-1.17,-0.92,0.49,7.63,869.65,45.2,24.0,-1.0,,,,,,,,,,,,,,,,,,,,,,,2022-10-28 15:10:54.325084+00:00
2022-10-28 08:10:54.524910-07:00,31.791988,2.26,-1.91,-0.99,0.7,7.71,869.63,45.01,23.0,-1.0,,,,,,,,,,,,,,,,,,,,,,,2022-10-28 15:10:54.524910+00:00
2022-10-28 08:10:54.725066-07:00,31.992144,2.52,-2.12,-1.16,0.74,7.8,869.64,44.84,20.0,-1.0,,,,,,,,,,,,,,,,,,,,,,,2022-10-28 15:10:54.725066+00:00
2022-10-28 08:10:54.924976-07:00,32.192054,1.85,-1.49,-0.96,0.52,7.81,869.65,44.77,25.0,-1.0,,,,,,,,,,,,,,,,,,,,,,,2022-10-28 15:10:54.924976+00:00
2022-10-28 08:10:55.125963-07:00,32.393041,1.54,-1.13,-0.94,0.45,7.73,869.66,44.97,22.0,-1.0,,,,,,,,,,1.97151,-2.99167,6160.55,15.5123,11800.0,-0.906386,-1.0,13.0,-1188.0,98.0,,0.0,,2022-10-28 15:10:55.125963+00:00
2022-10-28 08:10:55.324637-07:00,32.591715,1.66,-1.38,-0.75,0.53,7.81,869.67,44.72,21.0,-1.0,,,,,,,,,,,,,,,,,,,,,,,2022-10-28 15:10:55.324637+00:00
2022-10-28 08:10:55.524931-07:00,32.792009,1.51,-1.06,-0.89,0.6,7.86,869.66,44.61,25.0,-1.0,,,,,,,,,,,,,,,,,,,,,,,2022-10-28 15:10:55.524931+00:00
2022-10-28 08:10:55.724886-07:00,32.991964,1.45,-0.76,-1.09,0.57,7.87,869.65,44.55,22.0,-1.0,,,,,,,,,,,,,,,,,,,,,,,2022-10-28 15:10:55.724886+00:00
2022-10-28 08:10:55.924201-07:00,33.191279,1.34,-0.25,-1.31,0.12,7.79,869.64,44.83,21.0,-1.0,,,,,,,,,,,,,,,,,,,,,,,2022-10-28 15:10:55.924201+00:00
2022-10-28 08:10:56.126276-07:00,33.393354,1.37,-0.19,-1.35,0.13,7.96,869.65,44.3,25.0,-1.0,,,,,,,,,,1.96775,-3.4062,6155.72,15.5171,11854.0,-0.894837,-1.0,9.0,-1196.0,98.0,,0.0,,2022-10-28 15:10:56.126276+00:00
2022-10-28 08:10:56.324602-07:00,33.59168,1.29,-0.22,-1.11,0.62,8.26,869.65,43.48,22.0,-1.0,,,,,,,,,,,,,,,,,,,,,,,2022-10-28 15:10:56.324602+00:00
2022-10-28 08:10:56.524234-07:00,33.791312,2.19,-0.53,-1.99,0.74,8.06,869.68,43.98,21.0,-1.0,,,,,,,,,,,,,,,,,,,,,,,2022-10-28 15:10:56.524234+00:00
2022-10-28 08:10:56.724982-07:00,33.99206,2.92,-0.03,-2.91,0.27,7.94,869.66,44.33,25.0,-1.0,,,,,,,,,,,,,,,,,,,,,,,2022-10-28 15:10:56.724982+00:00
2022-10-28 08:10:56.924846-07:00,34.191924,2.53,0.06,-2.51,0.24,8.07,869.64,44.02,23.0,-1.0,,,,,,,,,,,,,,,,,,,,,,,2022-10-28 15:10:56.924846+00:00
2022-10-28 08:10:57.126075-07:00,34.393153,1.27,-0.67,-0.97,0.47,8.11,869.63,43.81,21.0,-1.0,,,,,,,,,,1.96898,-3.81831,6164.48,15.5225,11854.0,-0.892301,-1.0,9.0,-1196.0,98.0,,0.0,,2022-10-28 15:10:57.126075+00:00
2022-10-28 08:10:57.324575-07:00,34.591653,0.72,-0.65,-0.16,0.27,8.31,869.65,43.24,23.0,-1.0,,,,,,,,,,,,,,,,,,,,,,,2022-10-28 15:10:57.324575+00:00
2022-10-28 08:10:57.524399-07:00,34.791477,1.89,-1.02,-1.52,0.49,7.86,869.65,44.76,22.0,-1.0,,,,,,,,,,,,,,,,,,,,,,,2022-10-28 15:10:57.524399+00:00
2022-10-28 08:10:57.724303-07:00,34.991381,1.28,-0.31,-1.21,0.25,8.03,869.62,44.09,22.0,-1.0,,,,,,,,,,,,,,,,,,,,,,,2022-10-28 15:10:57.724303+00:00
2022-10-28 08:10:57.924307-07:00,35.191385,1.48,-0.4,-1.37,0.38,7.86,869.65,44.72,26.0,-1.0,,,,,,,,,,,,,,,,,,,,,,,2022-10-28 15:10:57.924307+00:00
2022-10-28 08:10:58.125690-07:00,35.392768,1.63,-0.06,-1.57,0.42,7.98,869.66,44.35,20.0,-1.0,,,,,,,,,,1.97074,-3.64961,6182.92,15.5287,11789.0,-0.891855,-1.0,9.0,-1176.0,98.0,,0.0,,2022-10-28 15:10:58.125690+00:00
2022-10-28 08:10:58.324271-07:00,35.591349,1.68,0.01,-1.62,0.45,8.02,869.65,44.23,22.0,-1.0,,,,,,,,,,,,,,,,,,,,,,,2022-10-28 15:10:58.324271+00:00
2022-10-28 08:10:58.524190-07:00,35.791268,2.42,0.29,-2.41,0.06,8.22,869.64,43.64,24.0,-1.0,,,,,,,,,,,,,,,,,,,,,,,2022-10-28 15:10:58.524190+00:00
2022-10-28 08:10:58.725157-07:00,35.992235,2.61,0.9,-2.43,-0.28,8.27,869.65,43.44,20.0,-1.0,,,,,,,,,,,,,,,,,,,,,,,2022-10-28 15:10:58.725157+00:00
2022-10-28 08:10:58.924580-07:00,36.191658,2.94,1.65,-2.43,-0.17,8.38,869.63,43.1,22.0,-1.0,,,,,,,,,,,,,,,,,,,,,,,2022-10-28 15:10:58.924580+00:00
2022-10-28 08:10:59.125916-07:00,36.392994,2.5,1.38,-2.08,-0.15,8.39,869.62,43.13,23.0,-1.0,,,,,,,,,,1.97185,-4.08986,6188.44,15.5345,11857.0,-0.898825,-1.0,12.0,-1169.0,98.0,,0.0,,2022-10-28 15:10:59.125916+00:00
2022-10-28 08:10:59.324559-07:00,36.591637,2.49,1.08,-2.24,-0.22,8.57,869.64,42.62,20.0,-1.0,,,,,,,,,,,,,,,,,,,,,,,2022-10-28 15:10:59.324559+00:00
2022-10-28 08:10:59.524698-07:00,36.791776,2.44,1.35,-2.03,-0.12,8.66,869.65,42.26,22.0,-1.0,,,,,,,,,,,,,,,,,,,,,,,2022-10-28 15:10:59.524698+00:00
2022-10-28 08:10:59.724550-07:00,36.991628,2.28,1.36,-1.83,-0.11,8.79,869.64,41.98,25.0,-1.0,,,,,,,,,,,,,,,,,,,,,,,2022-10-28 15:10:59.724550+00:00
2022-10-28 08:10:59.924606-07:00,37.191684,2.45,1.72,-1.75,-0.03,8.8,869.65,41.94,19.0,-1.0,,,,,,,,,,,,,,,,,,,,,,,2022-10-28 15:10:59.924606+00:00
2022-10-28 08:11:00.126112-07:00,37.39319,2.71,2.03,-1.79,0.13,8.76,869.63,42.11,23.0,-1.0,,,,,,,,,,1.97264,-3.15541,6189.73,15.54,11798.0,-0.889645,-1.0,11.0,-1176.0,98.0,,0.0,,2022-10-28 15:11:00.126112+00:00
2022-10-28 08:11:00.324664-07:00,37.591742,2.52,1.74,-1.83,-0.04,8.74,869.63,42.13,24.0,-1.0,,,,,,,,,,,,,,,,,,,,,,,2022-10-28 15:11:00.324664+00:00
2022-10-28 08:11:00.524630-07:00,37.791708,2.54,1.41,-2.11,-0.15,8.66,869.62,42.4,20.0,-1.0,,,,,,,,,,,,,,,,,,,,,,,2022-10-28 15:11:00.524630+00:00
2022-10-28 08:11:00.724817-07:00,37.991895,2.71,1.44,-2.29,-0.19,8.64,869.63,42.42,24.0,-1.0,,,,,,,,,,,,,,,,,,,,,,,2022-10-28 15:11:00.724817+00:00
2022-10-28 08:11:00.924796-07:00,38.191874,2.87,1.24,-2.57,-0.31,8.65,869.65,42.37,22.0,-1.0,,,,,,,,,,,,,,,,,,,,,,,2022-10-28 15:11:00.924796+00:00
2022-10-28 08:11:01.125841-07:00,38.392919,2.83,0.95,-2.66,-0.21,8.36,869.66,43.22,20.0,-1.0,,,,,,,,,,1.96863,-3.95279,6211.69,15.5448,11850.0,-0.874199,-1.0,11.0,-1174.0,98.0,,0.0,,2022-10-28 15:11:01.125841+00:00
2022-10-28 08:11:01.324400-07:00,38.591478,2.99,1.33,-2.66,-0.27,8.53,869.65,42.78,26.0,-1.0,,,,,,,,,,,,,,,,,,,,,,,2022-10-28 15:11:01.324400+00:00
2022-10-28 08:11:01.524591-07:00,38.791669,1.71,0.94,-1.41,-0.25,8.45,869.65,42.96,21.0,-1.0,,,,,,,,,,,,,,,,,,,,,,,2022-10-28 15:11:01.524591+00:00
2022-10-28 08:11:01.724817-07:00,38.991895,1.83,0.32,-1.8,-0.17,8.22,869.66,43.73,20.0,-1.0,,,,,,,,,,,,,,,,,,,,,,,2022-10-28 15:11:01.724817+00:00
2022-10-28 08:11:01.924441-07:00,39.191519,1.0,0.75,-0.65,0.04,8.57,869.64,42.61,27.0,-1.0,,,,,,,,,,,,,,,,,,,,,,,2022-10-28 15:11:01.924441+00:00
2022-10-28 08:11:02.125438-07:00,39.392516,2.19,1.02,-1.93,-0.12,8.31,869.65,43.42,22.0,-1.0,,,,,,,,,,1.97122,-3.0863,6220.31,15.552,11831.0,-0.866507,-1.0,11.0,-1157.0,98.0,,0.0,,2022-10-28 15:11:02.125438+00:00
2022-10-28 08:11:02.324735-07:00,39.591813,1.54,0.41,-1.49,-0.02,8.69,869.66,42.31,21.0,-1.0,,,,,,,,,,,,,,,,,,,,,,,2022-10-28 15:11:02.324735+00:00
2022-10-28 08:11:02.524839-07:00,39.791917,2.83,0.23,-2.82,0.01,8.19,869.66,43.81,24.0,-1.0,,,,,,,,,,,,,,,,,,,,,,,2022-10-28 15:11:02.524839+00:00
2022-10-28 08:11:02.724641-07:00,39.991719,4.55,0.22,-4.54,-0.2,7.98,869.67,44.47,21.0,-1.0,,,,,,,,,,,,,,,,,,,,,,,2022-10-28 15:11:02.724641+00:00
2022-10-28 08:11:02.924244-07:00,40.191322,5.71,0.9,-5.63,-0.28,7.99,869.66,44.38,21.0,-1.0,,,,,,,,,,,,,,,,,,,,,,,2022-10-28 15:11:02.924244+00:00
2022-10-28 08:11:03.125359-07:00,40.392437,4.61,0.27,-4.6,0.01,7.94,869.67,44.58,25.0,-1.0,,,,,,,,,,1.9713,-3.73143,6220.48,15.5574,11830.0,-0.861301,-1.0,10.0,-1185.0,98.0,,0.0,,2022-10-28 15:11:03.125359+00:00
2022-10-28 08:11:03.324426-07:00,40.591504,4.07,1.28,-3.85,-0.33,8.07,869.64,44.19,21.0,-1.0,,,,,,,,,,,,,,,,,,,,,,,2022-10-28 15:11:03.324426+00:00
2022-10-28 08:11:03.524219-07:00,40.791297,3.96,0.96,-3.82,-0.33,8.23,869.64,43.67,21.0,-1.0,,,,,,,,,,,,,,,,,,,,,,,2022-10-28 15:11:03.524219+00:00
2022-10-28 08:11:03.724563-07:00,40.991641,3.49,0.93,-3.36,-0.14,8.16,869.66,43.87,26.0,-1.0,,,,,,,,,,,,,,,,,,,,,,,2022-10-28 15:11:03.724563+00:00
2022-10-28 08:11:03.924339-07:00,41.191417,3.3,0.51,-3.26,-0.02,8.2,869.65,43.76,20.0,-1.0,,,,,,,,,,,,,,,,,,,,,,,2022-10-28 15:11:03.924339+00:00
2022-10-28 08:11:04.126185-07:00,41.393263,3.39,0.48,-3.35,0.18,8.33,869.66,43.41,21.0,-1.0,,,,,,,,,,1.97157,-3.53693,6220.45,15.5631,11813.0,-0.855713,-1.0,11.0,-1155.0,98.0,,0.0,,2022-10-28 15:11:04.126185+00:00
2022-10-28 08:11:04.324811-07:00,41.591889,4.2,-0.86,-4.1,0.35,7.97,869.67,44.5,27.0,-1.0,,,,,,,,,,,,,,,,,,,,,,,2022-10-28 15:11:04.324811+00:00
2022-10-28 08:11:04.524646-07:00,41.791724,3.05,0.17,-3.05,-0.05,8.02,869.66,44.27,20.0,-1.0,,,,,,,,,,,,,,,,,,,,,,,2022-10-28 15:11:04.524646+00:00
2022-10-28 08:11:04.724573-07:00,41.991651,2.98,0.65,-2.91,0.07,8.21,869.65,43.71,23.0,-1.0,,,,,,,,,,,,,,,,,,,,,,,2022-10-28 15:11:04.724573+00:00
2022-10-28 08:11:04.924862-07:00,42.19194,2.53,0.25,-2.51,0.19,8.1,869.67,44.1,26.0,-1.0,,,,,,,,,,,,,,,,,,,,,,,2022-10-28 15:11:04.924862+00:00
2022-10-28 08:11:05.126098-07:00,42.393176,3.38,1.21,-3.15,-0.15,8.38,869.66,43.32,21.0,-1.0,,,,,,,,,,1.97215,-4.22725,6213.73,15.569,11848.0,-0.856805,-1.0,8.0,-1190.0,98.0,,0.0,,2022-10-28 15:11:05.126098+00:00
2022-10-28 08:11:05.324225-07:00,42.591303,2.8,0.11,-2.8,0.07,8.12,869.68,44.09,24.0,-1.0,,,,,,,,,,,,,,,,,,,,,,,2022-10-28 15:11:05.324225+00:00
2022-10-28 08:11:05.525093-07:00,42.792171,2.8,-0.16,-2.77,0.35,7.91,869.67,44.78,23.0,-1.0,,,,,,,,,,,,,,,,,,,,,,,2022-10-28 15:11:05.525093+00:00
2022-10-28 08:11:05.724205-07:00,42.991283,3.08,0.09,-3.06,0.32,8.07,869.67,44.19,21.0,-1.0,,,,,,,,,,,,,,,,,,,,,,,2022-10-28 15:11:05.724205+00:00
2022-10-28 08:11:05.924189-07:00,43.191267,2.06,-0.04,-2.03,0.32,8.08,869.65,44.16,25.0,-1.0,,,,,,,,,,,,,,,,,,,,,,,2022-10-28 15:11:05.924189+00:00
2022-10-28 08:11:06.125935-07:00,43.393013,2.83,-0.4,-2.76,0.52,8.08,869.66,44.12,24.0,-1.0,,,,,,,,,,1.97241,-4.72582,6211.66,15.5745,11848.0,-0.86293,-1.0,8.0,-1190.0,98.0,,0.0,,2022-10-28 15:11:06.125935+00:00
2022-10-28 08:11:06.324325-07:00,43.591403,3.84,-0.18,-3.84,0.14,7.92,869.67,44.58,20.0,-1.0,,,,,,,,,,,,,,,,,,,,,,,2022-10-28 15:11:06.324325+00:00
2022-10-28 08:11:06.524370-07:00,43.791448,3.88,0.84,-3.75,-0.53,8.16,869.64,44.02,25.0,-1.0,,,,,,,,,,,,,,,,,,,,,,,2022-10-28 15:11:06.524370+00:00
2022-10-28 08:11:06.724556-07:00,43.991634,3.11,0.95,-2.94,-0.35,8.07,869.63,44.17,24.0,-1.0,,,,,,,,,,,,,,,,,,,,,,,2022-10-28 15:11:06.724556+00:00
2022-10-28 08:11:06.924457-07:00,44.191535,3.15,0.4,-3.12,0.08,8.24,869.64,43.73,20.0,-1.0,,,,,,,,,,,,,,,,,,,,,,,2022-10-28 15:11:06.924457+00:00
2022-10-28 08:11:07.125542-07:00,44.39262,2.85,0.56,-2.79,-0.11,8.41,869.65,43.24,25.0,-1.0,,,,,,,,,,1.97262,-4.98685,6210.63,15.5797,11791.0,-0.867558,-1.0,8.0,-1174.0,98.0,,0.0,,2022-10-28 15:11:07.125542+00:00
2022-10-28 08:11:07.324797-07:00,44.591875,4.59,1.23,-4.4,-0.45,7.89,869.64,44.73,21.0,-1.0,,,,,,,,,,,,,,,,,,,,,,,2022-10-28 15:11:07.324797+00:00
2022-10-28 08:11:07.524735-07:00,44.791813,4.05,0.71,-3.99,-0.15,7.96,869.64,44.63,20.0,-1.0,,,,,,,,,,,,,,,,,,,,,,,2022-10-28 15:11:07.524735+00:00
2022-10-28 08:11:07.724746-07:00,44.991824,3.77,0.49,-3.73,-0.06,7.82,869.65,44.93,26.0,-1.0,,,,,,,,,,,,,,,,,,,,,,,2022-10-28 15:11:07.724746+00:00
2022-10-28 08:11:07.925101-07:00,45.192179,4.0,0.83,-3.91,-0.07,7.91,869.65,44.77,22.0,-1.0,,,,,,,,,,,,,,,,,,,,,,,2022-10-28 15:11:07.925101+00:00
2022-10-28 08:11:08.125381-07:00,45.392459,3.57,0.4,-3.54,0.05,7.96,869.65,44.56,21.0,-1.0,,,,,,,,,,,,,,,,,,,,,,,2022-10-28 15:11:08.125381+00:00
2022-10-28 08:11:08.324734-07:00,45.591812,2.41,0.27,-2.4,0.12,8.1,869.66,44.14,26.0,-1.0,,,,,,,,,,,,,,,,,,,,,,,2022-10-28 15:11:08.324734+00:00
2022-10-28 08:11:08.524981-07:00,45.792059,2.17,0.18,-2.12,0.41,8.14,869.65,44.08,21.0,-1.0,,,,,,,,,,,,,,,,,,,,,,,2022-10-28 15:11:08.524981+00:00
2022-10-28 08:11:08.724500-07:00,45.991578,2.24,0.39,-2.2,0.03,7.93,869.65,44.66,21.0,-1.0,,,,,,,,,,,,,,,,,,,,,,,2022-10-28 15:11:08.724500+00:00
2022-10-28 08:11:08.924202-07:00,46.19128,2.58,0.3,-2.55,0.22,8.07,869.66,44.39,25.0,-1.0,,,,,,,,,,,,,,,,,,,,,,,2022-10-28 15:11:08.924202+00:00
2022-10-28 08:11:09.125661-07:00,46.392739,2.86,0.21,-2.85,0.08,8.23,869.65,43.8,20.0,-1.0,,,,,,,,,,1.97095,-4.4445,6203.81,15.586,11854.0,-0.855812,-1.0,10.0,-1185.0,98.0,,0.0,,2022-10-28 15:11:09.125661+00:00
2022-10-28 08:11:09.324657-07:00,46.591735,2.6,0.28,-2.58,0.17,8.26,869.66,43.71,21.0,-1.0,,,,,,,,,,,,,,,,,,,,,,,2022-10-28 15:11:09.324657+00:00
2022-10-28 08:11:09.525185-07:00,46.792263,2.27,0.59,-2.18,-0.26,8.4,869.66,43.31,24.0,-1.0,,,,,,,,,,,,,,,,,,,,,,,2022-10-28 15:11:09.525185+00:00
2022-10-28 08:11:09.724377-07:00,46.991455,2.37,0.59,-2.28,-0.3,8.32,869.65,43.61,20.0,-1.0,,,,,,,,,,,,,,,,,,,,,,,2022-10-28 15:11:09.724377+00:00
2022-10-28 08:11:09.925152-07:00,47.19223,2.73,0.73,-2.63,-0.16,8.14,869.65,44.08,23.0,-1.0,,,,,,,,,,,,,,,,,,,,,,,2022-10-28 15:11:09.925152+00:00
2022-10-28 08:11:10.125497-07:00,47.392575,3.11,0.63,-3.04,-0.09,8.09,869.65,44.18,25.0,-1.0,,,,,,,,,,1.97231,-5.74517,6198.46,15.5918,11801.0,-0.838156,-1.0,8.0,-1188.0,98.0,,0.0,,2022-10-28 15:11:10.125497+00:00
2022-10-28 08:11:10.324796-07:00,47.591874,2.8,0.32,-2.78,0.02,8.15,869.66,44.09,20.0,-1.0,,,,,,,,,,,,,,,,,,,,,,,2022-10-28 15:11:10.324796+00:00
2022-10-28 08:11:10.524638-07:00,47.791716,2.99,0.47,-2.95,0.06,8.06,869.66,44.36,23.0,-1.0,,,,,,,,,,,,,,,,,,,,,,,2022-10-28 15:11:10.524638+00:00
2022-10-28 08:11:10.724604-07:00,47.991682,3.65,0.36,-3.63,0.04,7.96,869.65,44.62,24.0,-1.0,,,,,,,,,,,,,,,,,,,,,,,2022-10-28 15:11:10.724604+00:00
2022-10-28 08:11:10.924787-07:00,48.191865,2.78,0.46,-2.72,0.32,8.22,869.66,43.89,20.0,-1.0,,,,,,,,,,,,,,,,,,,,,,,2022-10-28 15:11:10.924787+00:00
2022-10-28 08:11:11.125660-07:00,48.392738,3.17,0.74,-3.08,-0.06,8.09,869.64,44.3,22.0,-1.0,,,,,,,,,,1.97291,-5.41138,6197.03,15.5978,11838.0,-0.833644,-1.0,6.0,-1201.0,98.0,,0.0,,2022-10-28 15:11:11.125660+00:00
2022-10-28 08:11:11.324323-07:00,48.591401,3.72,1.53,-3.38,-0.23,8.24,869.63,43.88,23.0,-1.0,,,,,,,,,,,,,,,,,,,,,,,2022-10-28 15:11:11.324323+00:00
2022-10-28 08:11:11.524558-07:00,48.791636,4.05,1.59,-3.71,-0.25,8.42,869.63,43.31,21.0,-1.0,,,,,,,,,,,,,,,,,,,,,,,2022-10-28 15:11:11.524558+00:00
2022-10-28 08:11:11.724288-07:00,48.991366,4.33,1.87,-3.9,-0.29,8.64,869.61,42.7,24.0,-1.0,,,,,,,,,,,,,,,,,,,,,,,2022-10-28 15:11:11.724288+00:00
2022-10-28 08:11:11.925096-07:00,49.192174,4.26,1.49,-3.99,-0.22,8.11,869.62,44.26,24.0,-1.0,,,,,,,,,,,,,,,,,,,,,,,2022-10-28 15:11:11.925096+00:00
2022-10-28 08:11:12.125566-07:00,49.392644,3.85,1.08,-3.69,-0.2,8.08,869.66,44.37,20.0,-1.0,,,,,,,,,,1.97409,-5.72807,6202.62,15.6032,11780.0,-0.856505,-1.0,11.0,-1181.0,98.0,,0.0,,2022-10-28 15:11:12.125566+00:00
2022-10-28 08:11:12.324796-07:00,49.591874,3.97,1.28,-3.75,-0.32,8.24,869.66,43.88,24.0,-1.0,,,,,,,,,,,,,,,,,,,,,,,2022-10-28 15:11:12.324796+00:00
2022-10-28 08:11:12.524172-07:00,49.79125,3.76,1.23,-3.55,-0.18,8.34,869.65,43.58,22.0,-1.0,,,,,,,,,,,,,,,,,,,,,,,2022-10-28 15:11:12.524172+00:00
2022-10-28 08:11:12.724378-07:00,49.991456,3.92,0.5,-3.88,-0.25,8.08,869.66,44.37,21.0,-1.0,,,,,,,,,,,,,,,,,,,,,,,2022-10-28 15:11:12.724378+00:00
2022-10-28 08:11:12.924994-07:00,50.192072,3.73,0.36,-3.72,0.02,8.14,869.67,44.15,25.0,-1.0,,,,,,,,,,,,,,,,,,,,,,,2022-10-28 15:11:12.924994+00:00
2022-10-28 08:11:13.125866-07:00,50.392944,3.99,-0.04,-3.98,0.22,8.16,869.67,44.16,23.0,-1.0,,,,,,,,,,1.97548,-5.6097,6202.81,15.6097,11846.0,-0.861541,-1.0,13.0,-1191.0,97.0,,0.0,,2022-10-28 15:11:13.125866+00:00
2022-10-28 08:11:13.324723-07:00,50.591801,3.6,0.55,-3.55,-0.04,8.18,869.68,44.06,20.0,-1.0,,,,,,,,,,,,,,,,,,,,,,,2022-10-28 15:11:13.324723+00:00
2022-10-28 08:11:13.524323-07:00,50.791401,3.41,0.8,-3.31,-0.03,8.24,869.65,43.87,25.0,-1.0,,,,,,,,,,,,,,,,,,,,,,,2022-10-28 15:11:13.524323+00:00
2022-10-28 08:11:13.724414-07:00,50.991492,1.82,-0.29,-1.74,0.47,8.32,869.66,43.7,21.0,-1.0,,,,,,,,,,,,,,,,,,,,,,,2022-10-28 15:11:13.724414+00:00
2022-10-28 08:11:13.924585-07:00,51.191663,2.5,0.41,-2.46,-0.06,8.4,869.67,43.42,20.0,-1.0,,,,,,,,,,,,,,,,,,,,,,,2022-10-28 15:11:13.924585+00:00
2022-10-28 08:11:14.126344-07:00,51.393422,3.14,0.67,-3.07,-0.11,8.34,869.66,43.59,25.0,-1.0,,,,,,,,,,1.97571,-6.03284,6207.83,15.6152,11807.0,-0.86632,-1.0,9.0,-1200.0,97.0,,0.0,,2022-10-28 15:11:14.126344+00:00
2022-10-28 08:11:14.324576-07:00,51.591654,3.04,0.95,-2.88,-0.14,8.6,869.65,42.93,22.0,-1.0,,,,,,,,,,,,,,,,,,,,,,,2022-10-28 15:11:14.324576+00:00
2022-10-28 08:11:14.524688-07:00,51.791766,3.28,1.01,-3.12,-0.18,8.52,869.67,43.06,20.0,-1.0,,,,,,,,,,,,,,,,,,,,,,,2022-10-28 15:11:14.524688+00:00
2022-10-28 08:11:14.724689-07:00,51.991767,2.89,1.12,-2.66,-0.24,8.58,869.66,42.93,25.0,-1.0,,,,,,,,,,,,,,,,,,,,,,,2022-10-28 15:11:14.724689+00:00
2022-10-28 08:11:14.924575-07:00,52.191653,2.46,0.63,-2.38,-0.15,8.46,869.67,43.28,21.0,-1.0,,,,,,,,,,,,,,,,,,,,,,,2022-10-28 15:11:14.924575+00:00
2022-10-28 08:11:15.125591-07:00,52.392669,2.57,0.67,-2.46,-0.33,8.65,869.67,42.69,21.0,-1.0,,,,,,,,,,1.97197,-5.72777,6213.7,15.6205,11812.0,-0.852297,-1.0,11.0,-1156.0,97.0,,0.0,,2022-10-28 15:11:15.125591+00:00
2022-10-28 08:11:15.324565-07:00,52.591643,2.64,0.83,-2.5,-0.2,8.51,869.66,43.04,26.0,-1.0,,,,,,,,,,,,,,,,,,,,,,,2022-10-28 15:11:15.324565+00:00
2022-10-28 08:11:15.524532-07:00,52.79161,2.6,0.63,-2.52,-0.09,8.49,869.66,43.2,21.0,-1.0,,,,,,,,,,,,,,,,,,,,,,,2022-10-28 15:11:15.524532+00:00
2022-10-28 08:11:15.725075-07:00,52.992153,2.09,0.47,-2.02,-0.25,8.47,869.67,43.26,22.0,-1.0,,,,,,,,,,,,,,,,,,,,,,,2022-10-28 15:11:15.725075+00:00
2022-10-28 08:11:15.924949-07:00,53.192027,2.09,0.3,-2.07,-0.13,8.49,869.67,43.2,25.0,-1.0,,,,,,,,,,,,,,,,,,,,,,,2022-10-28 15:11:15.924949+00:00
2022-10-28 08:11:16.126046-07:00,53.393124,2.28,0.35,-2.25,0.13,8.49,869.67,43.25,21.0,-1.0,,,,,,,,,,1.9735,-5.68801,6216.94,15.6265,11838.0,-0.847035,-1.0,9.0,-1192.0,97.0,,0.0,,2022-10-28 15:11:16.126046+00:00
2022-10-28 08:11:16.324597-07:00,53.591675,2.63,0.62,-2.56,-0.01,8.54,869.66,43.04,22.0,-1.0,,,,,,,,,,,,,,,,,,,,,,,2022-10-28 15:11:16.324597+00:00
2022-10-28 08:11:16.524450-07:00,53.791528,2.28,0.27,-2.26,-0.06,8.42,869.67,43.44,24.0,-1.0,,,,,,,,,,,,,,,,,,,,,,,2022-10-28 15:11:16.524450+00:00
2022-10-28 08:11:16.724292-07:00,53.99137,1.66,-0.17,-1.59,0.47,8.48,869.67,43.21,20.0,-1.0,,,,,,,,,,,,,,,,,,,,,,,2022-10-28 15:11:16.724292+00:00
2022-10-28 08:11:16.924949-07:00,54.192027,1.5,0.07,-1.5,0.12,8.64,869.68,42.77,23.0,-1.0,,,,,,,,,,,,,,,,,,,,,,,2022-10-28 15:11:16.924949+00:00
2022-10-28 08:11:17.125309-07:00,54.392387,1.62,0.02,-1.62,0.01,8.72,869.67,42.53,24.0,-1.0,,,,,,,,,,1.97089,-5.29261,6231.73,15.6321,11838.0,-0.824293,-1.0,9.0,-1192.0,97.0,,0.0,,2022-10-28 15:11:17.125309+00:00
2022-10-28 08:11:17.324439-07:00,54.591517,1.51,-0.07,-1.47,0.35,8.69,869.67,42.73,20.0,-1.0,,,,,,,,,,,,,,,,,,,,,,,2022-10-28 15:11:17.324439+00:00
2022-10-28 08:11:17.524612-07:00,54.79169,1.56,-0.22,-1.43,0.59,8.65,869.68,42.83,23.0,-1.0,,,,,,,,,,,,,,,,,,,,,,,2022-10-28 15:11:17.524612+00:00
2022-10-28 08:11:17.724749-07:00,54.991827,1.58,0.18,-1.54,0.3,8.85,869.68,42.21,24.0,-1.0,,,,,,,,,,,,,,,,,,,,,,,2022-10-28 15:11:17.724749+00:00
2022-10-28 08:11:17.924177-07:00,55.191255,2.1,0.05,-2.09,0.26,8.51,869.68,43.14,21.0,-1.0,,,,,,,,,,,,,,,,,,,,,,,2022-10-28 15:11:17.924177+00:00
2022-10-28 08:11:18.126281-07:00,55.393359,2.37,0.15,-2.36,0.14,8.5,869.68,43.27,24.0,-1.0,,,,,,,,,,1.97322,-6.00452,6238.48,15.6379,11842.0,-0.822472,-1.0,10.0,-1162.0,97.0,,0.0,,2022-10-28 15:11:18.126281+00:00
2022-10-28 08:11:18.325014-07:00,55.592092,2.27,0.11,-2.25,0.29,8.46,869.68,43.29,24.0,-1.0,,,,,,,,,,,,,,,,,,,,,,,2022-10-28 15:11:18.325014+00:00
2022-10-28 08:11:18.524494-07:00,55.791572,2.66,0.16,-2.64,0.19,8.4,869.67,43.57,21.0,-1.0,,,,,,,,,,,,,,,,,,,,,,,2022-10-28 15:11:18.524494+00:00
2022-10-28 08:11:18.724496-07:00,55.991574,2.95,0.68,-2.86,-0.2,8.49,869.67,43.25,25.0,-1.0,,,,,,,,,,,,,,,,,,,,,,,2022-10-28 15:11:18.724496+00:00
2022-10-28 08:11:18.924841-07:00,56.191919,2.71,0.77,-2.6,-0.13,8.61,869.67,42.9,24.0,-1.0,,,,,,,,,,,,,,,,,,,,,,,2022-10-28 15:11:18.924841+00:00
2022-10-28 08:11:19.125623-07:00,56.392701,2.66,0.48,-2.61,-0.19,8.51,869.68,43.37,21.0,-1.0,,,,,,,,,,1.97384,-5.85391,6248.24,15.6447,11811.0,-0.816247,-1.0,9.0,-1180.0,97.0,,0.0,,2022-10-28 15:11:19.125623+00:00
2022-10-28 08:11:19.325159-07:00,56.592237,2.76,0.46,-2.72,-0.02,8.52,869.69,43.16,24.0,-1.0,,,,,,,,,,,,,,,,,,,,,,,2022-10-28 15:11:19.325159+00:00
2022-10-28 08:11:19.524326-07:00,56.791404,3.05,0.81,-2.94,-0.05,8.45,869.68,43.57,24.0,-1.0,,,,,,,,,,,,,,,,,,,,,,,2022-10-28 15:11:19.524326+00:00
2022-10-28 08:11:19.724893-07:00,56.991971,3.62,0.87,-3.52,-0.06,8.43,869.69,43.47,20.0,-1.0,,,,,,,,,,,,,,,,,,,,,,,2022-10-28 15:11:19.724893+00:00
2022-10-28 08:11:19.924696-07:00,57.191774,3.78,0.85,-3.68,-0.02,8.1,869.68,44.46,25.0,-1.0,,,,,,,,,,,,,,,,,,,,,,,2022-10-28 15:11:19.924696+00:00
2022-10-28 08:11:20.125571-07:00,57.392649,4.13,0.65,-4.07,-0.26,8.07,869.68,44.55,23.0,-1.0,,,,,,,,,,1.97447,-5.6282,6250.23,15.6503,11806.0,-0.807241,-1.0,13.0,-1151.0,97.0,,0.0,,2022-10-28 15:11:20.125571+00:00
2022-10-28 08:11:20.324311-07:00,57.591389,3.52,0.93,-3.39,-0.09,8.37,869.68,43.65,21.0,-1.0,,,,,,,,,,,,,,,,,,,,,,,2022-10-28 15:11:20.324311+00:00
2022-10-28 08:11:20.524949-07:00,57.792027,3.56,0.64,-3.5,-0.14,8.15,869.67,44.32,26.0,-1.0,,,,,,,,,,,,,,,,,,,,,,,2022-10-28 15:11:20.524949+00:00
2022-10-28 08:11:20.724368-07:00,57.991446,3.63,0.59,-3.58,-0.09,8.03,869.67,44.81,22.0,-1.0,,,,,,,,,,,,,,,,,,,,,,,2022-10-28 15:11:20.724368+00:00
2022-10-28 08:11:20.925033-07:00,58.192111,3.93,0.65,-3.86,-0.27,8.06,869.68,44.74,22.0,-1.0,,,,,,,,,,,,,,,,,,,,,,,2022-10-28 15:11:20.925033+00:00
2022-10-28 08:11:21.125462-07:00,58.39254,3.93,0.85,-3.84,-0.12,8.03,869.67,44.73,26.0,-1.0,,,,,,,,,,1.97571,-6.15874,6244.48,15.656,11848.0,-0.813791,-1.0,11.0,-1193.0,97.0,,0.0,,2022-10-28 15:11:21.125462+00:00
2022-10-28 08:11:21.324343-07:00,58.591421,3.96,0.68,-3.9,-0.14,8.02,869.67,44.74,23.0,-1.0,,,,,,,,,,,,,,,,,,,,,,,2022-10-28 15:11:21.324343+00:00
2022-10-28 08:11:21.524445-07:00,58.791523,4.1,0.48,-4.06,-0.25,7.83,869.67,45.4,22.0,-1.0,,,,,,,,,,,,,,,,,,,,,,,2022-10-28 15:11:21.524445+00:00
2022-10-28 08:11:21.724410-07:00,58.991488,4.37,0.63,-4.31,-0.32,7.9,869.67,45.16,25.0,-1.0,,,,,,,,,,,,,,,,,,,,,,,2022-10-28 15:11:21.724410+00:00
2022-10-28 08:11:21.924201-07:00,59.191279,3.94,0.43,-3.91,-0.12,7.79,869.67,45.48,22.0,-1.0,,,,,,,,,,,,,,,,,,,,,,,2022-10-28 15:11:21.924201+00:00
2022-10-28 08:11:22.125390-07:00,59.392468,4.03,0.49,-3.99,-0.25,7.75,869.69,45.59,21.0,-1.0,,,,,,,,,,1.97358,-6.00135,6231.72,15.6616,11788.0,-0.781063,-1.0,11.0,-1175.0,97.0,,0.0,,2022-10-28 15:11:22.125390+00:00
2022-10-28 08:11:22.324893-07:00,59.591971,3.87,0.29,-3.85,-0.27,7.83,869.68,45.28,25.0,-1.0,,,,,,,,,,,,,,,,,,,,,,,2022-10-28 15:11:22.324893+00:00
2022-10-28 08:11:22.524578-07:00,59.791656,3.21,0.53,-3.16,0.07,8.11,869.69,44.42,21.0,-1.0,,,,,,,,,,,,,,,,,,,,,,,2022-10-28 15:11:22.524578+00:00
2022-10-28 08:11:22.724822-07:00,59.9919,3.58,0.52,-3.54,-0.16,7.99,869.68,44.88,22.0,-1.0,,,,,,,,,,,,,,,,,,,,,,,2022-10-28 15:11:22.724822+00:00
2022-10-28 08:11:22.924166-07:00,60.191244,3.56,0.36,-3.54,-0.21,8.02,869.68,44.76,24.0,-1.0,,,,,,,,,,,,,,,,,,,,,,,2022-10-28 15:11:22.924166+00:00
2022-10-28 08:11:23.125560-07:00,60.392638,3.54,0.52,-3.5,-0.2,8.11,869.68,44.49,21.0,-1.0,,,,,,,,,,1.976,-6.70481,6211.53,15.6681,11844.0,-0.785595,-1.0,12.0,-1149.0,97.0,,0.0,,2022-10-28 15:11:23.125560+00:00
2022-10-28 08:11:23.324869-07:00,60.591947,3.94,0.53,-3.9,-0.26,8.24,869.68,44.13,23.0,-1.0,,,,,,,,,,,,,,,,,,,,,,,2022-10-28 15:11:23.324869+00:00
2022-10-28 08:11:23.524909-07:00,60.791987,3.39,0.5,-3.35,-0.06,8.33,869.67,43.82,24.0,-1.0,,,,,,,,,,,,,,,,,,,,,,,2022-10-28 15:11:23.524909+00:00
2022-10-28 08:11:23.724867-07:00,60.991945,2.68,0.25,-2.66,0.13,8.35,869.68,43.8,20.0,-1.0,,,,,,,,,,,,,,,,,,,,,,,2022-10-28 15:11:23.724867+00:00
2022-10-28 08:11:23.925156-07:00,61.192234,3.02,0.32,-3.0,-0.11,8.38,869.67,43.73,24.0,-1.0,,,,,,,,,,,,,,,,,,,,,,,2022-10-28 15:11:23.925156+00:00
2022-10-28 08:11:24.125745-07:00,61.392823,2.42,-0.43,-2.34,0.42,8.17,869.67,44.34,25.0,-1.0,,,,,,,,,,1.9756,-6.92381,6199.03,15.6738,11833.0,-0.788295,-1.0,9.0,-1184.0,97.0,,0.0,,2022-10-28 15:11:24.125745+00:00
2022-10-28 08:11:24.324340-07:00,61.591418,1.68,-0.64,-1.48,0.44,8.17,869.66,44.41,20.0,-1.0,,,,,,,,,,,,,,,,,,,,,,,2022-10-28 15:11:24.324340+00:00
2022-10-28 08:11:24.524234-07:00,61.791312,2.01,0.15,-2.0,0.1,8.29,869.67,44.1,24.0,-1.0,,,,,,,,,,,,,,,,,,,,,,,2022-10-28 15:11:24.524234+00:00
2022-10-28 08:11:24.724418-07:00,61.991496,1.65,0.2,-1.63,-0.19,8.37,869.68,43.87,25.0,-1.0,,,,,,,,,,,,,,,,,,,,,,,2022-10-28 15:11:24.724418+00:00
2022-10-28 08:11:24.924549-07:00,62.191627,1.82,0.54,-1.68,-0.45,8.41,869.67,43.69,21.0,-1.0,,,,,,,,,,,,,,,,,,,,,,,2022-10-28 15:11:24.924549+00:00
2022-10-28 08:11:25.125386-07:00,62.392464,2.56,1.12,-2.3,-0.08,8.4,869.65,43.76,24.0,-1.0,,,,,,,,,,1.97803,-7.63837,6205.88,15.6794,11850.0,-0.804759,-1.0,9.0,-1185.0,97.0,,0.0,,2022-10-28 15:11:25.125386+00:00
2022-10-28 08:11:25.324472-07:00,62.59155,2.72,0.85,-2.55,-0.39,8.19,869.66,44.33,23.0,-1.0,,,,,,,,,,,,,,,,,,,,,,,2022-10-28 15:11:25.324472+00:00
2022-10-28 08:11:25.524755-07:00,62.791833,2.65,0.8,-2.51,-0.36,8.38,869.66,43.82,21.0,-1.0,,,,,,,,,,,,,,,,,,,,,,,2022-10-28 15:11:25.524755+00:00
2022-10-28 08:11:25.724778-07:00,62.991856,2.55,0.82,-2.41,-0.16,8.26,869.66,44.18,26.0,-1.0,,,,,,,,,,,,,,,,,,,,,,,2022-10-28 15:11:25.724778+00:00
2022-10-28 08:11:25.924699-07:00,63.191777,2.64,0.71,-2.53,-0.29,8.21,869.66,44.27,23.0,-1.0,,,,,,,,,,,,,,,,,,,,,,,2022-10-28 15:11:25.924699+00:00
2022-10-28 08:11:26.125456-07:00,63.392534,2.66,0.85,-2.48,-0.41,8.2,869.66,44.31,21.0,-1.0,,,,,,,,,,1.97456,-7.49462,6215.47,15.6856,11850.0,-0.807338,-1.0,9.0,-1185.0,97.0,,0.0,,2022-10-28 15:11:26.125456+00:00
2022-10-28 08:11:26.324259-07:00,63.591337,2.83,1.11,-2.59,-0.16,8.38,869.65,43.82,25.0,-1.0,,,,,,,,,,,,,,,,,,,,,,,2022-10-28 15:11:26.324259+00:00
2022-10-28 08:11:26.524971-07:00,63.792049,2.85,0.87,-2.69,-0.36,8.23,869.66,44.28,24.0,-1.0,,,,,,,,,,,,,,,,,,,,,,,2022-10-28 15:11:26.524971+00:00
2022-10-28 08:11:26.724486-07:00,63.991564,2.8,1.03,-2.58,-0.32,8.25,869.66,44.27,21.0,-1.0,,,,,,,,,,,,,,,,,,,,,,,2022-10-28 15:11:26.724486+00:00
2022-10-28 08:11:26.924793-07:00,64.191871,2.59,1.06,-2.36,-0.21,8.35,869.66,43.86,26.0,-1.0,,,,,,,,,,,,,,,,,,,,,,,2022-10-28 15:11:26.924793+00:00
2022-10-28 08:11:27.125863-07:00,64.392941,3.21,1.09,-3.0,-0.36,8.35,869.66,43.92,23.0,-1.0,,,,,,,,,,1.97726,-7.19732,6210.17,15.6904,11793.0,-0.81438,-1.0,9.0,-1179.0,97.0,,0.0,,2022-10-28 15:11:27.125863+00:00
2022-10-28 08:11:27.324649-07:00,64.591727,3.76,0.96,-3.63,-0.24,8.25,869.66,44.26,21.0,-1.0,,,,,,,,,,,,,,,,,,,,,,,2022-10-28 15:11:27.324649+00:00
2022-10-28 08:11:27.524281-07:00,64.791359,3.64,0.75,-3.5,-0.65,8.27,869.66,44.16,25.0,-1.0,,,,,,,,,,,,,,,,,,,,,,,2022-10-28 15:11:27.524281+00:00
2022-10-28 08:11:27.724413-07:00,64.991491,3.31,1.7,-2.84,-0.19,8.18,869.63,44.47,22.0,-1.0,,,,,,,,,,,,,,,,,,,,,,,2022-10-28 15:11:27.724413+00:00
2022-10-28 08:11:27.924737-07:00,65.191815,3.48,0.85,-3.35,-0.36,8.32,869.65,44.0,21.0,-1.0,,,,,,,,,,,,,,,,,,,,,,,2022-10-28 15:11:27.924737+00:00
2022-10-28 08:11:28.125422-07:00,65.3925,3.5,1.29,-3.26,-0.11,8.48,869.66,43.52,26.0,-1.0,,,,,,,,,,1.9765,-6.93402,6212.65,15.6973,11828.0,-0.818868,-1.0,13.0,-1155.0,97.0,,0.0,,2022-10-28 15:11:28.125422+00:00
2022-10-28 08:11:28.324253-07:00,65.591331,4.1,1.33,-3.88,-0.13,8.41,869.65,43.78,22.0,-1.0,,,,,,,,,,,,,,,,,,,,,,,2022-10-28 15:11:28.324253+00:00
2022-10-28 08:11:28.524463-07:00,65.791541,4.2,1.11,-4.04,-0.2,8.47,869.65,43.6,22.0,-1.0,,,,,,,,,,,,,,,,,,,,,,,2022-10-28 15:11:28.524463+00:00
2022-10-28 08:11:28.724848-07:00,65.991926,4.31,1.25,-4.12,-0.29,8.5,869.64,43.51,27.0,-1.0,,,,,,,,,,,,,,,,,,,,,,,2022-10-28 15:11:28.724848+00:00
2022-10-28 08:11:28.924482-07:00,66.19156,4.12,0.88,-4.02,-0.26,8.63,869.65,43.13,22.0,-1.0,,,,,,,,,,,,,,,,,,,,,,,2022-10-28 15:11:28.924482+00:00
2022-10-28 08:11:29.125918-07:00,66.392996,4.13,1.23,-3.94,-0.21,8.81,869.66,42.62,23.0,-1.0,,,,,,,,,,1.97794,-6.98854,6217.02,15.7021,11849.0,-0.815388,-1.0,11.0,-1191.0,97.0,,0.0,,2022-10-28 15:11:29.125918+00:00
2022-10-28 08:11:29.324811-07:00,66.591889,3.8,1.43,-3.51,-0.21,8.88,869.67,42.36,26.0,-1.0,,,,,,,,,,,,,,,,,,,,,,,2022-10-28 15:11:29.324811+00:00
2022-10-28 08:11:29.524792-07:00,66.79187,3.76,1.28,-3.53,-0.18,8.77,869.65,42.83,21.0,-1.0,,,,,,,,,,,,,,,,,,,,,,,2022-10-28 15:11:29.524792+00:00
2022-10-28 08:11:29.724974-07:00,66.992052,3.88,1.5,-3.57,-0.21,8.84,869.68,42.48,22.0,-1.0,,,,,,,,,,,,,,,,,,,,,,,2022-10-28 15:11:29.724974+00:00
2022-10-28 08:11:29.924240-07:00,67.191318,3.69,1.11,-3.52,-0.12,8.85,869.66,42.45,26.0,-1.0,,,,,,,,,,,,,,,,,,,,,,,2022-10-28 15:11:29.924240+00:00
2022-10-28 08:11:30.125986-07:00,67.393064,3.1,1.02,-2.92,-0.16,8.84,869.69,42.52,21.0,-1.0,,,,,,,,,,1.97903,-6.95947,6231.65,15.708,11789.0,-0.810054,-1.0,11.0,-1166.0,97.0,,0.0,,2022-10-28 15:11:30.125986+00:00
2022-10-28 08:11:30.325083-07:00,67.592161,2.65,1.21,-2.34,-0.26,8.95,869.68,42.21,22.0,-1.0,,,,,,,,,,,,,,,,,,,,,,,2022-10-28 15:11:30.325083+00:00
2022-10-28 08:11:30.524317-07:00,67.791395,2.44,1.34,-2.03,-0.17,9.02,869.68,42.0,25.0,-1.0,,,,,,,,,,,,,,,,,,,,,,,2022-10-28 15:11:30.524317+00:00
2022-10-28 08:11:30.724196-07:00,67.991274,3.01,1.71,-2.48,-0.11,9.13,869.67,41.69,21.0,-1.0,,,,,,,,,,,,,,,,,,,,,,,2022-10-28 15:11:30.724196+00:00
2022-10-28 08:11:30.924502-07:00,68.19158,2.95,1.42,-2.58,-0.22,9.04,869.68,41.96,22.0,-1.0,,,,,,,,,,,,,,,,,,,,,,,2022-10-28 15:11:30.924502+00:00
2022-10-28 08:11:31.125869-07:00,68.392947,2.76,1.13,-2.5,-0.25,8.86,869.67,42.48,24.0,-1.0,,,,,,,,,,1.97759,-7.63922,6251.4,15.7135,11849.0,-0.848015,-1.0,11.0,-1172.0,97.0,,0.0,,2022-10-28 15:11:31.125869+00:00
2022-10-28 08:11:31.324847-07:00,68.591925,2.8,1.17,-2.52,-0.33,8.98,869.68,42.18,20.0,-1.0,,,,,,,,,,,,,,,,,,,,,,,2022-10-28 15:11:31.324847+00:00
2022-10-28 08:11:31.524387-07:00,68.791465,2.55,1.13,-2.28,-0.16,8.7,869.69,43.07,22.0,-1.0,,,,,,,,,,,,,,,,,,,,,,,2022-10-28 15:11:31.524387+00:00
2022-10-28 08:11:31.724450-07:00,68.991528,2.72,0.79,-2.58,-0.31,8.7,869.69,42.94,23.0,-1.0,,,,,,,,,,,,,,,,,,,,,,,2022-10-28 15:11:31.724450+00:00
2022-10-28 08:11:31.924178-07:00,69.191256,2.47,0.87,-2.3,-0.21,8.58,869.7,43.39,20.0,-1.0,,,,,,,,,,,,,,,,,,,,,,,2022-10-28 15:11:31.924178+00:00
2022-10-28 08:11:32.126009-07:00,69.393087,2.32,1.1,-2.03,-0.2,8.9,869.71,42.45,23.0,-1.0,,,,,,,,,,1.97834,-6.74876,6269.76,15.72,11823.0,-0.833801,-1.0,8.0,-1189.0,97.0,,0.0,,2022-10-28 15:11:32.126009+00:00
2022-10-28 08:11:32.324161-07:00,69.591239,2.58,1.47,-2.11,-0.13,9.04,869.68,42.0,22.0,-1.0,,,,,,,,,,,,,,,,,,,,,,,2022-10-28 15:11:32.324161+00:00
2022-10-28 08:11:32.524864-07:00,69.791942,3.0,2.15,-2.09,0.11,9.42,869.67,40.94,20.0,-1.0,,,,,,,,,,,,,,,,,,,,,,,2022-10-28 15:11:32.524864+00:00
2022-10-28 08:11:32.725139-07:00,69.992217,3.59,1.69,-3.16,-0.18,9.24,869.68,41.54,22.0,-1.0,,,,,,,,,,,,,,,,,,,,,,,2022-10-28 15:11:32.725139+00:00
2022-10-28 08:11:32.925168-07:00,70.192246,4.11,1.75,-3.7,-0.29,8.03,869.67,45.03,23.0,-1.0,,,,,,,,,,,,,,,,,,,,,,,2022-10-28 15:11:32.925168+00:00
2022-10-28 08:11:33.126341-07:00,70.393419,4.08,2.27,-3.39,-0.14,8.57,869.66,43.42,19.0,-1.0,,,,,,,,,,1.97998,-8.02913,6294.15,15.7252,11854.0,-0.853036,-1.0,11.0,-1203.0,97.0,,0.0,,2022-10-28 15:11:33.126341+00:00
2022-10-28 08:11:33.324320-07:00,70.591398,4.39,2.19,-3.79,-0.26,8.2,869.67,44.5,24.0,-1.0,,,,,,,,,,,,,,,,,,,,,,,2022-10-28 15:11:33.324320+00:00
2022-10-28 08:11:33.524836-07:00,70.791914,4.5,2.45,-3.77,-0.14,7.31,869.65,47.3,23.0,-1.0,,,,,,,,,,,,,,,,,,,,,,,2022-10-28 15:11:33.524836+00:00
2022-10-28 08:11:33.724490-07:00,70.991568,4.51,2.49,-3.76,-0.14,7.49,869.63,46.84,21.0,-1.0,,,,,,,,,,,,,,,,,,,,,,,2022-10-28 15:11:33.724490+00:00
2022-10-28 08:11:33.924189-07:00,71.191267,4.67,2.6,-3.87,-0.11,7.11,869.63,48.06,25.0,-1.0,,,,,,,,,,,,,,,,,,,,,,,2022-10-28 15:11:33.924189+00:00
2022-10-28 08:11:34.125620-07:00,71.392698,4.86,2.85,-3.94,-0.07,7.16,869.62,47.84,22.0,-1.0,,,,,,,,,,1.97842,-6.89649,6290.9,15.7315,11794.0,-0.845608,-1.0,9.0,-1179.0,97.0,,0.0,,2022-10-28 15:11:34.125620+00:00
2022-10-28 08:11:34.325070-07:00,71.592148,4.64,2.21,-4.08,-0.24,7.22,869.63,47.65,21.0,-1.0,,,,,,,,,,,,,,,,,,,,,,,2022-10-28 15:11:34.325070+00:00
2022-10-28 08:11:34.524319-07:00,71.791397,4.38,1.84,-3.96,-0.28,7.57,869.66,46.45,25.0,-1.0,,,,,,,,,,,,,,,,,,,,,,,2022-10-28 15:11:34.524319+00:00
2022-10-28 08:11:34.725119-07:00,71.992197,4.14,1.75,-3.74,-0.24,8.12,869.66,44.75,23.0,-1.0,,,,,,,,,,,,,,,,,,,,,,,2022-10-28 15:11:34.725119+00:00
2022-10-28 08:11:34.924316-07:00,72.191394,4.69,2.46,-3.99,-0.2,7.67,869.65,46.21,21.0,-1.0,,,,,,,,,,,,,,,,,,,,,,,2022-10-28 15:11:34.924316+00:00
2022-10-28 08:11:35.126178-07:00,72.393256,4.6,1.82,-4.21,-0.33,7.42,869.65,47.07,25.0,-1.0,,,,,,,,,,,,,,,,,,,,,,,2022-10-28 15:11:35.126178+00:00
2022-10-28 08:11:35.324213-07:00,72.591291,4.59,1.57,-4.31,-0.27,7.81,869.67,45.84,22.0,-1.0,,,,,,,,,,,,,,,,,,,,,,,2022-10-28 15:11:35.324213+00:00
2022-10-28 08:11:35.524789-07:00,72.791867,5.03,2.45,-4.39,-0.22,7.77,869.64,45.83,20.0,-1.0,,,,,,,,,,,,,,,,,,,,,,,2022-10-28 15:11:35.524789+00:00
2022-10-28 08:11:35.724314-07:00,72.991392,4.52,1.74,-4.16,-0.31,7.69,869.66,46.14,23.0,-1.0,,,,,,,,,,,,,,,,,,,,,,,2022-10-28 15:11:35.724314+00:00
2022-10-28 08:11:35.925049-07:00,73.192127,3.34,1.84,-2.78,-0.2,7.95,869.67,45.32,20.0,-1.0,,,,,,,,,,,,,,,,,,,,,,,2022-10-28 15:11:35.925049+00:00
2022-10-28 08:11:36.126425-07:00,73.393503,3.89,1.71,-3.48,-0.24,8.03,869.66,45.08,20.0,-1.0,,,,,,,,,,,,,,,,,,,,,,,2022-10-28 15:11:36.126425+00:00
2022-10-28 08:11:36.324206-07:00,73.591284,3.74,1.49,-3.42,-0.27,7.67,869.68,46.16,24.0,-1.0,,,,,,,,,,,,,,,,,,,,,,,2022-10-28 15:11:36.324206+00:00
2022-10-28 08:11:36.524160-07:00,73.791238,3.18,1.18,-2.94,-0.23,7.97,869.67,45.32,21.0,-1.0,,,,,,,,,,,,,,,,,,,,,,,2022-10-28 15:11:36.524160+00:00
2022-10-28 08:11:36.724909-07:00,73.991987,3.15,1.06,-2.96,-0.22,8.28,869.69,44.43,21.0,-1.0,,,,,,,,,,,,,,,,,,,,,,,2022-10-28 15:11:36.724909+00:00
2022-10-28 08:11:36.924275-07:00,74.191353,3.4,1.12,-3.2,-0.31,8.14,869.68,44.79,25.0,-1.0,,,,,,,,,,,,,,,,,,,,,,,2022-10-28 15:11:36.924275+00:00
2022-10-28 08:11:37.126355-07:00,74.393433,3.5,2.02,-2.85,-0.18,7.75,869.66,46.02,21.0,-1.0,,,,,,,,,,,,,,,,,,,,,,,2022-10-28 15:11:37.126355+00:00
2022-10-28 08:11:37.324579-07:00,74.591657,3.52,1.56,-3.14,-0.3,7.34,869.66,47.33,21.0,-1.0,,,,,,,,,,,,,,,,,,,,,,,2022-10-28 15:11:37.324579+00:00
2022-10-28 08:11:37.524414-07:00,74.791492,3.56,1.11,-3.37,-0.26,7.84,869.67,45.78,24.0,-1.0,,,,,,,,,,,,,,,,,,,,,,,2022-10-28 15:11:37.524414+00:00
2022-10-28 08:12:26.190533-07:00,123.457611,4.3,2.06,-3.77,-0.24,7.47,869.66,47.11,22.0,0.0,0.000243055,1.09774e-05,0.00248762,33.99436,-106.894676,1328.22888,-11.8043657,3.01171204,2.28569039,,,,,,,,,,,,,,2022-10-28 15:12:26.190533+00:00
