Timestamp,Seconds,S,Um,Vm,Wm,T,P,H,MD,Sts,Vx,Vy,Vz,Lat,Lon,Alt,Yaw,Roll,Pitch,CH4,C2H6,H20,T_a,Batt,R,C2C1,Power,Current,SOC,Lat_a,Lon_a,TS,Timestamp_UTC,Rho,Rho_err,Sc,V,U,W,WD,V_err,U_err,Sc_avg,WD_avg,V_avg,U_avg,W_avg,U_err_avg,V_err_avg,Nx,Ny,cross_wind,cross_wind_err,CH4_sub,CH4_res,CH4_adj,CH4_adj_err,BG_Samples_CH4,C2H6_sub,C2H6_res,C2H6_adj,C2H6_adj_err,BG_Samples_C2H6
2022-11-15 12:51:44.806558-07:00,0.0,2.77,2.12,-1.74,0.44,15.22,969.67,38.94,24.0,0.0,0.000771861,-0.00105006,0.000646424,32.8213941,-111.787046,380.14196200000004,-17.7951374,0.327217309,-0.0248439935,,,,,,,,,,,,,,2022-11-15 19:51:44.806558+00:00,1.171409472663602,0.014558278003446966,2.7437305649425108,-1.009897603582753,2.5511103941769284,0.440646424,291.59692343782257,0.2625706645281342,0.14752977824206545,,,,,,,,0.8057396060186836,0.5922699446138193,,,,,,,,,,,,
2022-11-15 12:51:45.000835-07:00,0.194277,2.8,2.17,-1.72,0.44,15.28,969.66,38.79,23.0,0.0,0.000493394,-0.000192698,0.00155748,32.8213941,-111.787046,380.14361,-17.7815966,0.328670815,-0.025179123,,,,,,,,,,,,,,2022-11-15 19:51:45.000835+00:00,1.1711537148678042,0.014554259939683277,2.769518632818219,-0.9753289149211605,2.5920970208011136,0.44155748,290.6198241171601,0.2624090378919755,0.1470143055383216,,,,,,,,0.36379478441664725,0.9314791220586993,,,,,,,,,,,,
2022-11-15 12:51:45.200480-07:00,0.393922,2.85,2.08,-1.9,0.44,15.39,969.67,38.48,19.0,0.0,0.000252027,-0.00128034,-0.000807068,32.821394,-111.787047,380.135065,-17.7658573,0.325958083,-0.0316353334,2.09536,-15.8842,6120.4,25.9368,11585.0,0.435488,-1.0,19.0,-1229.0,82.0,,0.0,,2022-11-15 19:51:45.200480+00:00,1.1707193097386945,0.014547031550171336,2.8179248490840556,-1.1760059989802019,2.5608026760076568,0.439192932,294.66616543142675,0.2636782691893834,0.15067783831812706,2.779988523559653,294.4259450245511,-1.1483523058365717,2.52711315721184,0.42814622580000006,0.15029471640134162,0.2634393549452517,0.9811716867879148,0.19313757025953815,2.25774190501426,0.1450217272346717,,,,,,,,,,
2022-11-15 12:51:45.400728-07:00,0.59417,2.81,2.02,-1.92,0.4,15.33,969.66,38.77,20.0,0.0,0.000235678,0.000168902,-0.00108872,32.8213939,-111.787047,380.13234900000003,-17.7528708,0.326958181,-0.0379733433,,,,,,,,,,,,,,2022-11-15 19:51:45.400728+00:00,1.1709507278817275,0.014550952181526402,2.7870366326655223,-1.2124794255643576,2.509475410200845,0.39891128000000003,295.78799919265,0.26380839852176247,0.1514757687194051,,,,,,,,0.5825176502446989,-0.812818052920452,,,,,,,,,,,,
2022-11-15 12:51:45.600960-07:00,0.794402,2.82,1.89,-2.04,0.42,15.22,969.67,39.04,22.0,0.0,0.000364388,-0.000938722,0.000423013,32.8213938,-111.787047,380.13845200000003,-17.7401356,0.326966947,-0.0241777298,,,,,,,,,,,,,,2022-11-15 19:51:45.600960+00:00,1.171409472663602,0.014558278003446966,2.7817319382879564,-1.3680495861343855,2.4220802848726564,0.420423013,299.45881294369593,0.264730404595003,0.15477589118878898,,,,,,,,0.9322294401236891,0.36186775342198296,,,,,,,,,,,,
2022-11-15 12:51:45.800802-07:00,0.994244,2.79,1.75,-2.13,0.44,15.18,969.67,39.08,25.0,0.0,0.000482537,-0.00115549,0.00229141,32.8213936,-111.787047,380.148798,-17.7241982,0.329384196,-0.0389433104,,,,,,,,,,,,,,2022-11-15 19:51:45.800802+00:00,1.1715719822148334,0.014560926770492406,2.7577334199293366,-1.497288848305249,2.3158626298068494,0.44229141,302.88412786453887,0.2654484328576114,0.15778865031316675,,,,,,,,0.922769618479227,0.38535208733274284,,,,,,,,,,,,
2022-11-15 12:51:46.000705-07:00,1.194147,2.76,1.86,-2.0,0.43,15.18,969.66,39.15,22.0,0.0,0.000220322,0.000289897,0.00109589,32.8213936,-111.787047,380.13723100000004,-17.7107032,0.326985046,-0.0326539189,,,,,,,,,,,,,,2022-11-15 19:51:46.000705+00:00,1.1715599000427313,0.014560879996573047,2.731276701503085,-1.3390869472612092,2.380487044251287,0.43109589,299.3589051336291,0.2643625733852882,0.1542770199505918,,,,,,,,0.7961618236706034,-0.6050837549707471,,,,,,,,,,,,
2022-11-15 12:51:46.200976-07:00,1.394418,2.63,1.76,-1.92,0.4,15.2,969.67,39.13,19.0,0.0,0.000225958,-0.000634651,-0.00139963,32.8213935,-111.787047,380.128259,-17.6961431,0.329263042,-0.0228616076,2.09748,-14.9798,6131.83,25.9375,11592.0,0.405537,-1.0,22.0,-1253.0,82.0,,0.0,,2022-11-15 19:51:46.200976+00:00,1.171490721803374,0.01455960226578408,2.6051227654147913,-1.2947986669007363,2.26056652967226,0.39860037000000004,299.80305379343133,0.2637142642352862,0.15336327536928018,2.6761323186371273,303.3967539402396,-1.4641526376138407,2.2287116110095004,0.36483661440000004,0.15727728083891696,0.26494477424552987,0.9420720198347563,0.33541065791722025,1.6085144495396022,0.14273045834730058,,,,,,,,,,
2022-11-15 12:51:46.400276-07:00,1.593718,2.74,1.76,-2.08,0.31,15.75,969.67,37.79,21.0,0.0,0.000105032,-0.000299667,0.000193332,32.8213934,-111.787047,380.133478,-17.6843088,0.330151553,-0.0252636199,,,,,,,,,,,,,,2022-11-15 19:51:46.400276+00:00,1.1692604694773379,0.014523273141783536,2.7249499718277814,-1.447369676419555,2.308781793228927,0.310193332,302.083498846635,0.26496926144306265,0.15678534461413712,,,,,,,,0.9437123980137463,0.33076715350098557,,,,,,,,,,,,
2022-11-15 12:51:46.601193-07:00,1.794635,2.58,1.26,-2.23,0.24,16.05,969.67,37.02,24.0,0.0,0.000429808,0.000122954,0.00200207,32.8213934,-111.787047,380.142511,-17.6698384,0.32935029,-0.0128811766,,,,,,,,,,,,,,2022-11-15 19:51:46.601193+00:00,1.1680475436791249,0.014503534032123467,2.561578734510642,-1.7422190491824534,1.8778600580881768,0.24200206999999999,312.85418406296344,0.2662293393064008,0.16417211394740883,,,,,,,,0.27503486908568825,-0.9614342519314664,,,,,,,,,,,,
2022-11-15 12:51:46.800822-07:00,1.994264,2.48,1.31,-2.1,0.19,16.03,969.66,37.11,21.0,0.0,0.000214779,-0.00043944,0.000822183,32.8213934,-111.787047,380.132196,-17.6572681,0.332368494,-0.0184730707,,,,,,,,,,,,,,2022-11-15 19:51:46.800822+00:00,1.168116280445815,0.014504801887796598,2.4755442913829455,-1.6041517372197402,1.885475203383375,0.190822183,310.39095033853545,0.26509323572650184,0.1606460279199143,,,,,,,,0.8984314141098774,0.43911387377367844,,,,,,,,,,,,
2022-11-15 12:51:47.000748-07:00,2.19419,2.49,1.14,-2.21,0.18,16.32,969.66,36.56,20.0,0.0,0.000145811,-0.000195332,-0.000308281,32.8213933,-111.787047,380.135797,-17.6434542,0.332536166,-0.0130775712,,,,,,,,,,,,,,2022-11-15 19:51:47.000748+00:00,1.1669460254234314,0.01448576865978018,2.4869459141989863,-1.7607135956202655,1.7563563460610687,0.179691719,315.0709829165873,0.26601425948804824,0.1647474316649821,,,,,,,,0.8013527756136065,0.5981920502784777,,,,,,,,,,,,
2022-11-15 12:51:47.200437-07:00,2.393879,2.42,1.21,-2.08,0.25,16.13,969.66,36.92,19.0,0.0,0.000428197,-0.0005978,-0.00157402,32.8213933,-111.787047,380.122339,-17.6281418,0.331022325,-0.0163497856,2.09874,-15.0494,6106.82,25.9381,11535.0,0.418158,-1.0,21.0,-1212.0,82.0,,0.0,,2022-11-15 19:51:47.200437+00:00,1.1677124791873643,0.01449823302270625,2.4070645037697322,-1.6164912240253957,1.7835121664729696,0.24842598,312.1876767408297,0.26488114101155874,0.16105399406639656,2.4450210797157106,314.0783586382764,-1.6988915002221927,1.7551823582862611,0.22151072580000003,0.16318399113577287,0.265478278621717,0.8129628379200536,0.5823155709415407,0.43760705713999426,0.14048277985742919,,,,,,,,,,
2022-11-15 12:51:47.400748-07:00,2.59419,2.47,1.12,-2.19,0.22,16.15,969.66,36.9,24.0,0.0,0.000696093,-0.000888337,-0.00153653,32.8213933,-111.787047,380.12804600000004,-17.6139373,0.3310287,-0.0203814817,,,,,,,,,,,,,,2022-11-15 19:51:47.400748+00:00,1.1676317524345687,0.014496919968084507,2.4608974739938705,-1.7493008020235963,1.7308850572897712,0.21846347,315.3031834057972,0.2657952374699284,0.16452712146161724,,,,,,,,0.7871295328131839,0.616787725699287,,,,,,,,,,,,
2022-11-15 12:51:47.601241-07:00,2.794683,2.41,1.01,-2.17,0.27,16.2,969.66,36.79,23.0,0.0,0.000675724,-0.000900434,0.000150277,32.8213933,-111.787047,380.132318,-17.6046168,0.33089349,-0.0191344118,,,,,,,,,,,,,,2022-11-15 19:51:47.601241+00:00,1.1674299843764324,0.014493638378401058,2.394653215233016,-1.763800142221965,1.6196830182241213,0.270150277,317.4389997896325,0.26560751941254784,0.1649453805659542,,,,,,,,0.799830059308507,0.6002265207624119,,,,,,,,,,,,
2022-11-15 12:51:47.800734-07:00,2.994176,2.64,1.39,-2.22,0.28,16.14,969.68,36.98,20.0,0.0,0.000868718,-0.00152667,-0.000290137,32.8213933,-111.787047,380.12941900000004,-17.5931182,0.329496105,-0.0295372144,,,,,,,,,,,,,,2022-11-15 19:51:47.800734+00:00,1.1676961985712784,0.014497669181151503,2.6209062454496395,-1.6975555553850894,1.9968612079506542,0.279709863,310.3682598443939,0.2660275105681553,0.16322329721864987,,,,,,,,0.8691404832960569,0.4945652841596312,,,,,,,,,,,,
2022-11-15 12:51:48.000296-07:00,3.193738,2.79,1.84,-2.06,0.43,15.21,969.67,39.26,19.0,0.0,0.000135099,-0.000283857,8.55711e-05,32.8213933,-111.787047,380.135828,-17.5822831,0.329713101,-0.0275930615,,,,,,,,,,,,,,2022-11-15 19:51:48.000296+00:00,1.1714500958246736,0.014558940104323174,2.762361577767406,-1.4082309016997019,2.376452653394062,0.4300855711,300.65000171624274,0.26464328096289164,0.1562648810557671,,,,,,,,0.9029481685565699,0.42974946759750177,,,,,,,,,,,,
2022-11-15 12:51:48.201003-07:00,3.394445,2.76,1.85,-2.01,0.39,15.24,969.68,39.28,22.0,0.0,0.000675804,-0.000879897,0.00188846,32.8213933,-111.787047,380.14486100000005,-17.5726528,0.330853922,-0.0213730865,2.10016,-15.4118,6073.95,25.9398,11525.0,0.312598,-1.0,19.0,-1220.0,82.0,,0.0,,2022-11-15 19:51:48.201003+00:00,1.1713403144515588,0.014557000731508805,2.732799744867231,-1.3585404413220914,2.3711942802813057,0.39188846,299.8099095238065,0.2642197970717107,0.15518384262746782,2.730968133634535,304.9355109541446,-1.5569632706874585,2.2345190510824073,0.34229916942000005,0.1599086157976536,0.26547250905896874,0.7930767133603559,0.6091217667474509,0.8237648067715025,0.14077561166677874,,,,,,,,,,
2022-11-15 12:51:48.400981-07:00,3.594423,2.71,1.48,-2.25,0.28,15.81,969.67,37.91,25.0,0.0,0.000457535,-0.000504714,0.00054551,32.8213933,-111.787047,380.14110700000003,-17.5603693,0.330187326,-0.0236042006,,,,,,,,,,,,,,2022-11-15 19:51:48.400981+00:00,1.1690176828350045,0.014519320996011057,2.693794253960969,-1.6991222256205039,2.0903375672545232,0.28054551000000005,309.1057930867421,0.26624640141983347,0.1634050172310873,,,,,,,,0.740886190176398,0.6716305928156505,,,,,,,,,,,,
2022-11-15 12:51:48.601111-07:00,3.794553,2.86,1.74,-2.25,0.33,15.81,969.66,37.87,21.0,0.0,0.000387668,-0.000614488,-0.000733557,32.8213933,-111.787047,380.13183000000004,-17.5461539,0.32973555,-0.0208262511,,,,,,,,,,,,,,2022-11-15 19:51:48.601111+00:00,1.1690056270048474,0.014519274495804216,2.8449788461274297,-1.6213672294099069,2.3377495465314935,0.329266443,304.74359059953787,0.2662255552722526,0.16146604085529592,,,,,,,,0.8457558054411525,0.5335701617993527,,,,,,,,,,,,
2022-11-15 12:51:48.800817-07:00,3.994259,2.87,1.71,-2.27,0.41,15.78,969.66,37.95,19.0,0.0,0.000437906,-0.000570296,0.000379887,32.8213932,-111.787047,380.141748,-17.5358574,0.327304898,-0.0200885206,,,,,,,,,,,,,,2022-11-15 19:51:48.800817+00:00,1.169127006469805,0.014521250285139882,2.8426939219887837,-1.6498527030757713,2.314928679736277,0.410379887,305.4775218738516,0.26639096085809905,0.1622229321045539,,,,,,,,0.7931501179118566,0.6090261820779201,,,,,,,,,,,,
2022-11-15 12:51:49.000844-07:00,4.194286,3.04,1.9,-2.35,0.34,15.51,969.67,38.6,21.0,0.0,-6.39421e-05,0.000384013,0.00104779,32.8213932,-111.787047,380.15011000000004,-17.520234,0.329250418,-0.017542324,,,,,,,,,,,,,,2022-11-15 19:51:49.000844+00:00,1.1702326253447064,0.014539103396033884,3.0217372706640884,-1.6686202120248013,2.5192464589521135,0.34104779,303.5184576223444,0.2671058196094507,0.1627812745682718,,,,,,,,0.986418933054834,0.16424886152105572,,,,,,,,,,,,
2022-11-15 12:51:49.201492-07:00,4.394934,2.81,1.74,-2.18,0.35,15.59,969.66,38.45,24.0,0.0,0.000590724,-0.00116558,0.00182067,32.8213931,-111.787047,380.152979,-17.5088314,0.328008712,-0.0178205541,2.09875,-15.1946,6066.81,25.9405,11587.0,0.332914,-1.0,20.0,-1240.0,82.0,,0.0,,2022-11-15 19:51:49.201492+00:00,1.1698963288055717,0.014533776192646185,2.7904055639956478,-1.5566835948942304,2.315836651615361,0.35182067,303.9086227293746,0.26554942242388985,0.15998729149952545,2.776267287858606,302.76342658148207,-1.5049847326636479,2.3309714678872644,0.37319662420000005,0.15891301439063416,0.26522102292385535,0.8919853355125341,0.4520643330662041,1.3988424474071541,0.13756500692302456,,,,,,,,,,
2022-11-15 12:51:49.400532-07:00,4.593974,2.58,1.73,-1.89,0.36,15.43,969.67,38.9,23.0,0.0,0.000226869,-0.000516589,0.00186422,32.8213931,-111.787047,380.148157,-17.4921518,0.324939102,-0.0330106062,,,,,,,,,,,,,,2022-11-15 19:51:49.400532+00:00,1.1705570366345655,0.014544387865787068,2.5626806105391515,-1.2831244317736696,2.2183154879815485,0.36186422,300.0460706170632,0.2631428385046152,0.1538786112403388,,,,,,,,0.9155958588795058,0.40209976772276323,,,,,,,,,,,,
2022-11-15 12:51:49.600795-07:00,4.794237,2.7,1.77,-1.99,0.4,15.23,969.67,39.46,19.0,0.0,0.000408311,-0.000389691,0.000870554,32.8213931,-111.787047,380.142786,-17.4848243,0.325834677,-0.0329397197,,,,,,,,,,,,,,2022-11-15 19:51:49.600795+00:00,1.1713688523198658,0.014557615963147376,2.663819072105359,-1.3666427215497667,2.2865300611510238,0.40087055400000005,300.8664600647765,0.26391607322322214,0.1556949625404808,,,,,,,,0.6904197432298914,0.7234089978417263,,,,,,,,,,,,
2022-11-15 12:51:49.800802-07:00,4.994244,2.77,1.64,-2.19,0.4,15.57,969.69,38.56,20.0,0.0,0.000306238,-0.000706576,0.000586739,32.821393,-111.787047,380.137292,-17.4621246,0.323344255,-0.0263275954,,,,,,,,,,,,,,2022-11-15 19:51:49.800802+00:00,1.1700135665605682,0.014535235787779252,2.736661834534463,-1.5976581163731423,2.22189255810999,0.400586739,305.7181301277792,0.2655666280821588,0.16117046319348438,,,,,,,,0.9175295355706562,0.39766763931139276,,,,,,,,,,,,
2022-11-15 12:51:50.000509-07:00,5.193951,2.76,1.63,-2.2,0.36,15.83,969.66,37.91,23.0,0.0,-0.000360802,-0.000971659,0.000651047,32.8213929,-111.787047,380.14049700000004,-17.4509534,0.321877567,-0.0338038155,,,,,,,,,,,,,,2022-11-15 19:51:50.000509+00:00,1.1689247213624498,0.014517957603431343,2.7383264060838455,-1.6108949540500903,2.2143732642154137,0.360651047,306.03484721328255,0.26563815874180013,0.16153236774890217,,,,,,,,0.9374567321556505,-0.3481018174845529,,,,,,,,,,,,
2022-11-15 12:51:50.201382-07:00,5.394824,2.75,1.62,-2.2,0.32,15.8,969.67,38.09,23.0,0.0,-0.000340691,-0.000727315,0.000851037,32.8213929,-111.787047,380.138544,-17.4399882,0.320091738,-0.0268706889,2.09878,-16.2428,6066.82,25.9416,11544.0,0.15048,-1.0,21.0,-1229.0,82.0,,0.0,,2022-11-15 19:51:50.201382+00:00,1.1690581402734137,0.01451997953667295,2.7322600708106557,-1.6140715008912376,2.2045449155226926,0.320851037,306.2099591336917,0.2656216709188212,0.16165651891626012,2.864676271338773,311.0981108576471,-1.8848170769964845,2.1306085754440525,0.27635361040000006,0.1694721939288443,0.2680022530277742,0.9055727409165527,-0.42419100757663647,2.728943502473972,0.1471065480543775,,,,,,,,,,
2022-11-15 12:51:50.400405-07:00,5.593847,2.93,1.34,-2.6,0.25,16.17,969.67,37.19,19.0,0.0,0.000616329,-0.000722193,0.000155415,32.8213928,-111.787047,380.140192,-17.4270946,0.32176783,-0.0262551013,,,,,,,,,,,,,,2022-11-15 19:51:50.400405+00:00,1.167563077671792,0.014495653497522605,2.9259425928443594,-2.080059802202279,2.0577879569778292,0.250155415,315.3083898888219,0.26944650227062705,0.1744978930569333,,,,,,,,0.7606566674329286,0.6491543994226883,,,,,,,,,,,,
2022-11-15 12:51:50.600828-07:00,5.79427,3.19,1.11,-2.99,0.05,16.42,969.66,36.55,19.0,0.0,0.000282709,-0.000795343,-0.000476186,32.8213927,-111.787047,380.130151,-17.4186993,0.321635018,-0.0287463264,,,,,,,,,,,,,,2022-11-15 19:51:50.600828+00:00,1.1665430327013182,0.014479217127843978,3.1901904524205418,-2.5214010114656724,1.9544441823943361,0.049523814,322.21922792466006,0.2737383051254637,0.18850372672864152,,,,,,,,0.9422444614799682,0.33492592436287266,,,,,,,,,,,,
2022-11-15 12:51:50.801134-07:00,5.994576,2.91,0.86,-2.78,0.07,16.54,969.67,36.31,23.0,0.0,-0.000319292,0.000250397,0.000206689,32.8213926,-111.787047,380.136926,-17.4074688,0.320570566,-0.0279088277,,,,,,,,,,,,,,2022-11-15 19:51:50.801134+00:00,1.1660718341399527,0.014471409343615033,2.9095954076825863,-2.3951472704682253,1.651973059458357,0.070206689,325.4053225716257,0.27134334793376236,0.18441182106764023,,,,,,,,0.6170970608535764,0.7868870423929202,,,,,,,,,,,,
2022-11-15 12:51:51.001155-07:00,6.194597,2.79,1.37,-2.43,0.09,16.7,969.66,35.33,24.0,0.0,0.000133807,-0.000603364,-9.75426e-05,32.8213926,-111.787047,380.13302000000004,-17.3966615,0.322516182,-0.0286619762,,,,,,,,,,,,,,2022-11-15 19:51:51.001155+00:00,1.1654161324109737,0.01446090452807994,2.790098314139698,-1.9098399891426965,2.034000938651851,0.0899024574,313.196796056299,0.2677001329200059,0.16967099457581075,,,,,,,,0.9762808164737434,0.2165081231394354,,,,,,,,,,,,
2022-11-15 12:51:51.201565-07:00,6.395007,2.81,1.39,-2.44,0.15,16.49,969.66,35.93,21.0,0.0,-0.000130455,-0.000435563,0.00119703,32.8213925,-111.787047,380.13982500000003,-17.3897128,0.320132383,-0.023817604,2.09778,-15.1291,6069.95,25.9429,11523.0,0.088459,-1.0,20.0,-1217.0,82.0,,0.0,,2022-11-15 19:51:51.201565+00:00,1.1662611033673551,0.014474634603026145,2.8083501131394835,-1.9134843877046612,2.0555796885504263,0.15119702999999998,312.94964624782233,0.2677884148999766,0.1698017755230911,2.8296369448525893,312.9963166213162,-1.9070396852992786,2.0431989706928837,0.14674271728000002,0.17022753093323367,0.26778923288016737,0.9579556671715308,-0.28691625909653024,2.50445472558898,0.15776202351585603,,,,,,,,,,
2022-11-15 12:51:51.400972-07:00,6.594414,2.77,1.25,-2.47,0.04,16.71,969.65,35.35,19.0,0.0,0.000164516,-0.000309639,0.00127084,32.8213925,-111.787047,380.14452500000004,-17.3765737,0.322715294,-0.0199020044,,,,,,,,,,,,,,2022-11-15 19:51:51.400972+00:00,1.1653639078404698,0.014460205256393797,2.768621314457059,-1.984271790992458,1.9307846701114852,0.04127084,315.7827206761129,0.2680662312802387,0.17186793964353186,,,,,,,,0.883091753215213,0.4692003361073831,,,,,,,,,,,,
2022-11-15 12:51:51.600325-07:00,6.793767,2.89,2.03,-2.03,0.38,15.57,969.65,38.07,20.0,0.0,0.000308418,-0.000846731,0.00113657,32.8213924,-111.787047,380.14257200000003,-17.3650156,0.322726576,-0.0196834516,,,,,,,,,,,,,,2022-11-15 19:51:51.600325+00:00,1.1699653031540542,0.014535049370197924,2.871519574844119,-1.3324549881883503,2.543656496692298,0.38113657,297.6470975547213,0.26404803736685334,0.1553851238560945,,,,,,,,0.9396094514651017,0.3422485627690067,,,,,,,,,,,,
2022-11-15 12:51:51.800949-07:00,6.994391,2.68,1.46,-2.24,0.19,16.55,969.66,36.39,24.0,0.0,7.39467e-05,0.000545678,0.000505444,32.8213924,-111.787047,380.141473,-17.3531623,0.320633418,-0.021381204,,,,,,,,,,,,,,2022-11-15 19:51:51.800949+00:00,1.166019558092236,0.01447070904751734,2.673508384466083,-1.7020390121137554,2.061725074556081,0.190505444,309.5410772626077,0.2658507667833129,0.16423207869093087,,,,,,,,0.9909426120072852,-0.13428603690696622,,,,,,,,,,,,
2022-11-15 12:51:52.000484-07:00,7.193926,2.54,1.58,-1.99,0.17,16.21,969.65,36.55,23.0,0.0,0.000126407,-2.78858e-05,0.000277349,32.8213923,-111.787047,380.14238900000004,-17.3406945,0.322239611,-0.0146338739,,,,,,,,,,,,,,2022-11-15 19:51:52.000484+00:00,1.167377599967648,0.014492935912682319,2.5410845981844083,-1.4286574721479464,2.1014396880248207,0.17027734900000002,304.20970736117016,0.2636804548099091,0.1576133197435002,,,,,,,,0.21542367438186058,0.9765206810487007,,,,,,,,,,,,
2022-11-15 12:51:52.201988-07:00,7.39543,2.42,1.38,-1.98,0.05,16.93,969.66,34.85,19.0,0.0,-0.000287452,0.000153955,-0.000834549,32.8213923,-111.787047,380.14074100000005,-17.3286349,0.320923158,-0.0158164471,2.09767,-15.1831,6064.73,25.9436,11523.0,0.0456758,-1.0,20.0,-1217.0,82.0,,0.0,,2022-11-15 19:51:52.201988+00:00,1.1644920917654464,0.014445896877180685,2.4131407484344933,-1.4789421631137658,1.906824152857143,0.049165451000000006,307.7973310185188,0.26357949713561896,0.1588164485847244,2.4935605797202482,307.9558122385646,-1.533812126255358,1.9598964492315303,0.12318615080000002,0.16028282340182348,0.26419555927309757,0.4721329045504656,0.881527379291614,-0.42676578078975724,0.2083895556278361,,,,,,,,,,
2022-11-15 12:51:52.401070-07:00,7.594512,2.3,1.42,-1.8,0.12,16.5,969.66,36.58,19.0,0.0,0.000131902,-0.000197049,-0.00237021,32.8213922,-111.787047,380.128931,-17.3207854,0.322999053,-0.0142449333,,,,,,,,,,,,,,2022-11-15 19:51:52.401070+00:00,1.1662208388721587,0.014473980194923223,2.292904193503575,-1.2958080638906653,1.8916371486472252,0.11762979,304.4118982608244,0.2621702922833594,0.15478658519828353,,,,,,,,0.8310055390983149,0.5562641404835648,,,,,,,,,,,,
2022-11-15 12:51:52.600354-07:00,7.793796,2.55,1.23,-2.23,0.09,16.55,969.67,35.8,24.0,0.0,2.97042e-05,-0.000606876,-0.00164728,32.8213922,-111.787047,380.13884900000005,-17.3105522,0.319834987,-0.017055783,,,,,,,,,,,,,,2022-11-15 19:51:52.600354+00:00,1.166031583127383,0.014470755228899344,2.547164974012682,-1.7636139200106575,1.8378561820723813,0.08835272,313.81904728970204,0.2656967853532874,0.16596568479167834,,,,,,,,0.9988042887391406,0.04888755257015192,,,,,,,,,,,,
2022-11-15 12:51:52.800844-07:00,7.994286,2.44,1.24,-2.1,0.11,16.8,969.66,35.27,24.0,0.0,-1.07063e-05,-8.35729e-05,0.000116848,32.8213921,-111.787047,380.143304,-17.2999259,0.323274668,-0.0229703303,,,,,,,,,,,,,,2022-11-15 19:51:52.800844+00:00,1.165014195479637,0.01445437560756229,2.438818315902041,-1.636338746769713,1.8083778044975538,0.110116848,312.1408594832063,0.26453395022567744,0.16272572890371617,,,,,,,,0.9918938971950785,-0.1270688660024912,,,,,,,,,,,,
2022-11-15 12:51:53.000946-07:00,8.194388,2.73,1.43,-2.32,0.08,16.51,969.67,36.02,20.0,0.0,0.000405733,-0.000670719,0.00225102,32.821392,-111.787047,380.154016,-17.2896379,0.322110953,-0.0191055569,,,,,,,,,,,,,,2022-11-15 19:51:53.000946+00:00,1.166192603852803,0.014473372044913727,2.7260538318184264,-1.790841366432693,2.0552996604498848,0.08225102000000001,311.06656850146834,0.2664975428758229,0.16676312053226316,,,,,,,,0.8556291789620835,0.517589323797034,,,,,,,,,,,,
2022-11-15 12:51:53.201481-07:00,8.394923,2.68,1.36,-2.31,-0.02,17.08,969.66,34.73,19.0,0.0,0.000318681,-0.000420805,0.00222933,32.8213919,-111.787047,380.161127,-17.2766529,0.321761725,-0.0191860318,2.09767,-15.6749,6075.09,25.9445,11573.0,-0.0112965,-1.0,20.0,-1233.0,82.0,,0.0,,2022-11-15 19:51:53.201481+00:00,1.163890245595978,0.01443612616013224,2.6811344079213693,-1.8022972961627908,1.9849952568165408,-0.017770670000000002,312.2382081780821,0.2663849340941971,0.16712267391923258,2.686456153764942,303.69186842117244,-1.4539638537320727,2.2096024597340733,0.17542637619999998,0.15923533855334002,0.26415410343398593,0.7971930489678214,0.6037244757978499,0.8836861564587865,0.13968022943641284,,,,,,,,,,
2022-11-15 12:51:53.400287-07:00,8.593729,2.59,1.98,-1.65,0.26,15.99,969.65,37.24,22.0,0.0,0.000123374,-0.000622228,0.00300163,32.8213918,-111.787047,380.16179800000003,-17.2646963,0.322989694,-0.0150324661,,,,,,,,,,,,,,2022-11-15 19:51:53.400287+00:00,1.1682658308315645,0.014507384689222757,2.577734922397886,-0.9886422584022103,2.380609967014969,0.26300163,292.55259738972507,0.26100081998573815,0.14922232227230817,,,,,,,,0.9809041979300633,0.19449152804988468,,,,,,,,,,,,
2022-11-15 12:51:53.601066-07:00,8.794508,3.04,2.38,-1.84,0.44,15.16,969.65,39.26,25.0,0.0,8.39253e-05,-0.000397311,-0.000466947,32.8213917,-111.787047,380.154199,-17.2533634,0.32042677,-0.0150487245,,,,,,,,,,,,,,2022-11-15 19:51:53.601066+00:00,1.1716290878798463,0.014562157952682444,3.0085392907849866,-1.0516996008929556,2.8187296098914185,0.439533053,290.4611085533801,0.26235326998849434,0.15034284713917997,,,,,,,,0.9784101226335802,0.20667276532756462,,,,,,,,,,,,
2022-11-15 12:51:53.800792-07:00,8.994234,2.97,2.27,-1.86,0.41,15.37,969.66,38.75,21.0,0.0,0.000238789,-0.000561851,-0.000945583,32.8213916,-111.787047,380.14693600000004,-17.2454321,0.32353145,-0.0172496497,,,,,,,,,,,,,,2022-11-15 19:51:53.800792+00:00,1.1707883889481516,0.014548307063817344,2.93513866522073,-1.103966377859872,2.7196134322047834,0.40905441699999995,292.09359522109304,0.26249244174865566,0.15130353913782843,,,,,,,,0.9203295475012325,0.3911438661108935,,,,,,,,,,,,
2022-11-15 12:51:54.000718-07:00,9.19416,3.08,2.47,-1.78,0.42,15.2,969.65,39.21,19.0,0.0,-0.000304075,-1.91037e-05,0.000223581,32.8213915,-111.787047,380.15294800000004,-17.2309799,0.322627632,-0.0217524955,,,,,,,,,,,,,,2022-11-15 19:51:54.000718+00:00,1.1714665591352127,0.01455950873572092,3.0442703094086925,-0.9684551543389366,2.8861178650189676,0.42022358099999996,288.5495044031006,0.2618648302926853,0.14903124790376213,,,,,,,,0.0627019963261569,-0.9980322938946989,,,,,,,,,,,,
2022-11-15 12:51:54.201187-07:00,9.394629,3.05,2.54,-1.63,0.41,15.09,969.65,39.5,21.0,0.0,-0.000114599,0.00030624,0.000843277,32.8213914,-111.787047,380.15001800000005,-17.2183881,0.325675063,-0.0221787954,2.09837,-15.0834,6086.96,25.946,11590.0,-0.045384,-1.0,21.0,-1241.0,82.0,,0.0,,2022-11-15 19:51:54.201187+00:00,1.1719136217271668,0.01456679641670674,3.017837032585213,-0.8047655968610834,2.908555086181375,0.41084327699999995,285.4661883250805,0.2607794870070306,0.146630459630022,2.836604995012981,300.4357139823684,-1.3463513737867296,2.391719405533094,0.3561413418,0.15781147743270899,0.26371633797170463,0.9365712718532399,0.35047717862823063,1.768150254629189,0.14216651333633853,,,,,,,,,,
2022-11-15 12:51:54.400798-07:00,9.59424,2.5,1.22,-2.17,0.31,16.1,969.67,37.03,25.0,0.0,8.62331e-05,-0.00048794,0.00110323,32.8213913,-111.787047,380.145105,-17.2085458,0.325666812,-0.0175115781,,,,,,,,,,,,,,2022-11-15 19:51:54.400798+00:00,1.1678456339913668,0.014500249428415775,2.4898358554070237,-1.7124086086125798,1.8074676605737523,0.31110323,313.453025468624,0.2650036687764956,0.16497926051018155,,,,,,,,0.9847399946275921,0.17403201711423646,,,,,,,,,,,,
2022-11-15 12:51:54.600341-07:00,9.793783,2.71,0.93,-2.53,0.23,16.4,969.66,36.35,23.0,0.0,0.000264386,-0.000337027,-0.000517796,32.8213912,-111.787047,380.14058800000004,-17.2007585,0.327177584,-0.0287317722,,,,,,,,,,,,,,2022-11-15 19:51:54.600341+00:00,1.166623608977105,0.014480526957061014,2.6959431124432474,-2.142161131261177,1.6368429836865903,0.22948220400000002,322.61625649394387,0.268441262033656,0.17711287998175082,,,,,,,,0.7867954871765243,0.6172137890218071,,,,,,,,,,,,
2022-11-15 12:51:54.800554-07:00,9.993996,2.76,1.31,-2.41,0.3,16.26,969.65,36.67,19.0,0.0,0.000414417,-0.000647454,0.000313801,32.8213911,-111.787047,380.139856,-17.185475,0.328689404,-0.0138478918,,,,,,,,,,,,,,2022-11-15 19:51:54.800554+00:00,1.1671759176484522,0.014489656138087347,2.7437762787804925,-1.9159886094554692,1.9639999787259228,0.300313801,314.29105244090385,0.26721677860033893,0.170556108134927,,,,,,,,0.8422439708672363,0.5390965530754115,,,,,,,,,,,,
2022-11-15 12:51:55.000696-07:00,10.194138,2.83,2.08,-1.88,0.39,15.53,969.66,38.43,19.0,0.0,0.00057323,-0.000773548,0.000451493,32.8213911,-111.787047,380.14657,-17.1814965,0.328408523,-0.019516102,,,,,,,,,,,,,,2022-11-15 19:51:55.000696+00:00,1.170139483093116,0.014537736260584331,2.8045577180688235,-1.1824452882980059,2.5431018725488075,0.39045149300000004,294.936629232004,0.26253765370009685,0.15301474525060357,,,,,,,,0.8034421821633637,0.5953827843669753,,,,,,,,,,,,
2022-11-15 12:51:55.201643-07:00,10.395085,2.74,1.49,-2.29,0.24,16.08,969.65,37.21,24.0,0.0,0.00061852,-6.81709e-05,0.000263682,32.821391,-111.787047,380.140985,-17.1680626,0.325839745,-0.0290472583,2.09679,-15.7746,6094.97,25.9473,11548.0,-0.086082,-1.0,22.0,-1222.0,82.0,,0.0,,2022-11-15 19:51:55.201643+00:00,1.167902300337581,0.014501470323474241,2.732587780075879,-1.7482212198613019,2.1001805975312418,0.24026368199999998,309.77449476438153,0.26604008589575356,0.1660669320186847,2.6689964452174673,303.0570257980254,-1.4457112386557625,2.213532477456771,0.32001043339999996,0.15927444242780375,0.2638988799775868,0.10955276801464657,0.993980981216607,-1.1945108655592236,0.2607386234167624,,,,,,,,,,
2022-11-15 12:51:55.400898-07:00,10.59434,2.59,1.9,-1.72,0.37,15.4,969.66,38.91,24.0,0.0,-1.09072e-05,-0.00105273,-0.000449308,32.8213909,-111.787046,380.138025,-17.1596957,0.325323261,-0.0172778175,,,,,,,,,,,,,,2022-11-15 19:51:55.400898+00:00,1.170666664284598,0.014546323860339182,2.563324086178869,-1.0839205025377698,2.3228746662192092,0.369550692,295.0151176087129,0.2613012015445269,0.1512589909811026,,,,,,,,0.9999463304943148,-0.010360315195716487,,,,,,,,,,,,
2022-11-15 12:51:55.600787-07:00,10.794229,2.52,1.66,-1.87,0.3,15.57,969.67,38.43,20.0,0.0,-5.58572e-06,-0.000464742,-0.000527501,32.8213908,-111.787046,380.13949,-17.145852,0.325518152,-0.020599154,,,,,,,,,,,,,,2022-11-15 19:51:55.600787+00:00,1.1699894348573112,0.014535142578326202,2.5007363629832726,-1.2979805731262661,2.137505272258671,0.299472499,301.2678349441245,0.26239868014721784,0.15547543575370085,,,,,,,,0.9999277800084413,-0.012018101655013304,,,,,,,,,,,,
2022-11-15 12:51:55.800525-07:00,10.993967,2.43,1.92,-1.45,0.33,15.35,969.65,39.02,19.0,0.0,0.000132395,0.000274317,-2.82075e-05,32.8213906,-111.787046,380.14351800000003,-17.1353849,0.32600956,-0.016129652,,,,,,,,,,,,,,2022-11-15 19:51:55.800525+00:00,1.1708574777353153,0.014549582802209145,2.406044304349493,-0.8196713211855361,2.262120270834111,0.3299717925,289.9178059206296,0.2594621610884285,0.14716180176274052,,,,,,,,0.9005952010540329,-0.43465881313789795,,,,,,,,,,,,
2022-11-15 12:51:56.000502-07:00,11.193944,2.44,1.86,-1.55,0.32,15.48,969.65,38.66,22.0,0.0,0.000398855,-0.000346945,0.000471288,32.8213905,-111.787046,380.146021,-17.122588,0.327118638,-0.0162946071,,,,,,,,,,,,,,2022-11-15 19:51:56.000502+00:00,1.170330119276023,0.014540991333098883,2.4216792029738157,-0.9340305018054773,2.234304630933952,0.320471288,292.686917634943,0.2600687104714525,0.14889593416573768,,,,,,,,0.6563021120464789,0.7544982025978133,,,,,,,,,,,,
2022-11-15 12:51:56.201643-07:00,11.395085,2.51,1.84,-1.68,0.27,15.57,969.66,38.38,25.0,0.0,0.000234416,-0.000347963,-0.000467861,32.8213905,-111.787046,380.147241,-17.114964,0.326898481,-0.0109441442,2.10221,-15.6293,6088.44,25.9479,11570.0,-0.1716,-1.0,18.0,-1241.0,82.0,,0.0,,2022-11-15 19:51:56.201643+00:00,1.169977369005683,0.014535095974096465,2.491946420154067,-1.0644576669308514,2.2531593011216047,0.269532139,295.28740607830605,0.2609358248847668,0.1510966937012686,2.603000635615474,296.7919202674719,-1.184540933925226,2.304867700828138,0.28366017270000005,0.15396962292120106,0.2620839275840906,0.8293556724170205,0.5587210114446314,1.2497271931523217,0.13382636654460334,,,,,,,,,,
2022-11-15 12:51:56.400304-07:00,11.593746,2.88,1.85,-2.2,0.22,15.44,969.65,38.75,21.0,0.0,0.000420396,-0.0011873,-0.000131886,32.8213904,-111.787046,380.14409800000004,-17.1067139,0.323049401,-0.0155941992,,,,,,,,,,,,,,2022-11-15 19:51:56.400304+00:00,1.1704923328134673,0.014543633774653881,2.8754535511603834,-1.5596743188981759,2.4157088284498136,0.219868114,302.8478386948207,0.2651179620115039,0.1614964910204857,,,,,,,,0.9426537271118539,0.33377230376729955,,,,,,,,,,,,
2022-11-15 12:51:56.601050-07:00,11.794492,2.83,1.8,-2.17,0.28,15.73,969.65,38.09,19.0,0.0,0.000584707,-2.04421e-05,-0.00154247,32.8213904,-111.787046,380.143457,-17.0987328,0.326517969,-0.0165513695,,,,,,,,,,,,,,2022-11-15 19:51:56.601050+00:00,1.1693173024322852,0.014524497935454307,2.8198796994396096,-1.5448708608060893,2.359045472801208,0.27845753,303.21963300866014,0.2648349794643015,0.1611971939557729,,,,,,,,0.03493992435328564,0.9993894144357277,,,,,,,,,,,,
2022-11-15 12:51:56.800540-07:00,11.993982,2.64,1.49,-2.17,0.23,15.83,969.65,37.92,21.0,0.0,0.000510139,-8.94763e-05,-0.000359051,32.8213903,-111.787046,380.141321,-17.0895938,0.325659561,-0.0121575734,,,,,,,,,,,,,,2022-11-15 19:51:56.800540+00:00,1.168912666366664,0.01451791111220989,2.632754604230258,-1.6364147484897993,2.0624120774037107,0.229640949,308.4301379958326,0.26482091586671924,0.16347043975032302,,,,,,,,0.1727586996271159,0.9849641778781337,,,,,,,,,,,,
2022-11-15 12:51:57.000454-07:00,12.193896,2.7,1.53,-2.21,0.2,16.21,969.65,37.08,25.0,0.0,0.000477312,0.000559494,0.00057808,32.8213902,-111.787046,380.145868,-17.0758802,0.328238604,-0.0147483429,,,,,,,,,,,,,,2022-11-15 19:51:57.000454+00:00,1.167377599967648,0.014492935912682319,2.6879648432208736,-1.6627503932583747,2.111969727081933,0.20057808000000002,308.2133020075386,0.26516230796450135,0.16419813149920956,,,,,,,,0.7607691420536126,-0.6490225824260741,,,,,,,,,,,,
2022-11-15 12:51:57.202147-07:00,12.395589,2.88,1.8,-2.23,0.25,15.77,969.66,38.06,23.0,0.0,0.000275528,0.000163038,0.000133898,32.8213902,-111.787046,380.141901,-17.060362,0.323954294,-0.0142300289,2.10034,-15.3752,6079.19,25.9489,11593.0,-0.168607,-1.0,20.0,-1228.0,82.0,,0.0,,2022-11-15 19:51:57.202147+00:00,1.1691674718929834,0.014521909001824193,2.8659528814944335,-1.6036262602093345,2.375303925082698,0.250133898,304.0242566168921,0.26532256119393793,0.16276612523190986,2.804782151099058,301.33081550618857,-1.4342372372458883,2.3821391591961016,0.292049754762,0.15923115826846193,0.2639678954375035,0.5092524388535368,-0.8606171933686456,2.447439402252485,0.19982440844618624,,,,,,,,,,
2022-11-15 12:51:57.400903-07:00,12.594345,2.9,2.06,-2.01,0.35,15.45,969.66,38.93,20.0,0.0,0.000302647,-0.000142244,-4.44759e-06,32.8213901,-111.787046,380.14617300000003,-17.0503265,0.325238871,-0.0202926525,,,,,,,,,,,,,,2022-11-15 19:51:57.400903+00:00,1.1704638460821926,0.014543019729712892,2.8784759507177626,-1.3177820331109573,2.5591159239218686,0.34999555240999997,297.2455888520077,0.2633695083957391,0.15625139761743526,,,,,,,,0.4253609193846204,0.9050238053555666,,,,,,,,,,,,
2022-11-15 12:51:57.601216-07:00,12.794658,2.99,2.4,-1.73,0.43,15.09,969.65,39.83,20.0,0.0,0.000239424,-1.77594e-05,-9.97056e-05,32.8213901,-111.787046,380.147577,-17.043364,0.326551026,-0.0291594162,,,,,,,,,,,,,,2022-11-15 19:51:57.601216+00:00,1.1719136217271668,0.01456679641670674,2.958762475831962,-0.950612751160975,2.801894142490298,0.4299002944,288.74079205867207,0.26116418376661976,0.14946969724343195,,,,,,,,0.07397230229787212,0.9972602962580793,,,,,,,,,,,,
2022-11-15 12:51:57.800283-07:00,12.993725,3.03,2.37,-1.83,0.46,15.1,969.65,39.89,24.0,0.0,-4.37307e-05,0.00015116,-0.000151735,32.82139,-111.787046,380.145258,-17.0352839,0.326172016,-0.0185015854,,,,,,,,,,,,,,2022-11-15 19:51:57.800283+00:00,1.1718729655737676,0.014566133597011161,2.994200374119384,-1.0552401932945576,2.802089223210482,0.45984826500000003,290.6358974849232,0.26189796538635135,0.151248421676676,,,,,,,,0.9606086244999092,0.27790478681806174,,,,,,,,,,,,
2022-11-15 12:51:58.000698-07:00,13.19414,2.86,2.21,-1.77,0.43,15.27,969.65,39.42,25.0,0.0,-3.34801e-05,-0.000270863,4.16702e-05,32.82139,-111.787046,380.148798,-17.0289558,0.329331905,-0.0268870573,,,,,,,,,,,,,,2022-11-15 19:51:58.000698+00:00,1.171182242308573,0.01455487493850847,2.8314996162865893,-1.0454590755674396,2.6314264949537876,0.4300416702,291.6677991345589,0.2614329230112018,0.15109541146498262,,,,,,,,0.9924473007584866,-0.12267173764642753,,,,,,,,,,,,
2022-11-15 12:51:58.201324-07:00,13.394766,2.74,1.96,-1.88,0.37,15.4,969.66,39.08,20.0,0.0,0.000231502,0.000381915,0.000353359,32.8213899,-111.787046,380.15493200000003,-17.0215712,0.328034079,-0.0244199881,2.10288,-15.0484,6063.34,25.95,11545.0,-0.0769703,-1.0,22.0,-1195.0,82.0,,0.0,,2022-11-15 19:51:58.201324+00:00,1.170666664284598,0.014546323860339182,2.7159138235300215,-1.2235097840641858,2.4247085814878186,0.370353359,296.775545989749,0.2622634871825189,0.15444124314938498,2.758174155644991,297.5333158126206,-1.2539717418133067,2.429552183037542,0.37635355164,0.15554120626813256,0.26257697762885424,0.8551597534021724,-0.5183645398376857,2.7276697306386106,0.13385206679868056,,,,,,,,,,
2022-11-15 12:51:58.400964-07:00,13.594406,2.58,1.85,-1.77,0.35,15.4,969.65,39.07,20.0,0.0,0.000721219,-0.000476853,0.000495934,32.8213898,-111.787046,380.16195100000004,-17.0109892,0.329365453,-0.021676543,,,,,,,,,,,,,,2022-11-15 19:51:58.400964+00:00,1.170654591324341,0.01454627718257329,2.561210156787424,-1.1518100196269914,2.2876038000313623,0.35049593399999995,296.7252847540845,0.26140094878389397,0.1530799956138434,,,,,,,,0.5515255874012069,0.8341579745118749,,,,,,,,,,,,
2022-11-15 12:51:58.601123-07:00,13.794565,2.7,1.39,-2.3,0.27,15.97,969.66,37.72,22.0,0.0,0.000219529,-0.000729512,0.00102853,32.8213898,-111.787046,380.160974,-16.9998324,0.329497533,-0.0265141049,,,,,,,,,,,,,,2022-11-15 19:51:58.601123+00:00,1.1683586952798861,0.014508746082733857,2.6880468075015345,-1.7938396365133586,2.00193281550426,0.27102853000000005,311.86205169978723,0.2658895637803051,0.16784095943577573,,,,,,,,0.9575819345547774,0.2881611330737199,,,,,,,,,,,,
2022-11-15 12:51:58.801099-07:00,13.994541,2.57,1.36,-2.17,0.25,16.06,969.66,37.52,24.0,0.0,-5.60318e-06,0.000142496,0.000153233,32.8213898,-111.787046,380.154382,-16.990614,0.328052445,-0.0272870537,,,,,,,,,,,,,,2022-11-15 19:51:58.801099+00:00,1.1679951107476252,0.014502830599421486,2.5608592617630945,-1.6777302720852383,1.934740626721477,0.250153233,310.9305309604237,0.26466835739410344,0.16486749963454403,,,,,,,,0.999227798688255,0.03929130092812244,,,,,,,,,,,,
2022-11-15 12:51:59.000481-07:00,14.193923,2.62,1.64,-2.02,0.33,15.85,969.66,38.03,21.0,0.0,0.000552482,-0.000852773,5.26632e-05,32.8213898,-111.787046,380.15011000000004,-16.9820963,0.325825508,-0.0290154452,,,,,,,,,,,,,,2022-11-15 19:51:59.000481+00:00,1.1688438269180648,0.014516640951397736,2.6028569100898156,-1.4537733328260858,2.1590292242501112,0.33005266320000004,303.95418934275676,0.26334188203247383,0.1594693015131086,,,,,,,,0.83926133040191,0.5437282586844426,,,,,,,,,,,,
2022-11-15 12:51:59.201471-07:00,14.394913,2.96,2.13,-2.01,0.39,15.41,969.66,39.11,19.0,0.0,0.000770483,-0.000466049,-0.00117101,32.8213897,-111.787046,380.14299900000003,-16.9726303,0.32348545,-0.0369541274,2.10056,-15.2505,6053.39,25.9511,11524.0,-0.032713,-1.0,20.0,-1196.0,82.0,,0.0,,2022-11-15 19:51:59.201471+00:00,1.1706260950212113,0.014545662913385046,2.9295488771311,-1.3011404761303336,2.6247457181364098,0.38882899000000004,296.36856154924465,0.26324188182226427,0.1561837408508005,2.757563352291609,301.04516302669043,-1.4032011640840882,2.3585558534950373,0.33416933344000005,0.15852832417146492,0.26341845635490646,0.5175620985601184,0.8556456475282547,0.020056148451012223,0.19747627441738708,,,,,,,,,,
2022-11-15 12:51:59.400812-07:00,14.594254,2.89,2.09,-1.96,0.34,15.57,969.66,38.81,21.0,0.0,0.000560139,-0.000605415,7.0801e-05,32.8213897,-111.787046,380.14470800000004,-16.9611589,0.32469989,-0.0350634753,,,,,,,,,,,,,,2022-11-15 19:51:59.400812+00:00,1.169977369005683,0.014535095974096465,2.8660273062870196,-1.2656489691736332,2.5714286315611696,0.34007080100000003,296.2062640881085,0.26280610008932015,0.15549309660962435,,,,,,,,0.734020790328022,0.6791269979659371,,,,,,,,,,,,
2022-11-15 12:51:59.601201-07:00,14.794643,2.85,2.01,-1.99,0.36,15.67,969.64,38.52,25.0,0.0,2.64974e-05,-8.26002e-05,0.00174098,32.8213896,-111.787046,380.150079,-16.9484848,0.323919072,-0.0333776856,,,,,,,,,,,,,,2022-11-15 19:51:59.601201+00:00,1.1695481568934158,0.014528406356594416,2.8285244061870167,-1.3177127702051508,2.5028350668060177,0.36174098,297.76626919291857,0.26303406043637045,0.15662798224924707,,,,,,,,0.9522052706110916,0.30545887222416335,,,,,,,,,,,,
2022-11-15 12:51:59.800939-07:00,14.994381,2.79,1.89,-2.03,0.33,15.67,969.66,38.45,22.0,0.0,-2.70026e-05,-8.13784e-05,0.000647412,32.8213896,-111.787046,380.153772,-16.9366015,0.324681426,-0.035160342,,,,,,,,,,,,,,2022-11-15 19:51:59.800939+00:00,1.1695722802413986,0.0145284994773011,2.773643250839482,-1.3914533202082662,2.3993654454060978,0.33064741200000003,300.1105410401976,0.2633524150842463,0.158257750250734,,,,,,,,0.949114641906108,-0.31493078052080026,,,,,,,,,,,,
2022-11-15 12:52:00.000395-07:00,15.193837,2.93,1.91,-2.2,0.31,15.73,969.65,38.46,19.0,0.0,0.0003948,-0.000266303,0.00252903,32.8213895,-111.787046,380.155237,-16.9303841,0.324580885,-0.0247627115,,,,,,,,,,,,,,2022-11-15 19:52:00.000395+00:00,1.1693173024322852,0.014524497935454307,2.9139103578479375,-1.5487064926601053,2.4682750602730503,0.31252903,302.10600422459567,0.26484944497514096,0.16188607598353486,,,,,,,,0.5592030603816831,0.8290307215415842,,,,,,,,,,,,
2022-11-15 12:52:00.202058-07:00,15.3955,2.98,2.13,-2.04,0.41,15.32,969.65,39.47,19.0,0.0,0.000485562,-6.14908e-05,-0.000594684,32.8213895,-111.787046,380.148187,-16.9175507,0.324868253,-0.0318586786,2.09915,-15.0701,6039.37,25.9523,11572.0,-0.047977,-1.0,20.0,-1237.0,82.0,,0.0,,2022-11-15 19:52:00.202058+00:00,1.170979243341209,0.014551566899571055,2.9497829591629476,-1.3319595321469861,2.6319390781115923,0.40940531599999996,296.8428481705506,0.2634068886313819,0.15704361474296005,2.898705452782712,300.5131680705721,-1.4674346836967394,2.4888457167266647,0.3484047148,0.1602848977759831,0.26423322038952773,0.12563499551680157,0.9920765332883816,-1.143121393366029,0.2600748288445703,,,,,,,,,,
2022-11-15 12:52:00.400921-07:00,15.594363,2.94,2.16,-1.95,0.43,15.32,969.65,39.43,24.0,0.0,0.000104595,-0.000234067,-0.000112067,32.8213895,-111.787046,380.154626,-16.9091309,0.324673288,-0.025453161,,,,,,,,,,,,,,2022-11-15 19:52:00.400921+00:00,1.170979243341209,0.014551566899571055,2.910194206476189,-1.237684102417285,2.6338884528451647,0.429887933,295.16918635201034,0.26263637427283537,0.15513152048256615,,,,,,,,0.9129914619823201,0.40797866408353495,,,,,,,,,,,,
2022-11-15 12:52:00.601166-07:00,15.794608,2.96,1.68,-2.42,0.26,16.02,969.66,37.76,23.0,0.0,-0.000129594,-0.00018997,-0.000446117,32.8213895,-111.787046,380.15346700000003,-16.8982443,0.322526273,-0.025983668,,,,,,,,,,,,,,2022-11-15 19:52:00.601166+00:00,1.1681566759322224,0.014505459103760726,2.945996489587002,-1.827369971051054,2.3107605469974186,0.259553883,308.33726056550614,0.26692097898403416,0.16910552742012042,,,,,,,,0.8260876619619216,-0.5635416353334383,,,,,,,,,,,,
2022-11-15 12:52:00.800919-07:00,15.994361,3.08,2.14,-2.18,0.38,15.51,969.66,39.03,19.0,0.0,-0.000375139,5.88009e-05,-0.000192066,32.8213895,-111.787046,380.15123900000003,-16.8848986,0.324969464,-0.0288470017,,,,,,,,,,,,,,2022-11-15 19:52:00.800919+00:00,1.1702205569851063,0.014539056765750706,3.054474829094628,-1.4643987782848573,2.6805508202103674,0.379807934,298.64800813329947,0.2645962148018809,0.1600852592326837,,,,,,,,0.1548535617208143,0.987937434467577,,,,,,,,,,,,
2022-11-15 12:52:01.000776-07:00,16.194218,3.14,2.38,-1.99,0.45,15.11,969.66,40.05,19.0,0.0,6.69063e-05,-0.000179339,-0.000659816,32.8213895,-111.787046,380.146783,-16.8735846,0.327240226,-0.0223225162,,,,,,,,,,,,,,2022-11-15 19:52:01.000776+00:00,1.1718443973472585,0.014565517642118362,3.102469556591014,-1.213683607608272,2.855221436280733,0.44934018400000003,293.0291377067922,0.26290975371041414,0.15479119949347478,,,,,,,,0.9369218199386083,0.3495389868425638,,,,,,,,,,,,
2022-11-15 12:52:01.201749-07:00,16.395191,3.16,2.23,-2.2,0.41,15.16,969.65,40.03,21.0,0.0,0.000416971,1.70325e-05,-0.000461256,32.8213894,-111.787046,380.151422,-16.8597555,0.330338892,-0.0330626564,2.10003,-15.106,6032.63,25.9533,11572.0,0.0212897,-1.0,20.0,-1237.0,82.0,,0.0,,2022-11-15 19:52:01.201749+00:00,1.1716290878798463,0.014562157952682444,3.1329159502329644,-1.4586545216635656,2.7726322038190627,0.40953874399999995,297.7484163296488,0.2647415019875678,0.1600443647659124,3.082118934116434,296.47704302125874,-1.3731623435724918,2.757079730553431,0.3980690386,0.15820134682448386,0.2639786697908203,0.040814128026115844,-0.9991667563292265,1.4845459698417822,0.2635390677194526,,,,,,,,,,
2022-11-15 12:52:01.401089-07:00,16.594531,3.1,2.19,-2.16,0.39,15.21,969.66,39.86,24.0,0.0,0.000140735,0.000837503,0.000770913,32.8213894,-111.787046,380.15361900000005,-16.8514091,0.331200304,-0.0203246924,,,,,,,,,,,,,,2022-11-15 19:52:01.401089+00:00,1.1714380149095602,0.014558893343485627,3.0757222986062867,-1.431551104948909,2.7222654338002195,0.390770913,297.7384264764501,0.2643619322459119,0.15948018337914702,,,,,,,,0.9861732285054438,-0.1657177219827435,,,,,,,,,,,,
2022-11-15 12:52:01.600800-07:00,16.794242,3.07,2.26,-2.04,0.36,15.21,969.65,39.92,21.0,0.0,0.000606209,0.000170011,0.000887418,32.8213894,-111.787046,380.154779,-16.8421596,0.332111104,-0.0216906836,,,,,,,,,,,,,,2022-11-15 19:52:01.600800+00:00,1.1714259339944466,0.014558846582980131,3.0450120360572757,-1.2975237053568554,2.7547287586567744,0.36088741799999996,295.2212264601031,0.26328394620832707,0.15660572725120137,,,,,,,,0.27003122294482035,-0.9628515662525168,,,,,,,,,,,,
2022-11-15 12:52:01.800971-07:00,16.994413,3.09,2.2,-2.13,0.39,15.34,969.65,39.56,19.0,0.0,0.000422521,0.000386738,0.00128623,32.8213894,-111.787046,380.152277,-16.8319281,0.332404745,-0.0188695152,,,,,,,,,,,,,,2022-11-15 19:52:01.800971+00:00,1.1708980634567527,0.014550244107515263,3.0623711057777845,-1.401316929436383,2.722944665757576,0.39128623,297.23184112556737,0.264060219573803,0.15886835132759117,,,,,,,,0.6751809300182563,-0.737652161753548,,,,,,,,,,,,
2022-11-15 12:52:02.000676-07:00,17.194118,2.9,2.0,-2.06,0.4,15.42,969.65,39.36,20.0,0.0,0.000315715,0.000488943,0.000378056,32.8213894,-111.787046,380.147668,-16.8233686,0.33152569,-0.0193037491,,,,,,,,,,,,,,2022-11-15 19:52:02.000676+00:00,1.1705734564460566,0.01454495535778577,2.8712059189299617,-1.3925017678415756,2.5109285643873926,0.40037805600000004,299.01171704693655,0.2634268298868044,0.15870798985646387,,,,,,,,0.8400868954804709,-0.5424518485930198,,,,,,,,,,,,
2022-11-15 12:52:02.201340-07:00,17.394782,2.86,1.89,-2.12,0.38,15.46,969.66,39.32,24.0,0.0,0.000277207,0.000575695,0.000195695,32.8213894,-111.787046,380.140009,-16.8129987,0.331176968,-0.0213327157,2.10039,-14.7363,6027.55,25.9549,11587.0,0.0465825,-1.0,20.0,-1251.0,82.0,,0.0,,2022-11-15 19:52:02.201340+00:00,1.1704232908746086,0.014542359084790617,2.840094411678699,-1.4821220075259627,2.422694908992006,0.380195695,301.4568710107612,0.26394056842090147,0.16076443732122353,2.8167752110702304,301.3978840703975,-1.458456587641728,2.405097844395882,0.35812017620000003,0.16023551091180183,0.26369136928068726,0.9009891176438836,-0.4338416875858014,2.7997062519225686,0.13922326426203338,,,,,,,,,,
2022-11-15 12:52:02.401210-07:00,17.594652,2.73,1.73,-2.08,0.32,15.91,969.67,38.16,23.0,0.0,0.000410868,0.000240596,-0.000395555,32.8213894,-111.787046,380.140466,-16.8008486,0.32950404,-0.014900448,,,,,,,,,,,,,,2022-11-15 19:52:02.401210+00:00,1.1686132624091983,0.014512738893645773,2.7056307309892027,-1.490925516702046,2.2577818220811117,0.319604445,303.43876513686195,0.26356573944694084,0.16100401260992064,,,,,,,,0.5053166982053408,-0.8629339688034379,,,,,,,,,,,,
2022-11-15 12:52:02.600525-07:00,17.793967,2.62,1.58,-2.07,0.3,16.01,969.67,37.99,19.0,0.0,0.000492222,-0.000139995,-0.000863545,32.8213894,-111.787046,380.13698700000003,-16.791976,0.330407803,-0.0190210833,,,,,,,,,,,,,,2022-11-15 19:52:02.600525+00:00,1.168209121704257,0.014506162793411496,2.604573887975504,-1.5254167167026722,2.1111392607613246,0.29913645499999997,305.8502260318602,0.26346348907498646,0.16183276344380987,,,,,,,,0.2735649471322831,0.9618535333929543,,,,,,,,,,,,
2022-11-15 12:52:02.800875-07:00,17.994317,2.78,1.49,-2.33,0.22,16.03,969.66,37.9,20.0,0.0,0.00109578,0.000529534,-0.000969156,32.8213893,-111.787046,380.14016100000003,-16.7847562,0.327174625,-0.0147810331,,,,,,,,,,,,,,2022-11-15 19:52:02.800875+00:00,1.168116280445815,0.014504801887796598,2.7661698382591102,-1.7999261286726864,2.1004669731790093,0.219030844,310.59383817085455,0.26586731378190975,0.16877846676005132,,,,,,,,0.4351067144598407,-0.9003788908187278,,,,,,,,,,,,
2022-11-15 12:52:03.000543-07:00,18.193985,2.92,1.8,-2.29,0.15,16.0,969.66,38.01,24.0,0.0,0.000942521,0.000364108,0.000192583,32.8213893,-111.787046,380.146661,-16.7809126,0.326838833,-0.0225824269,,,,,,,,,,,,,,2022-11-15 19:52:03.000543+00:00,1.1682374752872928,0.014506773715495518,2.9133104445141442,-1.6724347674175235,2.385443291056883,0.150192583,305.03430490679835,0.26547294494487,0.16547562162315937,,,,,,,,0.36035808059718455,-0.9328140510028314,,,,,,,,,,,,
2022-11-15 12:52:03.201639-07:00,18.395081,2.67,1.61,-2.12,0.16,16.29,969.65,36.77,24.0,0.0,0.00014484,0.00107577,-0.000693691,32.8213893,-111.787046,380.14144300000004,-16.7701208,0.327462746,-0.014259891,2.09689,-14.9928,6022.28,25.9558,11540.0,0.0978541,-1.0,23.0,-1233.0,82.0,,0.0,,2022-11-15 19:52:03.201639+00:00,1.1670549417034222,0.014487688990286927,2.6615328511773195,-1.5642234658896146,2.153360644819245,0.159306309,305.9950430454605,0.26387261696034037,0.16286344938018535,2.674824198177439,306.473838336227,-1.5892060189783888,2.148651651270865,0.2196821156,0.16355694000297338,0.26411382080449314,0.9910576396013019,-0.1334344595218792,2.3414924800452415,0.16071366080309737,,,,,,,,,,
2022-11-15 12:52:03.400269-07:00,18.593711,2.59,1.64,-1.98,0.3,15.89,969.65,37.72,20.0,0.0,0.000722395,0.00023839,-0.000497398,32.8213893,-111.787046,380.149316,-16.7650537,0.325283693,-0.0196720791,,,,,,,,,,,,,,2022-11-15 19:52:03.400269+00:00,1.1686700191206703,0.014513961902822198,2.5714618651473384,-1.4225484444168324,2.1421419297502857,0.299502602,303.58724554720106,0.2626445801028703,0.15958008080211641,,,,,,,,0.31337703929301375,-0.9496287860232254,,,,,,,,,,,,
2022-11-15 12:52:03.601235-07:00,18.794677,2.48,1.45,-1.99,0.27,15.89,969.66,37.7,19.0,0.0,-0.000262018,0.000628984,0.00037824,32.8213893,-111.787046,380.14873700000004,-16.7545598,0.325296396,-0.0262967562,,,,,,,,,,,,,,2022-11-15 19:52:03.601235+00:00,1.1686820716140351,0.01451400836809204,2.4616459917892843,-1.4868972884952858,1.9618454175488997,0.27037824,307.1587600108206,0.2627116482324751,0.1610870814493545,,,,,,,,0.9231074882748934,0.3845420199286646,,,,,,,,,,,,
2022-11-15 12:52:03.800424-07:00,18.993866,2.52,1.8,-1.72,0.36,15.43,969.68,39.47,23.0,0.0,0.000847508,-0.000568989,0.000418775,32.8213893,-111.787046,380.14418900000004,-16.7479716,0.325191189,-0.0196869368,,,,,,,,,,,,,,2022-11-15 19:52:03.800424+00:00,1.17056910833975,0.014544434531169438,2.490671958061308,-1.1289170153898,2.220133593961484,0.36041877499999997,296.95290743067414,0.2605559985681631,0.1536483176927692,,,,,,,,0.5573990176956053,0.8302447440797047,,,,,,,,,,,,
2022-11-15 12:52:04.000508-07:00,19.19395,2.58,1.65,-1.94,0.36,15.45,969.67,38.83,24.0,0.0,0.000308683,-0.000318277,0.000167403,32.8213893,-111.787046,380.141504,-16.734479,0.326153823,-0.0328780445,,,,,,,,,,,,,,2022-11-15 19:52:04.000508+00:00,1.170475916950807,0.014543066386068629,2.5472143137585603,-1.383062288320714,2.1390276919295745,0.360167403,302.8860850937128,0.2622584245104225,0.15880978498099127,,,,,,,,0.7178431786992857,0.6962048339353192,,,,,,,,,,,,
2022-11-15 12:52:04.202246-07:00,19.395688,2.69,1.61,-2.14,0.28,15.86,969.68,38.41,21.0,0.0,-7.54184e-05,-0.000222871,-0.00111747,32.8213893,-111.787046,380.136652,-16.7237525,0.329059274,-0.024452048,2.09953,-14.7031,6029.1,25.9567,11542.0,0.134278,-1.0,21.0,-1225.0,82.0,,0.0,,2022-11-15 19:52:04.202246+00:00,1.1688274913832915,0.014516075672966195,2.678074238730954,-1.5864182132248614,2.1576280682506,0.27888253,306.32556746223645,0.26398017513385585,0.16353326759326384,2.6413268735209456,306.18358037963947,-1.559879933852193,2.11452603282554,0.2942975012,0.16335489598720027,0.2637642870813614,0.9472351490590185,-0.32053950206977455,2.5029565191782903,0.1490552683287899,,,,,,,,,,
2022-11-15 12:52:04.401237-07:00,19.594679,2.69,1.38,-2.29,0.22,16.04,969.66,37.4,19.0,0.0,0.000581372,-0.000793975,0.000303608,32.8213893,-111.787046,380.143365,-16.7145179,0.326463312,-0.0240877867,,,,,,,,,,,,,,2022-11-15 19:52:04.401237+00:00,1.168075887753106,0.014504144731757337,2.6746319518622435,-1.7971482483652854,1.980887238416165,0.220303608,312.21570097757456,0.265375044023252,0.16891143202552975,,,,,,,,0.8068294584270264,0.5907844150063128,,,,,,,,,,,,
2022-11-15 12:52:04.600550-07:00,19.793992,2.82,1.44,-2.42,0.25,15.94,969.67,37.64,21.0,0.0,0.000162598,0.000153033,0.00171519,32.8213893,-111.787046,380.149316,-16.7034341,0.326184291,-0.0269577038,,,,,,,,,,,,,,2022-11-15 19:52:04.600550+00:00,1.1684919908402327,0.014510765433715702,2.816041905191662,-1.9038539039603046,2.0749535715698775,0.25171519,312.5376409339991,0.26665179317111365,0.1718716776434472,,,,,,,,0.6853637211223126,-0.7282009130517326,,,,,,,,,,,,
2022-11-15 12:52:04.800351-07:00,19.993793,2.65,1.67,-2.02,0.36,15.52,969.67,38.71,24.0,0.0,1.63584e-05,-5.64577e-05,0.00160073,32.8213893,-111.787046,380.14296900000005,-16.6954,0.326521351,-0.0227310869,,,,,,,,,,,,,,2022-11-15 19:52:04.800351+00:00,1.1701920865763775,0.014538443108940213,2.62097989781193,-1.4551408486211521,2.17993136025159,0.36160073,303.7237767256415,0.2628702736214422,0.1605593635163391,,,,,,,,0.9604943409394187,0.2782995167501226,,,,,,,,,,,,
2022-11-15 12:52:05.000896-07:00,20.194338,2.45,1.42,-1.95,0.41,15.74,969.66,38.12,22.0,0.0,0.000303716,1.98705e-05,0.00164767,32.8213893,-111.787046,380.150751,-16.6870928,0.32841634,-0.0245851466,,,,,,,,,,,,,,2022-11-15 19:52:05.000896+00:00,1.1692888849711678,0.014523885512706662,2.412469360447832,-1.4601146474841884,1.9204357920278654,0.41164766999999997,307.2458661963113,0.2622613210499186,0.1607040763678906,,,,,,,,0.065285034044072,-0.9978666565878751,,,,,,,,,,,,
2022-11-15 12:52:05.201300-07:00,20.394742,2.51,0.96,-2.3,0.33,16.2,969.67,37.01,19.0,0.0,0.000408373,-0.000418655,0.00252862,32.8213894,-111.787046,380.155145,-16.6781559,0.328734478,-0.026130377,2.09771,-15.6112,6035.04,25.9577,11592.0,0.0381352,-1.0,21.0,-1219.0,82.0,,0.0,,2022-11-15 19:52:05.201300+00:00,1.1674420239571555,0.014493684710219773,2.4928908249051513,-1.9281466986251397,1.5801123293858765,0.33252862,320.66545053559815,0.2654186754267634,0.17261685398159676,2.548261717217186,310.5106031343815,-1.6454010431967343,1.9297472222067054,0.31950748399999995,0.16534461090893804,0.2638674112766107,0.7158425439229661,0.6982617362493067,0.23247457142375327,0.15404721013196387,,,,,,,,,,
2022-11-15 12:52:05.401033-07:00,20.594475,2.79,1.51,-2.33,0.27,16.14,969.67,37.23,19.0,0.0,0.000362457,0.000443339,0.000937384,32.8213894,-111.787046,380.15069,-16.6729346,0.328194988,-0.026202671,,,,,,,,,,,,,,2022-11-15 19:52:05.401033+00:00,1.167684156493494,0.014497622823149236,2.776497535325216,-1.798367980002506,2.1153749483646407,0.270937384,310.3692421682277,0.2657054129896362,0.16912017880738517,,,,,,,,0.7741925262967063,-0.6329501814726999,,,,,,,,,,,,
2022-11-15 12:52:05.600521-07:00,20.793963,2.45,1.32,-2.05,0.22,16.33,969.67,36.79,24.0,0.0,0.000437838,0.000120379,0.000823016,32.8213894,-111.787046,380.150262,-16.6648979,0.33048969,-0.0179161234,,,,,,,,,,,,,,2022-11-15 19:52:05.600521+00:00,1.1669177477960582,0.014485159513962212,2.4384709675958036,-1.585235041250685,1.8528816810035533,0.220823016,310.5486800461288,0.2630813732952931,0.16372258187147865,,,,,,,,0.26510232896945046,-0.9642202835322297,,,,,,,,,,,,
2022-11-15 12:52:05.800705-07:00,20.994147,2.55,1.05,-2.32,0.19,16.44,969.66,36.49,24.0,0.0,0.000354471,-0.000755693,0.000141181,32.8213894,-111.787046,380.148096,-16.6553582,0.327702144,-0.0206759035,,,,,,,,,,,,,,2022-11-15 19:52:05.800705+00:00,1.1664624675552357,0.014477907537085102,2.547349549430044,-1.9224777888112747,1.671247701122955,0.190141181,318.99892622650935,0.26558126996343756,0.17252644475535578,,,,,,,,0.9053484489377785,0.42466950209069476,,,,,,,,,,,,
2022-11-15 12:52:06.000542-07:00,21.193984,2.65,0.97,-2.45,0.28,16.43,969.67,36.51,20.0,0.0,3.29858e-05,-0.000595613,0.000519899,32.8213895,-111.787046,380.14348800000005,-16.6466033,0.327112915,-0.0286377537,,,,,,,,,,,,,,2022-11-15 19:52:06.000542+00:00,1.1665147787554488,0.014478608535549215,2.63552141837943,-2.070042107175446,1.6312261710925815,0.280519899,321.7613267350045,0.26688183170994073,0.17677548865305,,,,,,,,0.9984699765078257,0.055296528032618246,,,,,,,,,,,,
2022-11-15 12:52:06.201532-07:00,21.394974,2.54,0.65,-2.41,0.47,16.59,969.67,36.23,19.0,0.0,0.000620078,-0.00112614,-0.000960804,32.8213895,-111.787046,380.135065,-16.635527,0.325840613,-0.0313906038,2.09819,-15.3997,6039.24,25.959,11548.0,0.0286745,-1.0,21.0,-1201.0,82.0,,0.0,,2022-11-15 19:52:06.201532+00:00,1.165870606861334,0.014468139365078287,2.4974009177940717,-2.1241725350736176,1.3133553919018237,0.469039196,328.2718979392989,0.26645534987458763,0.17839365225987902,2.5989114346336506,323.31839798030484,-2.0793870442102937,1.5524309260584537,0.30710383919999995,0.1771282871670456,0.2667442714692546,0.8759855544789965,0.48233733874138857,0.3569410524359413,0.1494165099900466,,,,,,,,,,
2022-11-15 12:52:06.400730-07:00,21.594172,2.53,0.77,-2.37,0.42,16.42,969.68,36.67,21.0,0.0,0.000379509,-0.000434318,-0.00214455,32.8213895,-111.787046,380.134515,-16.6252405,0.327429322,-0.038175134,,,,,,,,,,,,,,2022-11-15 19:52:06.400730+00:00,1.1665670935686883,0.01447930960254025,2.492520062971655,-2.0510552323401545,1.416272819129951,0.41785544999999996,325.3745583320111,0.2660355066872815,0.17629692376720846,,,,,,,,0.7530226775395905,0.6579945646516435,,,,,,,,,,,,
2022-11-15 12:52:06.600403-07:00,21.793845,2.82,1.02,-2.63,0.18,16.56,969.67,36.35,25.0,0.0,0.000632015,-0.000644396,-0.00203653,32.8213895,-111.787046,380.131372,-16.6146815,0.327982237,-0.0347404053,,,,,,,,,,,,,,2022-11-15 19:52:06.600403+00:00,1.165991334893524,0.014470101173695736,2.821765224593052,-2.2291875576509774,1.7300525470449581,0.17796346999999998,322.1852806687002,0.2687673991110258,0.18164892639973462,,,,,,,,0.7139320284065177,0.7002150089903495,,,,,,,,,,,,
2022-11-15 12:52:06.800485-07:00,21.993927,2.75,0.9,-2.58,0.31,16.43,969.68,36.65,21.0,0.0,0.000323075,-0.000456475,-0.000450499,32.8213895,-111.787046,380.13381300000003,-16.6021211,0.32708558,-0.0375899221,,,,,,,,,,,,,,2022-11-15 19:52:06.800485+00:00,1.1665268087736897,0.014478654768766348,2.7330306214350615,-2.215749968706964,1.5999713915807388,0.309549501,324.16731772218543,0.2682032372915586,0.1812837723165767,,,,,,,,0.8162449427639229,0.5777059748802328,,,,,,,,,,,,
2022-11-15 12:52:07.000933-07:00,22.194375,2.81,0.94,-2.63,0.25,16.6,969.69,36.3,19.0,0.0,0.000631117,-0.000461017,-0.000800985,32.8213895,-111.787046,380.134882,-16.5905145,0.326185756,-0.0353663416,,,,,,,,,,,,,,2022-11-15 19:52:07.000933+00:00,1.1658544156595936,0.014467577868716991,2.793682535475413,-2.2525758159188527,1.6524419210846248,0.249199015,323.737016590885,0.2687375796987197,0.1824516572976684,,,,,,,,0.5898632061244091,0.807503187647351,,,,,,,,,,,,
2022-11-15 12:52:07.201368-07:00,22.39481,2.73,1.07,-2.49,0.28,16.54,969.67,35.78,21.0,0.0,0.000551401,-0.00017117,0.000403005,32.8213896,-111.787046,380.13476,-16.5826296,0.325649785,-0.0293254151,2.09941,-15.2202,6047.17,25.9604,11514.0,0.0389289,-1.0,18.0,-1217.0,82.0,,0.0,,2022-11-15 19:52:07.201368+00:00,1.1660718341399527,0.014471409343615033,2.7106507302362797,-2.0812342691561465,1.7366897530130578,0.28040300500000004,320.1566288315585,0.26721335915097133,0.1773268979425333,2.7537445661847433,322.9068560712437,-2.1959375110731094,1.6601744814351638,0.25017791082,0.18076584253189562,0.26816791522716116,0.2964711795936357,0.9550417999597495,-1.6050182263320592,0.24511274741423236,,,,,,,,,,
2022-11-15 12:52:07.401388-07:00,22.59483,2.87,1.01,-2.68,0.23,16.44,969.67,35.96,25.0,0.0,0.000423202,0.000251562,3.36231e-05,32.8213896,-111.787046,380.14745500000004,-16.5772414,0.32058183,-0.0352441819,,,,,,,,,,,,,,2022-11-15 19:52:07.401388+00:00,1.1664744971580612,0.014477953765678037,2.864056461043278,-2.280196094604787,1.7330681412433915,0.2300336231,322.76326892621717,0.269280200199658,0.1833716761526986,,,,,,,,0.5109679105870991,-0.8595997873139886,,,,,,,,,,,,
