Timestamp,Seconds,S,Um,Vm,Wm,T,P,H,MD,Sts,Vx,Vy,Vz,Lat,Lon,Alt,Yaw,Roll,Pitch,CH4,C2H6,H20,T_a,Batt,R,C2C1,Power,Current,SOC,Lat_a,Lon_a,TS,Timestamp_UTC
2022-11-15 12:51:44.806558-07:00,0.0,2.77,2.12,-1.74,0.44,15.22,969.67,38.94,24.0,0.0,0.000771861,-0.00105006,0.000646424,32.8213941,-111.787046,379.291962,-17.7951374,0.327217309,-0.0248439935,,,,,,,,,,,,,,2022-11-15 19:51:44.806558+00:00
2022-11-15 12:51:45.000835-07:00,0.194277,2.8,2.17,-1.72,0.44,15.28,969.66,38.79,23.0,0.0,0.000493394,-0.000192698,0.00155748,32.8213941,-111.787046,379.29361,-17.7815966,0.328670815,-0.025179123,,,,,,,,,,,,,,2022-11-15 19:51:45.000835+00:00
2022-11-15 12:51:45.200480-07:00,0.393922,2.85,2.08,-1.9,0.44,15.39,969.67,38.48,19.0,0.0,0.000252027,-0.00128034,-0.000807068,32.821394,-111.787047,379.285065,-17.7658573,0.325958083,-0.0316353334,2.09536,-15.8842,6120.4,25.9368,11585.0,0.435488,-1.0,19.0,-1229.0,82.0,,0.0,,2022-11-15 19:51:45.200480+00:00
2022-11-15 12:51:45.400728-07:00,0.59417,2.81,2.02,-1.92,0.4,15.33,969.66,38.77,20.0,0.0,0.000235678,0.000168902,-0.00108872,32.8213939,-111.787047,379.282349,-17.7528708,0.326958181,-0.0379733433,,,,,,,,,,,,,,2022-11-15 19:51:45.400728+00:00
2022-11-15 12:51:45.600960-07:00,0.794402,2.82,1.89,-2.04,0.42,15.22,969.67,39.04,22.0,0.0,0.000364388,-0.000938722,0.000423013,32.8213938,-111.787047,379.288452,-17.7401356,0.326966947,-0.0241777298,,,,,,,,,,,,,,2022-11-15 19:51:45.600960+00:00
2022-11-15 12:51:45.800802-07:00,0.994244,2.79,1.75,-2.13,0.44,15.18,969.67,39.08,25.0,0.0,0.000482537,-0.00115549,0.00229141,32.8213936,-111.787047,379.298798,-17.7241982,0.329384196,-0.0389433104,,,,,,,,,,,,,,2022-11-15 19:51:45.800802+00:00
2022-11-15 12:51:46.000705-07:00,1.194147,2.76,1.86,-2.0,0.43,15.18,969.66,39.15,22.0,0.0,0.000220322,0.000289897,0.00109589,32.8213936,-111.787047,379.287231,-17.7107032,0.326985046,-0.0326539189,,,,,,,,,,,,,,2022-11-15 19:51:46.000705+00:00
2022-11-15 12:51:46.200976-07:00,1.394418,2.63,1.76,-1.92,0.4,15.2,969.67,39.13,19.0,0.0,0.000225958,-0.000634651,-0.00139963,32.8213935,-111.787047,379.278259,-17.6961431,0.329263042,-0.0228616076,2.09748,-14.9798,6131.83,25.9375,11592.0,0.405537,-1.0,22.0,-1253.0,82.0,,0.0,,2022-11-15 19:51:46.200976+00:00
2022-11-15 12:51:46.400276-07:00,1.593718,2.74,1.76,-2.08,0.31,15.75,969.67,37.79,21.0,0.0,0.000105032,-0.000299667,0.000193332,32.8213934,-111.787047,379.283478,-17.6843088,0.330151553,-0.0252636199,,,,,,,,,,,,,,2022-11-15 19:51:46.400276+00:00
2022-11-15 12:51:46.601193-07:00,1.794635,2.58,1.26,-2.23,0.24,16.05,969.67,37.02,24.0,0.0,0.000429808,0.000122954,0.00200207,32.8213934,-111.787047,379.292511,-17.6698384,0.32935029,-0.0128811766,,,,,,,,,,,,,,2022-11-15 19:51:46.601193+00:00
2022-11-15 12:51:46.800822-07:00,1.994264,2.48,1.31,-2.1,0.19,16.03,969.66,37.11,21.0,0.0,0.000214779,-0.00043944,0.000822183,32.8213934,-111.787047,379.282196,-17.6572681,0.332368494,-0.0184730707,,,,,,,,,,,,,,2022-11-15 19:51:46.800822+00:00
2022-11-15 12:51:47.000748-07:00,2.19419,2.49,1.14,-2.21,0.18,16.32,969.66,36.56,20.0,0.0,0.000145811,-0.000195332,-0.000308281,32.8213933,-111.787047,379.285797,-17.6434542,0.332536166,-0.0130775712,,,,,,,,,,,,,,2022-11-15 19:51:47.000748+00:00
2022-11-15 12:51:47.200437-07:00,2.393879,2.42,1.21,-2.08,0.25,16.13,969.66,36.92,19.0,0.0,0.000428197,-0.0005978,-0.00157402,32.8213933,-111.787047,379.272339,-17.6281418,0.331022325,-0.0163497856,2.09874,-15.0494,6106.82,25.9381,11535.0,0.418158,-1.0,21.0,-1212.0,82.0,,0.0,,2022-11-15 19:51:47.200437+00:00
2022-11-15 12:51:47.400748-07:00,2.59419,2.47,1.12,-2.19,0.22,16.15,969.66,36.9,24.0,0.0,0.000696093,-0.000888337,-0.00153653,32.8213933,-111.787047,379.278046,-17.6139373,0.3310287,-0.0203814817,,,,,,,,,,,,,,2022-11-15 19:51:47.400748+00:00
2022-11-15 12:51:47.601241-07:00,2.794683,2.41,1.01,-2.17,0.27,16.2,969.66,36.79,23.0,0.0,0.000675724,-0.000900434,0.000150277,32.8213933,-111.787047,379.282318,-17.6046168,0.33089349,-0.0191344118,,,,,,,,,,,,,,2022-11-15 19:51:47.601241+00:00
2022-11-15 12:51:47.800734-07:00,2.994176,2.64,1.39,-2.22,0.28,16.14,969.68,36.98,20.0,0.0,0.000868718,-0.00152667,-0.000290137,32.8213933,-111.787047,379.279419,-17.5931182,0.329496105,-0.0295372144,,,,,,,,,,,,,,2022-11-15 19:51:47.800734+00:00
2022-11-15 12:51:48.000296-07:00,3.193738,2.79,1.84,-2.06,0.43,15.21,969.67,39.26,19.0,0.0,0.000135099,-0.000283857,8.55711e-05,32.8213933,-111.787047,379.285828,-17.5822831,0.329713101,-0.0275930615,,,,,,,,,,,,,,2022-11-15 19:51:48.000296+00:00
2022-11-15 12:51:48.201003-07:00,3.394445,2.76,1.85,-2.01,0.39,15.24,969.68,39.28,22.0,0.0,0.000675804,-0.000879897,0.00188846,32.8213933,-111.787047,379.294861,-17.5726528,0.330853922,-0.0213730865,2.10016,-15.4118,6073.95,25.9398,11525.0,0.312598,-1.0,19.0,-1220.0,82.0,,0.0,,2022-11-15 19:51:48.201003+00:00
2022-11-15 12:51:48.400981-07:00,3.594423,2.71,1.48,-2.25,0.28,15.81,969.67,37.91,25.0,0.0,0.000457535,-0.000504714,0.00054551,32.8213933,-111.787047,379.291107,-17.5603693,0.330187326,-0.0236042006,,,,,,,,,,,,,,2022-11-15 19:51:48.400981+00:00
2022-11-15 12:51:48.601111-07:00,3.794553,2.86,1.74,-2.25,0.33,15.81,969.66,37.87,21.0,0.0,0.000387668,-0.000614488,-0.000733557,32.8213933,-111.787047,379.28183,-17.5461539,0.32973555,-0.0208262511,,,,,,,,,,,,,,2022-11-15 19:51:48.601111+00:00
2022-11-15 12:51:48.800817-07:00,3.994259,2.87,1.71,-2.27,0.41,15.78,969.66,37.95,19.0,0.0,0.000437906,-0.000570296,0.000379887,32.8213932,-111.787047,379.291748,-17.5358574,0.327304898,-0.0200885206,,,,,,,,,,,,,,2022-11-15 19:51:48.800817+00:00
2022-11-15 12:51:49.000844-07:00,4.194286,3.04,1.9,-2.35,0.34,15.51,969.67,38.6,21.0,0.0,-6.39421e-05,0.000384013,0.00104779,32.8213932,-111.787047,379.30011,-17.520234,0.329250418,-0.017542324,,,,,,,,,,,,,,2022-11-15 19:51:49.000844+00:00
2022-11-15 12:51:49.201492-07:00,4.394934,2.81,1.74,-2.18,0.35,15.59,969.66,38.45,24.0,0.0,0.000590724,-0.00116558,0.00182067,32.8213931,-111.787047,379.302979,-17.5088314,0.328008712,-0.0178205541,2.09875,-15.1946,6066.81,25.9405,11587.0,0.332914,-1.0,20.0,-1240.0,82.0,,0.0,,2022-11-15 19:51:49.201492+00:00
2022-11-15 12:51:49.400532-07:00,4.593974,2.58,1.73,-1.89,0.36,15.43,969.67,38.9,23.0,0.0,0.000226869,-0.000516589,0.00186422,32.8213931,-111.787047,379.298157,-17.4921518,0.324939102,-0.0330106062,,,,,,,,,,,,,,2022-11-15 19:51:49.400532+00:00
2022-11-15 12:51:49.600795-07:00,4.794237,2.7,1.77,-1.99,0.4,15.23,969.67,39.46,19.0,0.0,0.000408311,-0.000389691,0.000870554,32.8213931,-111.787047,379.292786,-17.4848243,0.325834677,-0.0329397197,,,,,,,,,,,,,,2022-11-15 19:51:49.600795+00:00
2022-11-15 12:51:49.800802-07:00,4.994244,2.77,1.64,-2.19,0.4,15.57,969.69,38.56,20.0,0.0,0.000306238,-0.000706576,0.000586739,32.821393,-111.787047,379.287292,-17.4621246,0.323344255,-0.0263275954,,,,,,,,,,,,,,2022-11-15 19:51:49.800802+00:00
2022-11-15 12:51:50.000509-07:00,5.193951,2.76,1.63,-2.2,0.36,15.83,969.66,37.91,23.0,0.0,-0.000360802,-0.000971659,0.000651047,32.8213929,-111.787047,379.290497,-17.4509534,0.321877567,-0.0338038155,,,,,,,,,,,,,,2022-11-15 19:51:50.000509+00:00
2022-11-15 12:51:50.201382-07:00,5.394824,2.75,1.62,-2.2,0.32,15.8,969.67,38.09,23.0,0.0,-0.000340691,-0.000727315,0.000851037,32.8213929,-111.787047,379.288544,-17.4399882,0.320091738,-0.0268706889,2.09878,-16.2428,6066.82,25.9416,11544.0,0.15048,-1.0,21.0,-1229.0,82.0,,0.0,,2022-11-15 19:51:50.201382+00:00
2022-11-15 12:51:50.400405-07:00,5.593847,2.93,1.34,-2.6,0.25,16.17,969.67,37.19,19.0,0.0,0.000616329,-0.000722193,0.000155415,32.8213928,-111.787047,379.290192,-17.4270946,0.32176783,-0.0262551013,,,,,,,,,,,,,,2022-11-15 19:51:50.400405+00:00
2022-11-15 12:51:50.600828-07:00,5.79427,3.19,1.11,-2.99,0.05,16.42,969.66,36.55,19.0,0.0,0.000282709,-0.000795343,-0.000476186,32.8213927,-111.787047,379.280151,-17.4186993,0.321635018,-0.0287463264,,,,,,,,,,,,,,2022-11-15 19:51:50.600828+00:00
2022-11-15 12:51:50.801134-07:00,5.994576,2.91,0.86,-2.78,0.07,16.54,969.67,36.31,23.0,0.0,-0.000319292,0.000250397,0.000206689,32.8213926,-111.787047,379.286926,-17.4074688,0.320570566,-0.0279088277,,,,,,,,,,,,,,2022-11-15 19:51:50.801134+00:00
2022-11-15 12:51:51.001155-07:00,6.194597,2.79,1.37,-2.43,0.09,16.7,969.66,35.33,24.0,0.0,0.000133807,-0.000603364,-9.75426e-05,32.8213926,-111.787047,379.28302,-17.3966615,0.322516182,-0.0286619762,,,,,,,,,,,,,,2022-11-15 19:51:51.001155+00:00
2022-11-15 12:51:51.201565-07:00,6.395007,2.81,1.39,-2.44,0.15,16.49,969.66,35.93,21.0,0.0,-0.000130455,-0.000435563,0.00119703,32.8213925,-111.787047,379.289825,-17.3897128,0.320132383,-0.023817604,2.09778,-15.1291,6069.95,25.9429,11523.0,0.088459,-1.0,20.0,-1217.0,82.0,,0.0,,2022-11-15 19:51:51.201565+00:00
2022-11-15 12:51:51.400972-07:00,6.594414,2.77,1.25,-2.47,0.04,16.71,969.65,35.35,19.0,0.0,0.000164516,-0.000309639,0.00127084,32.8213925,-111.787047,379.294525,-17.3765737,0.322715294,-0.0199020044,,,,,,,,,,,,,,2022-11-15 19:51:51.400972+00:00
2022-11-15 12:51:51.600325-07:00,6.793767,2.89,2.03,-2.03,0.38,15.57,969.65,38.07,20.0,0.0,0.000308418,-0.000846731,0.00113657,32.8213924,-111.787047,379.292572,-17.3650156,0.322726576,-0.0196834516,,,,,,,,,,,,,,2022-11-15 19:51:51.600325+00:00
2022-11-15 12:51:51.800949-07:00,6.994391,2.68,1.46,-2.24,0.19,16.55,969.66,36.39,24.0,0.0,7.39467e-05,0.000545678,0.000505444,32.8213924,-111.787047,379.291473,-17.3531623,0.320633418,-0.021381204,,,,,,,,,,,,,,2022-11-15 19:51:51.800949+00:00
2022-11-15 12:51:52.000484-07:00,7.193926,2.54,1.58,-1.99,0.17,16.21,969.65,36.55,23.0,0.0,0.000126407,-2.78858e-05,0.000277349,32.8213923,-111.787047,379.292389,-17.3406945,0.322239611,-0.0146338739,,,,,,,,,,,,,,2022-11-15 19:51:52.000484+00:00
2022-11-15 12:51:52.201988-07:00,7.39543,2.42,1.38,-1.98,0.05,16.93,969.66,34.85,19.0,0.0,-0.000287452,0.000153955,-0.000834549,32.8213923,-111.787047,379.290741,-17.3286349,0.320923158,-0.0158164471,2.09767,-15.1831,6064.73,25.9436,11523.0,0.0456758,-1.0,20.0,-1217.0,82.0,,0.0,,2022-11-15 19:51:52.201988+00:00
2022-11-15 12:51:52.401070-07:00,7.594512,2.3,1.42,-1.8,0.12,16.5,969.66,36.58,19.0,0.0,0.000131902,-0.000197049,-0.00237021,32.8213922,-111.787047,379.278931,-17.3207854,0.322999053,-0.0142449333,,,,,,,,,,,,,,2022-11-15 19:51:52.401070+00:00
2022-11-15 12:51:52.600354-07:00,7.793796,2.55,1.23,-2.23,0.09,16.55,969.67,35.8,24.0,0.0,2.97042e-05,-0.000606876,-0.00164728,32.8213922,-111.787047,379.288849,-17.3105522,0.319834987,-0.017055783,,,,,,,,,,,,,,2022-11-15 19:51:52.600354+00:00
2022-11-15 12:51:52.800844-07:00,7.994286,2.44,1.24,-2.1,0.11,16.8,969.66,35.27,24.0,0.0,-1.07063e-05,-8.35729e-05,0.000116848,32.8213921,-111.787047,379.293304,-17.2999259,0.323274668,-0.0229703303,,,,,,,,,,,,,,2022-11-15 19:51:52.800844+00:00
2022-11-15 12:51:53.000946-07:00,8.194388,2.73,1.43,-2.32,0.08,16.51,969.67,36.02,20.0,0.0,0.000405733,-0.000670719,0.00225102,32.821392,-111.787047,379.304016,-17.2896379,0.322110953,-0.0191055569,,,,,,,,,,,,,,2022-11-15 19:51:53.000946+00:00
2022-11-15 12:51:53.201481-07:00,8.394923,2.68,1.36,-2.31,-0.02,17.08,969.66,34.73,19.0,0.0,0.000318681,-0.000420805,0.00222933,32.8213919,-111.787047,379.311127,-17.2766529,0.321761725,-0.0191860318,2.09767,-15.6749,6075.09,25.9445,11573.0,-0.0112965,-1.0,20.0,-1233.0,82.0,,0.0,,2022-11-15 19:51:53.201481+00:00
2022-11-15 12:51:53.400287-07:00,8.593729,2.59,1.98,-1.65,0.26,15.99,969.65,37.24,22.0,0.0,0.000123374,-0.000622228,0.00300163,32.8213918,-111.787047,379.311798,-17.2646963,0.322989694,-0.0150324661,,,,,,,,,,,,,,2022-11-15 19:51:53.400287+00:00
2022-11-15 12:51:53.601066-07:00,8.794508,3.04,2.38,-1.84,0.44,15.16,969.65,39.26,25.0,0.0,8.39253e-05,-0.000397311,-0.000466947,32.8213917,-111.787047,379.304199,-17.2533634,0.32042677,-0.0150487245,,,,,,,,,,,,,,2022-11-15 19:51:53.601066+00:00
2022-11-15 12:51:53.800792-07:00,8.994234,2.97,2.27,-1.86,0.41,15.37,969.66,38.75,21.0,0.0,0.000238789,-0.000561851,-0.000945583,32.8213916,-111.787047,379.296936,-17.2454321,0.32353145,-0.0172496497,,,,,,,,,,,,,,2022-11-15 19:51:53.800792+00:00
2022-11-15 12:51:54.000718-07:00,9.19416,3.08,2.47,-1.78,0.42,15.2,969.65,39.21,19.0,0.0,-0.000304075,-1.91037e-05,0.000223581,32.8213915,-111.787047,379.302948,-17.2309799,0.322627632,-0.0217524955,,,,,,,,,,,,,,2022-11-15 19:51:54.000718+00:00
2022-11-15 12:51:54.201187-07:00,9.394629,3.05,2.54,-1.63,0.41,15.09,969.65,39.5,21.0,0.0,-0.000114599,0.00030624,0.000843277,32.8213914,-111.787047,379.300018,-17.2183881,0.325675063,-0.0221787954,2.09837,-15.0834,6086.96,25.946,11590.0,-0.045384,-1.0,21.0,-1241.0,82.0,,0.0,,2022-11-15 19:51:54.201187+00:00
2022-11-15 12:51:54.400798-07:00,9.59424,2.5,1.22,-2.17,0.31,16.1,969.67,37.03,25.0,0.0,8.62331e-05,-0.00048794,0.00110323,32.8213913,-111.787047,379.295105,-17.2085458,0.325666812,-0.0175115781,,,,,,,,,,,,,,2022-11-15 19:51:54.400798+00:00
2022-11-15 12:51:54.600341-07:00,9.793783,2.71,0.93,-2.53,0.23,16.4,969.66,36.35,23.0,0.0,0.000264386,-0.000337027,-0.000517796,32.8213912,-111.787047,379.290588,-17.2007585,0.327177584,-0.0287317722,,,,,,,,,,,,,,2022-11-15 19:51:54.600341+00:00
2022-11-15 12:51:54.800554-07:00,9.993996,2.76,1.31,-2.41,0.3,16.26,969.65,36.67,19.0,0.0,0.000414417,-0.000647454,0.000313801,32.8213911,-111.787047,379.289856,-17.185475,0.328689404,-0.0138478918,,,,,,,,,,,,,,2022-11-15 19:51:54.800554+00:00
2022-11-15 12:51:55.000696-07:00,10.194138,2.83,2.08,-1.88,0.39,15.53,969.66,38.43,19.0,0.0,0.00057323,-0.000773548,0.000451493,32.8213911,-111.787047,379.29657,-17.1814965,0.328408523,-0.019516102,,,,,,,,,,,,,,2022-11-15 19:51:55.000696+00:00
2022-11-15 12:51:55.201643-07:00,10.395085,2.74,1.49,-2.29,0.24,16.08,969.65,37.21,24.0,0.0,0.00061852,-6.81709e-05,0.000263682,32.821391,-111.787047,379.290985,-17.1680626,0.325839745,-0.0290472583,2.09679,-15.7746,6094.97,25.9473,11548.0,-0.086082,-1.0,22.0,-1222.0,82.0,,0.0,,2022-11-15 19:51:55.201643+00:00
2022-11-15 12:51:55.400898-07:00,10.59434,2.59,1.9,-1.72,0.37,15.4,969.66,38.91,24.0,0.0,-1.09072e-05,-0.00105273,-0.000449308,32.8213909,-111.787046,379.288025,-17.1596957,0.325323261,-0.0172778175,,,,,,,,,,,,,,2022-11-15 19:51:55.400898+00:00
2022-11-15 12:51:55.600787-07:00,10.794229,2.52,1.66,-1.87,0.3,15.57,969.67,38.43,20.0,0.0,-5.58572e-06,-0.000464742,-0.000527501,32.8213908,-111.787046,379.28949,-17.145852,0.325518152,-0.020599154,,,,,,,,,,,,,,2022-11-15 19:51:55.600787+00:00
2022-11-15 12:51:55.800525-07:00,10.993967,2.43,1.92,-1.45,0.33,15.35,969.65,39.02,19.0,0.0,0.000132395,0.000274317,-2.82075e-05,32.8213906,-111.787046,379.293518,-17.1353849,0.32600956,-0.016129652,,,,,,,,,,,,,,2022-11-15 19:51:55.800525+00:00
2022-11-15 12:51:56.000502-07:00,11.193944,2.44,1.86,-1.55,0.32,15.48,969.65,38.66,22.0,0.0,0.000398855,-0.000346945,0.000471288,32.8213905,-111.787046,379.296021,-17.122588,0.327118638,-0.0162946071,,,,,,,,,,,,,,2022-11-15 19:51:56.000502+00:00
2022-11-15 12:51:56.201643-07:00,11.395085,2.51,1.84,-1.68,0.27,15.57,969.66,38.38,25.0,0.0,0.000234416,-0.000347963,-0.000467861,32.8213905,-111.787046,379.297241,-17.114964,0.326898481,-0.0109441442,2.10221,-15.6293,6088.44,25.9479,11570.0,-0.1716,-1.0,18.0,-1241.0,82.0,,0.0,,2022-11-15 19:51:56.201643+00:00
2022-11-15 12:51:56.400304-07:00,11.593746,2.88,1.85,-2.2,0.22,15.44,969.65,38.75,21.0,0.0,0.000420396,-0.0011873,-0.000131886,32.8213904,-111.787046,379.294098,-17.1067139,0.323049401,-0.0155941992,,,,,,,,,,,,,,2022-11-15 19:51:56.400304+00:00
2022-11-15 12:51:56.601050-07:00,11.794492,2.83,1.8,-2.17,0.28,15.73,969.65,38.09,19.0,0.0,0.000584707,-2.04421e-05,-0.00154247,32.8213904,-111.787046,379.293457,-17.0987328,0.326517969,-0.0165513695,,,,,,,,,,,,,,2022-11-15 19:51:56.601050+00:00
2022-11-15 12:51:56.800540-07:00,11.993982,2.64,1.49,-2.17,0.23,15.83,969.65,37.92,21.0,0.0,0.000510139,-8.94763e-05,-0.000359051,32.8213903,-111.787046,379.291321,-17.0895938,0.325659561,-0.0121575734,,,,,,,,,,,,,,2022-11-15 19:51:56.800540+00:00
2022-11-15 12:51:57.000454-07:00,12.193896,2.7,1.53,-2.21,0.2,16.21,969.65,37.08,25.0,0.0,0.000477312,0.000559494,0.00057808,32.8213902,-111.787046,379.295868,-17.0758802,0.328238604,-0.0147483429,,,,,,,,,,,,,,2022-11-15 19:51:57.000454+00:00
2022-11-15 12:51:57.202147-07:00,12.395589,2.88,1.8,-2.23,0.25,15.77,969.66,38.06,23.0,0.0,0.000275528,0.000163038,0.000133898,32.8213902,-111.787046,379.291901,-17.060362,0.323954294,-0.0142300289,2.10034,-15.3752,6079.19,25.9489,11593.0,-0.168607,-1.0,20.0,-1228.0,82.0,,0.0,,2022-11-15 19:51:57.202147+00:00
2022-11-15 12:51:57.400903-07:00,12.594345,2.9,2.06,-2.01,0.35,15.45,969.66,38.93,20.0,0.0,0.000302647,-0.000142244,-4.44759e-06,32.8213901,-111.787046,379.296173,-17.0503265,0.325238871,-0.0202926525,,,,,,,,,,,,,,2022-11-15 19:51:57.400903+00:00
2022-11-15 12:51:57.601216-07:00,12.794658,2.99,2.4,-1.73,0.43,15.09,969.65,39.83,20.0,0.0,0.000239424,-1.77594e-05,-9.97056e-05,32.8213901,-111.787046,379.297577,-17.043364,0.326551026,-0.0291594162,,,,,,,,,,,,,,2022-11-15 19:51:57.601216+00:00
2022-11-15 12:51:57.800283-07:00,12.993725,3.03,2.37,-1.83,0.46,15.1,969.65,39.89,24.0,0.0,-4.37307e-05,0.00015116,-0.000151735,32.82139,-111.787046,379.295258,-17.0352839,0.326172016,-0.0185015854,,,,,,,,,,,,,,2022-11-15 19:51:57.800283+00:00
2022-11-15 12:51:58.000698-07:00,13.19414,2.86,2.21,-1.77,0.43,15.27,969.65,39.42,25.0,0.0,-3.34801e-05,-0.000270863,4.16702e-05,32.82139,-111.787046,379.298798,-17.0289558,0.329331905,-0.0268870573,,,,,,,,,,,,,,2022-11-15 19:51:58.000698+00:00
2022-11-15 12:51:58.201324-07:00,13.394766,2.74,1.96,-1.88,0.37,15.4,969.66,39.08,20.0,0.0,0.000231502,0.000381915,0.000353359,32.8213899,-111.787046,379.304932,-17.0215712,0.328034079,-0.0244199881,2.10288,-15.0484,6063.34,25.95,11545.0,-0.0769703,-1.0,22.0,-1195.0,82.0,,0.0,,2022-11-15 19:51:58.201324+00:00
2022-11-15 12:51:58.400964-07:00,13.594406,2.58,1.85,-1.77,0.35,15.4,969.65,39.07,20.0,0.0,0.000721219,-0.000476853,0.000495934,32.8213898,-111.787046,379.311951,-17.0109892,0.329365453,-0.021676543,,,,,,,,,,,,,,2022-11-15 19:51:58.400964+00:00
2022-11-15 12:51:58.601123-07:00,13.794565,2.7,1.39,-2.3,0.27,15.97,969.66,37.72,22.0,0.0,0.000219529,-0.000729512,0.00102853,32.8213898,-111.787046,379.310974,-16.9998324,0.329497533,-0.0265141049,,,,,,,,,,,,,,2022-11-15 19:51:58.601123+00:00
2022-11-15 12:51:58.801099-07:00,13.994541,2.57,1.36,-2.17,0.25,16.06,969.66,37.52,24.0,0.0,-5.60318e-06,0.000142496,0.000153233,32.8213898,-111.787046,379.304382,-16.990614,0.328052445,-0.0272870537,,,,,,,,,,,,,,2022-11-15 19:51:58.801099+00:00
2022-11-15 12:51:59.000481-07:00,14.193923,2.62,1.64,-2.02,0.33,15.85,969.66,38.03,21.0,0.0,0.000552482,-0.000852773,5.26632e-05,32.8213898,-111.787046,379.30011,-16.9820963,0.325825508,-0.0290154452,,,,,,,,,,,,,,2022-11-15 19:51:59.000481+00:00
2022-11-15 12:51:59.201471-07:00,14.394913,2.96,2.13,-2.01,0.39,15.41,969.66,39.11,19.0,0.0,0.000770483,-0.000466049,-0.00117101,32.8213897,-111.787046,379.292999,-16.9726303,0.32348545,-0.0369541274,2.10056,-15.2505,6053.39,25.9511,11524.0,-0.032713,-1.0,20.0,-1196.0,82.0,,0.0,,2022-11-15 19:51:59.201471+00:00
2022-11-15 12:51:59.400812-07:00,14.594254,2.89,2.09,-1.96,0.34,15.57,969.66,38.81,21.0,0.0,0.000560139,-0.000605415,7.0801e-05,32.8213897,-111.787046,379.294708,-16.9611589,0.32469989,-0.0350634753,,,,,,,,,,,,,,2022-11-15 19:51:59.400812+00:00
2022-11-15 12:51:59.601201-07:00,14.794643,2.85,2.01,-1.99,0.36,15.67,969.64,38.52,25.0,0.0,2.64974e-05,-8.26002e-05,0.00174098,32.8213896,-111.787046,379.300079,-16.9484848,0.323919072,-0.0333776856,,,,,,,,,,,,,,2022-11-15 19:51:59.601201+00:00
2022-11-15 12:51:59.800939-07:00,14.994381,2.79,1.89,-2.03,0.33,15.67,969.66,38.45,22.0,0.0,-2.70026e-05,-8.13784e-05,0.000647412,32.8213896,-111.787046,379.303772,-16.9366015,0.324681426,-0.035160342,,,,,,,,,,,,,,2022-11-15 19:51:59.800939+00:00
2022-11-15 12:52:00.000395-07:00,15.193837,2.93,1.91,-2.2,0.31,15.73,969.65,38.46,19.0,0.0,0.0003948,-0.000266303,0.00252903,32.8213895,-111.787046,379.305237,-16.9303841,0.324580885,-0.0247627115,,,,,,,,,,,,,,2022-11-15 19:52:00.000395+00:00
2022-11-15 12:52:00.202058-07:00,15.3955,2.98,2.13,-2.04,0.41,15.32,969.65,39.47,19.0,0.0,0.000485562,-6.14908e-05,-0.000594684,32.8213895,-111.787046,379.298187,-16.9175507,0.324868253,-0.0318586786,2.09915,-15.0701,6039.37,25.9523,11572.0,-0.047977,-1.0,20.0,-1237.0,82.0,,0.0,,2022-11-15 19:52:00.202058+00:00
2022-11-15 12:52:00.400921-07:00,15.594363,2.94,2.16,-1.95,0.43,15.32,969.65,39.43,24.0,0.0,0.000104595,-0.000234067,-0.000112067,32.8213895,-111.787046,379.304626,-16.9091309,0.324673288,-0.025453161,,,,,,,,,,,,,,2022-11-15 19:52:00.400921+00:00
2022-11-15 12:52:00.601166-07:00,15.794608,2.96,1.68,-2.42,0.26,16.02,969.66,37.76,23.0,0.0,-0.000129594,-0.00018997,-0.000446117,32.8213895,-111.787046,379.303467,-16.8982443,0.322526273,-0.025983668,,,,,,,,,,,,,,2022-11-15 19:52:00.601166+00:00
2022-11-15 12:52:00.800919-07:00,15.994361,3.08,2.14,-2.18,0.38,15.51,969.66,39.03,19.0,0.0,-0.000375139,5.88009e-05,-0.000192066,32.8213895,-111.787046,379.301239,-16.8848986,0.324969464,-0.0288470017,,,,,,,,,,,,,,2022-11-15 19:52:00.800919+00:00
2022-11-15 12:52:01.000776-07:00,16.194218,3.14,2.38,-1.99,0.45,15.11,969.66,40.05,19.0,0.0,6.69063e-05,-0.000179339,-0.000659816,32.8213895,-111.787046,379.296783,-16.8735846,0.327240226,-0.0223225162,,,,,,,,,,,,,,2022-11-15 19:52:01.000776+00:00
2022-11-15 12:52:01.201749-07:00,16.395191,3.16,2.23,-2.2,0.41,15.16,969.65,40.03,21.0,0.0,0.000416971,1.70325e-05,-0.000461256,32.8213894,-111.787046,379.301422,-16.8597555,0.330338892,-0.0330626564,2.10003,-15.106,6032.63,25.9533,11572.0,0.0212897,-1.0,20.0,-1237.0,82.0,,0.0,,2022-11-15 19:52:01.201749+00:00
2022-11-15 12:52:01.401089-07:00,16.594531,3.1,2.19,-2.16,0.39,15.21,969.66,39.86,24.0,0.0,0.000140735,0.000837503,0.000770913,32.8213894,-111.787046,379.303619,-16.8514091,0.331200304,-0.0203246924,,,,,,,,,,,,,,2022-11-15 19:52:01.401089+00:00
2022-11-15 12:52:01.600800-07:00,16.794242,3.07,2.26,-2.04,0.36,15.21,969.65,39.92,21.0,0.0,0.000606209,0.000170011,0.000887418,32.8213894,-111.787046,379.304779,-16.8421596,0.332111104,-0.0216906836,,,,,,,,,,,,,,2022-11-15 19:52:01.600800+00:00
2022-11-15 12:52:01.800971-07:00,16.994413,3.09,2.2,-2.13,0.39,15.34,969.65,39.56,19.0,0.0,0.000422521,0.000386738,0.00128623,32.8213894,-111.787046,379.302277,-16.8319281,0.332404745,-0.0188695152,,,,,,,,,,,,,,2022-11-15 19:52:01.800971+00:00
2022-11-15 12:52:02.000676-07:00,17.194118,2.9,2.0,-2.06,0.4,15.42,969.65,39.36,20.0,0.0,0.000315715,0.000488943,0.000378056,32.8213894,-111.787046,379.297668,-16.8233686,0.33152569,-0.0193037491,,,,,,,,,,,,,,2022-11-15 19:52:02.000676+00:00
2022-11-15 12:52:02.201340-07:00,17.394782,2.86,1.89,-2.12,0.38,15.46,969.66,39.32,24.0,0.0,0.000277207,0.000575695,0.000195695,32.8213894,-111.787046,379.290009,-16.8129987,0.331176968,-0.0213327157,2.10039,-14.7363,6027.55,25.9549,11587.0,0.0465825,-1.0,20.0,-1251.0,82.0,,0.0,,2022-11-15 19:52:02.201340+00:00
2022-11-15 12:52:02.401210-07:00,17.594652,2.73,1.73,-2.08,0.32,15.91,969.67,38.16,23.0,0.0,0.000410868,0.000240596,-0.000395555,32.8213894,-111.787046,379.290466,-16.8008486,0.32950404,-0.014900448,,,,,,,,,,,,,,2022-11-15 19:52:02.401210+00:00
2022-11-15 12:52:02.600525-07:00,17.793967,2.62,1.58,-2.07,0.3,16.01,969.67,37.99,19.0,0.0,0.000492222,-0.000139995,-0.000863545,32.8213894,-111.787046,379.286987,-16.791976,0.330407803,-0.0190210833,,,,,,,,,,,,,,2022-11-15 19:52:02.600525+00:00
2022-11-15 12:52:02.800875-07:00,17.994317,2.78,1.49,-2.33,0.22,16.03,969.66,37.9,20.0,0.0,0.00109578,0.000529534,-0.000969156,32.8213893,-111.787046,379.290161,-16.7847562,0.327174625,-0.0147810331,,,,,,,,,,,,,,2022-11-15 19:52:02.800875+00:00
2022-11-15 12:52:03.000543-07:00,18.193985,2.92,1.8,-2.29,0.15,16.0,969.66,38.01,24.0,0.0,0.000942521,0.000364108,0.000192583,32.8213893,-111.787046,379.296661,-16.7809126,0.326838833,-0.0225824269,,,,,,,,,,,,,,2022-11-15 19:52:03.000543+00:00
2022-11-15 12:52:03.201639-07:00,18.395081,2.67,1.61,-2.12,0.16,16.29,969.65,36.77,24.0,0.0,0.00014484,0.00107577,-0.000693691,32.8213893,-111.787046,379.291443,-16.7701208,0.327462746,-0.014259891,2.09689,-14.9928,6022.28,25.9558,11540.0,0.0978541,-1.0,23.0,-1233.0,82.0,,0.0,,2022-11-15 19:52:03.201639+00:00
2022-11-15 12:52:03.400269-07:00,18.593711,2.59,1.64,-1.98,0.3,15.89,969.65,37.72,20.0,0.0,0.000722395,0.00023839,-0.000497398,32.8213893,-111.787046,379.299316,-16.7650537,0.325283693,-0.0196720791,,,,,,,,,,,,,,2022-11-15 19:52:03.400269+00:00
2022-11-15 12:52:03.601235-07:00,18.794677,2.48,1.45,-1.99,0.27,15.89,969.66,37.7,19.0,0.0,-0.000262018,0.000628984,0.00037824,32.8213893,-111.787046,379.298737,-16.7545598,0.325296396,-0.0262967562,,,,,,,,,,,,,,2022-11-15 19:52:03.601235+00:00
2022-11-15 12:52:03.800424-07:00,18.993866,2.52,1.8,-1.72,0.36,15.43,969.68,39.47,23.0,0.0,0.000847508,-0.000568989,0.000418775,32.8213893,-111.787046,379.294189,-16.7479716,0.325191189,-0.0196869368,,,,,,,,,,,,,,2022-11-15 19:52:03.800424+00:00
2022-11-15 12:52:04.000508-07:00,19.19395,2.58,1.65,-1.94,0.36,15.45,969.67,38.83,24.0,0.0,0.000308683,-0.000318277,0.000167403,32.8213893,-111.787046,379.291504,-16.734479,0.326153823,-0.0328780445,,,,,,,,,,,,,,2022-11-15 19:52:04.000508+00:00
2022-11-15 12:52:04.202246-07:00,19.395688,2.69,1.61,-2.14,0.28,15.86,969.68,38.41,21.0,0.0,-7.54184e-05,-0.000222871,-0.00111747,32.8213893,-111.787046,379.286652,-16.7237525,0.329059274,-0.024452048,2.09953,-14.7031,6029.1,25.9567,11542.0,0.134278,-1.0,21.0,-1225.0,82.0,,0.0,,2022-11-15 19:52:04.202246+00:00
2022-11-15 12:52:04.401237-07:00,19.594679,2.69,1.38,-2.29,0.22,16.04,969.66,37.4,19.0,0.0,0.000581372,-0.000793975,0.000303608,32.8213893,-111.787046,379.293365,-16.7145179,0.326463312,-0.0240877867,,,,,,,,,,,,,,2022-11-15 19:52:04.401237+00:00
2022-11-15 12:52:04.600550-07:00,19.793992,2.82,1.44,-2.42,0.25,15.94,969.67,37.64,21.0,0.0,0.000162598,0.000153033,0.00171519,32.8213893,-111.787046,379.299316,-16.7034341,0.326184291,-0.0269577038,,,,,,,,,,,,,,2022-11-15 19:52:04.600550+00:00
2022-11-15 12:52:04.800351-07:00,19.993793,2.65,1.67,-2.02,0.36,15.52,969.67,38.71,24.0,0.0,1.63584e-05,-5.64577e-05,0.00160073,32.8213893,-111.787046,379.292969,-16.6954,0.326521351,-0.0227310869,,,,,,,,,,,,,,2022-11-15 19:52:04.800351+00:00
2022-11-15 12:52:05.000896-07:00,20.194338,2.45,1.42,-1.95,0.41,15.74,969.66,38.12,22.0,0.0,0.000303716,1.98705e-05,0.00164767,32.8213893,-111.787046,379.300751,-16.6870928,0.32841634,-0.0245851466,,,,,,,,,,,,,,2022-11-15 19:52:05.000896+00:00
2022-11-15 12:52:05.201300-07:00,20.394742,2.51,0.96,-2.3,0.33,16.2,969.67,37.01,19.0,0.0,0.000408373,-0.000418655,0.00252862,32.8213894,-111.787046,379.305145,-16.6781559,0.328734478,-0.026130377,2.09771,-15.6112,6035.04,25.9577,11592.0,0.0381352,-1.0,21.0,-1219.0,82.0,,0.0,,2022-11-15 19:52:05.201300+00:00
2022-11-15 12:52:05.401033-07:00,20.594475,2.79,1.51,-2.33,0.27,16.14,969.67,37.23,19.0,0.0,0.000362457,0.000443339,0.000937384,32.8213894,-111.787046,379.30069,-16.6729346,0.328194988,-0.026202671,,,,,,,,,,,,,,2022-11-15 19:52:05.401033+00:00
2022-11-15 12:52:05.600521-07:00,20.793963,2.45,1.32,-2.05,0.22,16.33,969.67,36.79,24.0,0.0,0.000437838,0.000120379,0.000823016,32.8213894,-111.787046,379.300262,-16.6648979,0.33048969,-0.0179161234,,,,,,,,,,,,,,2022-11-15 19:52:05.600521+00:00
2022-11-15 12:52:05.800705-07:00,20.994147,2.55,1.05,-2.32,0.19,16.44,969.66,36.49,24.0,0.0,0.000354471,-0.000755693,0.000141181,32.8213894,-111.787046,379.298096,-16.6553582,0.327702144,-0.0206759035,,,,,,,,,,,,,,2022-11-15 19:52:05.800705+00:00
2022-11-15 12:52:06.000542-07:00,21.193984,2.65,0.97,-2.45,0.28,16.43,969.67,36.51,20.0,0.0,3.29858e-05,-0.000595613,0.000519899,32.8213895,-111.787046,379.293488,-16.6466033,0.327112915,-0.0286377537,,,,,,,,,,,,,,2022-11-15 19:52:06.000542+00:00
2022-11-15 12:52:06.201532-07:00,21.394974,2.54,0.65,-2.41,0.47,16.59,969.67,36.23,19.0,0.0,0.000620078,-0.00112614,-0.000960804,32.8213895,-111.787046,379.285065,-16.635527,0.325840613,-0.0313906038,2.09819,-15.3997,6039.24,25.959,11548.0,0.0286745,-1.0,21.0,-1201.0,82.0,,0.0,,2022-11-15 19:52:06.201532+00:00
2022-11-15 12:52:06.400730-07:00,21.594172,2.53,0.77,-2.37,0.42,16.42,969.68,36.67,21.0,0.0,0.000379509,-0.000434318,-0.00214455,32.8213895,-111.787046,379.284515,-16.6252405,0.327429322,-0.038175134,,,,,,,,,,,,,,2022-11-15 19:52:06.400730+00:00
2022-11-15 12:52:06.600403-07:00,21.793845,2.82,1.02,-2.63,0.18,16.56,969.67,36.35,25.0,0.0,0.000632015,-0.000644396,-0.00203653,32.8213895,-111.787046,379.281372,-16.6146815,0.327982237,-0.0347404053,,,,,,,,,,,,,,2022-11-15 19:52:06.600403+00:00
2022-11-15 12:52:06.800485-07:00,21.993927,2.75,0.9,-2.58,0.31,16.43,969.68,36.65,21.0,0.0,0.000323075,-0.000456475,-0.000450499,32.8213895,-111.787046,379.283813,-16.6021211,0.32708558,-0.0375899221,,,,,,,,,,,,,,2022-11-15 19:52:06.800485+00:00
2022-11-15 12:52:07.000933-07:00,22.194375,2.81,0.94,-2.63,0.25,16.6,969.69,36.3,19.0,0.0,0.000631117,-0.000461017,-0.000800985,32.8213895,-111.787046,379.284882,-16.5905145,0.326185756,-0.0353663416,,,,,,,,,,,,,,2022-11-15 19:52:07.000933+00:00
2022-11-15 12:52:07.201368-07:00,22.39481,2.73,1.07,-2.49,0.28,16.54,969.67,35.78,21.0,0.0,0.000551401,-0.00017117,0.000403005,32.8213896,-111.787046,379.28476,-16.5826296,0.325649785,-0.0293254151,2.09941,-15.2202,6047.17,25.9604,11514.0,0.0389289,-1.0,18.0,-1217.0,82.0,,0.0,,2022-11-15 19:52:07.201368+00:00
2022-11-15 12:52:07.401388-07:00,22.59483,2.87,1.01,-2.68,0.23,16.44,969.67,35.96,25.0,0.0,0.000423202,0.000251562,3.36231e-05,32.8213896,-111.787046,379.297455,-16.5772414,0.32058183,-0.0352441819,,,,,,,,,,,,,,2022-11-15 19:52:07.401388+00:00
2022-11-15 12:52:07.600997-07:00,22.794439,2.68,0.9,-2.51,0.18,16.77,969.66,35.26,23.0,0.0,0.000349367,-0.000767502,0.00170441,32.8213896,-111.787047,379.300964,-16.5675676,0.317064718,-0.0336740919,,,,,,,,,,,,,,2022-11-15 19:52:07.600997+00:00
2022-11-15 12:52:07.800404-07:00,22.993846,2.68,1.01,-2.47,0.2,16.77,969.68,35.26,20.0,0.0,-6.16466e-05,-0.000276614,-0.000122077,32.8213896,-111.787047,379.297882,-16.5588634,0.318709286,-0.0360158433,,,,,,,,,,,,,,2022-11-15 19:52:07.800404+00:00
2022-11-15 12:52:08.000792-07:00,23.194234,2.59,0.74,-2.47,0.2,16.85,969.67,35.78,20.0,0.0,0.000517106,-0.000202943,-0.00151796,32.8213896,-111.787047,379.293732,-16.5490244,0.318627078,-0.0275902334,,,,,,,,,,,,,,2022-11-15 19:52:08.000792+00:00
2022-11-15 12:52:08.201469-07:00,23.394911,2.39,0.73,-2.26,0.3,16.95,969.69,35.51,24.0,0.0,0.000128199,-3.07241e-05,-0.000483767,32.8213897,-111.787047,379.292206,-16.5357014,0.314583658,-0.03010376,2.10229,-15.0143,6064.17,25.9616,11534.0,0.135512,-1.0,20.0,-1234.0,82.0,,0.0,,2022-11-15 19:52:08.201469+00:00
2022-11-15 12:52:08.401059-07:00,23.594501,2.46,0.31,-2.44,0.1,17.38,969.68,34.58,24.0,0.0,0.000273362,-0.0003674,-0.00133307,32.8213897,-111.787047,379.291473,-16.5274618,0.319576326,-0.0291048147,,,,,,,,,,,,,,2022-11-15 19:52:08.401059+00:00
2022-11-15 12:52:08.600428-07:00,23.79387,2.23,0.18,-2.2,0.28,17.4,969.69,34.63,20.0,0.0,0.000305401,-0.000431388,0.00020689,32.8213897,-111.787047,379.293671,-16.5188362,0.318467798,-0.0216599278,,,,,,,,,,,,,,2022-11-15 19:52:08.600428+00:00
2022-11-15 12:52:08.800657-07:00,23.994099,2.21,0.06,-2.19,0.25,17.45,969.68,34.48,20.0,0.0,3.71988e-06,-0.000387315,-0.000213466,32.8213897,-111.787047,379.292419,-16.5129137,0.321608082,-0.0226253957,,,,,,,,,,,,,,2022-11-15 19:52:08.800657+00:00
2022-11-15 12:52:09.000348-07:00,24.19379,2.22,0.08,-2.17,0.47,17.39,969.68,34.61,23.0,0.0,-0.000286839,-0.000525372,-0.000387246,32.8213897,-111.787047,379.289703,-16.5050941,0.321419108,-0.0211006826,,,,,,,,,,,,,,2022-11-15 19:52:09.000348+00:00
2022-11-15 12:52:09.201695-07:00,24.395137,2.28,0.49,-2.2,0.38,16.97,969.68,34.9,25.0,0.0,-0.000170244,-0.000273164,0.000196362,32.8213897,-111.787047,379.292816,-16.4913662,0.319981884,-0.0256673582,2.09959,-15.1885,6079.98,25.9624,11586.0,0.136472,-1.0,22.0,-1218.0,82.0,,0.0,,2022-11-15 19:52:09.201695+00:00
2022-11-15 12:52:09.401185-07:00,24.594627,2.39,0.57,-2.29,0.37,16.82,969.69,35.98,21.0,0.0,4.41156e-05,-3.7585e-05,-0.000740313,32.8213897,-111.787047,379.288696,-16.4808354,0.320575559,-0.0209936308,,,,,,,,,,,,,,2022-11-15 19:52:09.401185+00:00
2022-11-15 12:52:09.600350-07:00,24.793792,2.46,0.64,-2.35,0.35,16.51,969.69,36.68,19.0,0.0,-2.66939e-05,-0.000467415,-0.000275983,32.8213897,-111.787047,379.293274,-16.4698629,0.320765595,-0.026532311,,,,,,,,,,,,,,2022-11-15 19:52:09.600350+00:00
2022-11-15 12:52:09.800427-07:00,24.993869,2.33,0.3,-2.26,0.47,16.83,969.69,35.94,21.0,0.0,0.000286725,0.000302649,-0.000954924,32.8213897,-111.787047,379.295197,-16.4643256,0.324018668,-0.0259596456,,,,,,,,,,,,,,2022-11-15 19:52:09.800427+00:00
2022-11-15 12:52:10.000625-07:00,25.194067,2.12,0.64,-1.93,0.57,16.79,969.68,36.09,26.0,0.0,0.000189421,0.000112212,-0.000280195,32.8213897,-111.787047,379.292877,-16.455817,0.323816863,-0.0157750258,,,,,,,,,,,,,,2022-11-15 19:52:10.000625+00:00
2022-11-15 12:52:10.201354-07:00,25.394796,2.03,0.35,-1.9,0.62,16.66,969.69,36.34,22.0,0.0,3.88627e-05,0.000312263,0.000194751,32.8213897,-111.787047,379.299133,-16.44857,0.323200577,-0.02615553,2.0994,-15.4995,6110.65,25.964,11578.0,0.100988,-1.0,21.0,-1201.0,82.0,,0.0,,2022-11-15 19:52:10.201354+00:00
2022-11-15 12:52:10.400403-07:00,25.593845,2.14,0.39,-2.04,0.52,16.55,969.67,36.63,19.0,0.0,-5.99628e-06,0.00045973,0.000190489,32.8213897,-111.787047,379.297058,-16.4384854,0.32065133,-0.0115631135,,,,,,,,,,,,,,2022-11-15 19:52:10.400403+00:00
2022-11-15 12:52:10.600615-07:00,25.794057,2.63,0.47,-2.57,0.26,16.61,969.69,36.55,20.0,0.0,0.000626941,-0.00030457,-0.00113625,32.8213897,-111.787047,379.290283,-16.4278555,0.320475096,-0.0182491819,,,,,,,,,,,,,,2022-11-15 19:52:10.600615+00:00
2022-11-15 12:52:10.800460-07:00,25.993902,2.71,0.35,-2.68,0.27,16.76,969.69,36.3,24.0,0.0,0.000123299,0.000769086,-0.000415227,32.8213897,-111.787047,379.296021,-16.4168948,0.322123249,-0.0173505717,,,,,,,,,,,,,,2022-11-15 19:52:10.800460+00:00
2022-11-15 12:52:11.000497-07:00,26.193939,2.58,0.45,-2.51,0.37,16.53,969.67,36.07,23.0,0.0,0.00036423,-8.96023e-05,-0.000276716,32.8213898,-111.787047,379.291016,-16.4079527,0.322172354,-0.00368749841,,,,,,,,,,,,,,2022-11-15 19:52:11.000497+00:00
2022-11-15 12:52:11.201635-07:00,26.395077,2.36,0.87,-2.15,0.46,16.41,969.68,37.05,20.0,0.0,7.32759e-05,-7.42371e-05,-0.0020061,32.8213898,-111.787047,379.287903,-16.398183,0.320297816,-0.0263598954,2.0988,-14.4507,6119.87,25.9649,11578.0,0.150803,-1.0,21.0,-1201.0,82.0,,0.0,,2022-11-15 19:52:11.201635+00:00
2022-11-15 12:52:11.400773-07:00,26.594215,2.71,1.29,-2.36,0.34,16.18,969.68,37.61,20.0,0.0,-7.11519e-05,-0.000203491,0.000881905,32.8213898,-111.787047,379.293396,-16.387797,0.320241288,-0.0205958389,,,,,,,,,,,,,,2022-11-15 19:52:11.400773+00:00
2022-11-15 12:52:11.600816-07:00,26.794258,2.55,0.76,-2.39,0.5,16.56,969.67,36.79,23.0,0.0,0.000467938,-0.000743105,-0.000741182,32.8213898,-111.787047,379.288208,-16.3781347,0.32061262,-0.0441434403,,,,,,,,,,,,,,2022-11-15 19:52:11.600816+00:00
2022-11-15 12:52:11.800909-07:00,26.994351,2.94,0.76,-2.83,0.18,16.78,969.69,36.25,25.0,0.0,0.000454353,0.000278191,0.000334084,32.8213898,-111.787047,379.298737,-16.3663253,0.318076191,-0.0462494504,,,,,,,,,,,,,,2022-11-15 19:52:11.800909+00:00
2022-11-15 12:52:12.001230-07:00,27.194672,3.13,0.85,-3.01,0.14,16.68,969.69,35.78,21.0,0.0,0.000459725,-0.000749251,-0.000758013,32.8213898,-111.787047,379.296356,-16.3542073,0.319965939,-0.0375758248,,,,,,,,,,,,,,2022-11-15 19:52:12.001230+00:00
2022-11-15 12:52:12.201653-07:00,27.395095,3.08,1.23,-2.8,0.36,16.18,969.69,37.13,20.0,0.0,0.000372216,-0.000479731,-0.000672106,32.8213898,-111.787047,379.298767,-16.3424111,0.318329985,-0.0503523345,2.09831,-14.7376,6117.53,25.9665,11533.0,0.142894,-1.0,20.0,-1235.0,82.0,,0.0,,2022-11-15 19:52:12.201653+00:00
2022-11-15 12:52:12.400584-07:00,27.594026,3.2,1.14,-2.97,0.34,15.98,969.7,38.14,21.0,0.0,4.57618e-05,-2.31757e-05,0.0009765,32.8213898,-111.787047,379.303467,-16.3321602,0.319679558,-0.0406383683,,,,,,,,,,,,,,2022-11-15 19:52:12.400584+00:00
2022-11-15 12:52:12.601097-07:00,27.794539,3.14,1.17,-2.89,0.33,15.95,969.7,37.58,25.0,0.0,-0.000196337,0.000396519,0.000230242,32.8213898,-111.787047,379.298157,-16.3213257,0.320347405,-0.0402587958,,,,,,,,,,,,,,2022-11-15 19:52:12.601097+00:00
2022-11-15 12:52:12.801187-07:00,27.994629,2.9,0.86,-2.76,0.26,15.96,969.71,38.34,24.0,0.0,-0.000197127,8.74667e-05,-0.00018924,32.8213898,-111.787047,379.299194,-16.3114952,0.319820701,-0.0242615197,,,,,,,,,,,,,,2022-11-15 19:52:12.801187+00:00
2022-11-15 12:52:13.000821-07:00,28.194263,2.43,0.26,-2.36,0.49,16.97,969.68,35.91,20.0,0.0,0.000123972,-0.000726044,-0.00221752,32.8213898,-111.787047,379.291748,-16.3005956,0.321895381,-0.0280127847,,,,,,,,,,,,,,2022-11-15 19:52:13.000821+00:00
2022-11-15 12:52:13.201588-07:00,28.39503,2.45,0.62,-2.31,0.5,16.57,969.68,36.86,20.0,0.0,0.00030998,2.9243e-05,-0.00184759,32.8213899,-111.787047,379.296417,-16.2963569,0.322238557,-0.0263227329,2.09942,-15.4314,6109.31,25.9675,11584.0,0.195218,-1.0,20.0,-1229.0,82.0,,0.0,,2022-11-15 19:52:13.201588+00:00
2022-11-15 12:52:13.400599-07:00,28.594041,2.25,0.28,-2.19,0.45,16.97,969.69,35.3,24.0,0.0,6.13867e-06,-0.000699455,-0.00147472,32.8213899,-111.787047,379.302673,-16.2886165,0.321490291,-0.0265560366,,,,,,,,,,,,,,2022-11-15 19:52:13.400599+00:00
2022-11-15 12:52:13.600316-07:00,28.793758,2.25,0.4,-2.19,0.35,17.02,969.68,35.18,24.0,0.0,-2.03479e-05,-0.000436094,-0.00175099,32.8213899,-111.787047,379.292969,-16.2801566,0.319545613,-0.0384939419,,,,,,,,,,,,,,2022-11-15 19:52:13.600316+00:00
2022-11-15 12:52:13.800593-07:00,28.994035,2.5,0.32,-2.46,0.33,16.92,969.68,35.46,20.0,0.0,0.000167952,-0.000450232,-0.00281009,32.8213899,-111.787047,379.294495,-16.2696157,0.317356921,-0.0348493082,,,,,,,,,,,,,,2022-11-15 19:52:13.800593+00:00
2022-11-15 12:52:14.000964-07:00,29.194406,2.97,1.64,-2.44,0.44,15.64,969.67,39.23,19.0,0.0,8.76211e-05,-0.000838261,-0.000430814,32.8213899,-111.787047,379.300476,-16.2600626,0.319074338,-0.0475872608,,,,,,,,,,,,,,2022-11-15 19:52:14.000964+00:00
2022-11-15 12:52:14.201805-07:00,29.395247,3.2,1.71,-2.68,0.42,15.78,969.68,38.18,23.0,0.0,-0.000175991,2.99397e-05,-0.00143857,32.8213899,-111.787047,379.298035,-16.2511899,0.318377066,-0.0445671823,2.09823,-15.1046,6100.45,25.9687,11570.0,0.213092,-1.0,19.0,-1211.0,82.0,,0.0,,2022-11-15 19:52:14.201805+00:00
2022-11-15 12:52:14.401191-07:00,29.594633,3.15,1.71,-2.61,0.45,15.58,969.67,38.68,26.0,0.0,0.000281754,-0.00101372,-0.000628148,32.8213899,-111.787047,379.306335,-16.2475853,0.319702904,-0.0449127773,,,,,,,,,,,,,,2022-11-15 19:52:14.401191+00:00
2022-11-15 12:52:14.601027-07:00,29.794469,3.11,1.64,-2.58,0.54,15.67,969.67,38.43,22.0,0.0,9.53634e-05,0.000347371,0.000726459,32.8213899,-111.787047,379.303528,-16.2398986,0.319945883,-0.0427257554,,,,,,,,,,,,,,2022-11-15 19:52:14.601027+00:00
2022-11-15 12:52:14.800546-07:00,29.993988,2.97,1.5,-2.51,0.53,15.8,969.68,38.13,19.0,0.0,-0.000165666,-0.000337421,-0.00134177,32.8213899,-111.787047,379.297699,-16.2337034,0.319859493,-0.0289320489,,,,,,,,,,,,,,2022-11-15 19:52:14.800546+00:00
2022-11-15 12:52:15.001115-07:00,30.194557,2.98,1.5,-2.53,0.46,16.17,969.68,37.24,20.0,0.0,0.000191282,0.000272557,-0.000995707,32.8213899,-111.787047,379.303345,-16.2245605,0.317683738,-0.0372796654,,,,,,,,,,,,,,2022-11-15 19:52:15.001115+00:00
2022-11-15 12:52:15.202238-07:00,30.39568,2.87,1.39,-2.47,0.48,16.28,969.69,37.01,25.0,0.0,-7.30463e-05,0.000401183,-0.00112615,32.8213899,-111.787047,379.300323,-16.2145105,0.317620793,-0.028641439,2.10067,-15.5286,6103.93,25.9703,11511.0,0.0603745,-1.0,19.0,-1213.0,82.0,,0.0,,2022-11-15 19:52:15.202238+00:00
2022-11-15 12:52:15.401163-07:00,30.594605,2.94,1.52,-2.49,0.35,16.07,969.69,37.61,24.0,0.0,4.33806e-05,-0.0006769,-0.00138939,32.8213899,-111.787047,379.305908,-16.2086677,0.320234169,-0.0286588446,,,,,,,,,,,,,,2022-11-15 19:52:15.401163+00:00
2022-11-15 12:52:15.601139-07:00,30.794581,3.03,1.67,-2.51,0.35,16.09,969.67,37.51,20.0,0.0,-6.04629e-05,0.00066994,0.000360969,32.82139,-111.787047,379.310577,-16.197759,0.320172821,-0.0322456116,,,,,,,,,,,,,,2022-11-15 19:52:15.601139+00:00
2022-11-15 12:52:15.800358-07:00,30.9938,2.69,1.39,-2.25,0.45,16.19,969.67,37.38,20.0,0.0,0.000191534,0.000579031,-0.00149869,32.82139,-111.787047,379.309998,-16.1920167,0.319645674,-0.0314833784,,,,,,,,,,,,,,2022-11-15 19:52:15.800358+00:00
2022-11-15 12:52:16.000847-07:00,31.194289,2.81,1.34,-2.4,0.58,16.01,969.67,37.7,24.0,0.0,0.000387286,-0.000298173,-0.000533011,32.82139,-111.787047,379.309723,-16.18808,0.319562284,-0.0387477228,,,,,,,,,,,,,,2022-11-15 19:52:16.000847+00:00
2022-11-15 12:52:16.202049-07:00,31.395491,2.9,0.85,-2.76,0.29,16.47,969.67,36.65,26.0,0.0,9.73604e-05,0.000236123,-0.00111782,32.82139,-111.787047,379.304291,-16.1762855,0.31560448,-0.0410458719,2.10134,-14.9264,6087.4,25.9714,11570.0,0.124962,-1.0,20.0,-1247.0,82.0,,0.0,,2022-11-15 19:52:16.202049+00:00
2022-11-15 12:52:16.401225-07:00,31.594667,2.65,0.48,-2.57,0.44,16.7,969.67,36.17,23.0,0.0,0.000534707,-0.000342387,-0.000548976,32.82139,-111.787047,379.30423,-16.1648788,0.314102785,-0.0444059891,,,,,,,,,,,,,,2022-11-15 19:52:16.401225+00:00
2022-11-15 12:52:16.600413-07:00,31.793855,3.12,1.35,-2.76,0.55,15.99,969.68,37.76,20.0,0.0,-0.000136166,0.00096631,-0.00141811,32.8213901,-111.787047,379.299133,-16.1558754,0.315487875,-0.0482046561,,,,,,,,,,,,,,2022-11-15 19:52:16.600413+00:00
2022-11-15 12:52:16.801176-07:00,31.994618,2.8,0.64,-2.68,0.5,16.49,969.67,36.71,22.0,0.0,0.000110566,0.000344728,-0.000376401,32.8213901,-111.787047,379.298584,-16.1526557,0.317893702,-0.0424700001,,,,,,,,,,,,,,2022-11-15 19:52:16.801176+00:00
2022-11-15 12:52:17.000700-07:00,32.194142,3.12,0.65,-3.04,0.34,16.72,969.68,36.18,26.0,0.0,-8.35676e-05,-0.000416909,0.000792106,32.8213901,-111.787047,379.305206,-16.1467503,0.317640173,-0.0401191604,,,,,,,,,,,,,,2022-11-15 19:52:17.000700+00:00
2022-11-15 12:52:17.201895-07:00,32.395337,3.45,0.81,-3.34,0.3,16.86,969.67,35.8,23.0,0.0,-0.000281855,-1.82404e-05,0.000120672,32.8213902,-111.787047,379.30481,-16.1425178,0.318841112,-0.0496471739,2.10025,-14.9304,6073.0,25.9724,11587.0,0.146143,-1.0,20.0,-1233.0,82.0,,0.0,,2022-11-15 19:52:17.201895+00:00
2022-11-15 12:52:17.400428-07:00,32.59387,3.53,0.64,-3.45,0.36,17.03,969.68,35.47,20.0,0.0,-4.19073e-05,0.000209181,0.00077265,32.8213902,-111.787047,379.310822,-16.1329333,0.317072666,-0.0458777819,,,,,,,,,,,,,,2022-11-15 19:52:17.400428+00:00
2022-11-15 12:52:17.600404-07:00,32.793846,3.25,0.45,-3.2,0.41,17.23,969.66,35.02,20.0,0.0,-0.000107495,0.000494667,0.000549788,32.8213902,-111.787047,379.30838,-16.1285569,0.31903243,-0.0451738086,,,,,,,,,,,,,,2022-11-15 19:52:17.600404+00:00
2022-11-15 12:52:17.800623-07:00,32.994065,3.21,0.44,-3.16,0.29,17.28,969.66,34.94,24.0,0.0,0.000107635,6.63956e-05,0.00170445,32.8213902,-111.787047,379.314362,-16.1146146,0.317214084,-0.0408163001,,,,,,,,,,,,,,2022-11-15 19:52:17.800623+00:00
2022-11-15 12:52:18.000299-07:00,33.193741,3.18,0.14,-3.13,0.54,17.46,969.67,34.6,24.0,0.0,-0.000238422,-0.000128175,0.000901667,32.8213902,-111.787047,379.310455,-16.105385,0.319487485,-0.0479135692,,,,,,,,,,,,,,2022-11-15 19:52:18.000299+00:00
2022-11-15 12:52:18.201882-07:00,33.395324,3.31,0.14,-3.29,0.33,17.32,969.68,34.82,19.0,0.0,0.000100891,0.000229695,-0.000418081,32.8213902,-111.787047,379.297852,-16.1000286,0.319270391,-0.041027219,2.09751,-15.1005,6081.98,25.9738,11565.0,0.140801,-1.0,18.0,-1212.0,82.0,,0.0,,2022-11-15 19:52:18.201882+00:00
2022-11-15 12:52:18.400812-07:00,33.594254,3.26,0.46,-3.22,0.17,17.0,969.68,35.68,19.0,0.0,-0.000192518,-0.000221401,-0.00248439,32.8213902,-111.787047,379.287445,-16.0930946,0.318762129,-0.0494681481,,,,,,,,,,,,,,2022-11-15 19:52:18.400812+00:00
2022-11-15 12:52:18.600413-07:00,33.793855,3.03,1.09,-2.77,0.61,16.53,969.67,36.68,23.0,0.0,-0.000274873,0.000712661,-0.00305419,32.8213902,-111.787047,379.277466,-16.0866475,0.321605067,-0.0629503378,,,,,,,,,,,,,,2022-11-15 19:52:18.600413+00:00
2022-11-15 12:52:18.801110-07:00,33.994552,3.31,0.84,-3.19,0.28,16.54,969.68,36.62,25.0,0.0,-4.26505e-05,0.000606592,-0.00115834,32.8213902,-111.787047,379.282928,-16.0818107,0.322462651,-0.0545433743,,,,,,,,,,,,,,2022-11-15 19:52:18.801110+00:00
2022-11-15 12:52:19.000715-07:00,34.194157,3.65,0.32,-3.63,0.02,16.92,969.69,35.81,21.0,0.0,0.000832879,-0.000563445,-0.000240983,32.8213903,-111.787047,379.279358,-16.0716192,0.323065993,-0.0565416358,,,,,,,,,,,,,,2022-11-15 19:52:19.000715+00:00
2022-11-15 12:52:19.201263-07:00,34.394705,3.17,0.52,-3.12,0.18,16.59,969.7,36.65,18.0,0.0,0.000258765,-6.29922e-05,-0.000261352,32.8213903,-111.787047,379.283051,-16.0657195,0.322436647,-0.0653804859,2.09906,-14.6052,6111.46,25.9753,11523.0,0.126794,-1.0,19.0,-1247.0,82.0,,0.0,,2022-11-15 19:52:19.201263+00:00
2022-11-15 12:52:19.400509-07:00,34.593951,2.99,0.11,-2.97,0.36,16.71,969.69,36.33,21.0,0.0,0.000107992,0.000445251,0.000672141,32.8213903,-111.787047,379.285889,-16.0591113,0.324170073,-0.0472149653,,,,,,,,,,,,,,2022-11-15 19:52:19.400509+00:00
2022-11-15 12:52:19.600568-07:00,34.79401,2.91,0.31,-2.88,0.29,16.58,969.69,36.63,24.0,0.0,0.000969799,1.22845e-05,-0.000799579,32.8213903,-111.787047,379.283661,-16.0475335,0.323751385,-0.0520606829,,,,,,,,,,,,,,2022-11-15 19:52:19.600568+00:00
2022-11-15 12:52:19.800277-07:00,34.993719,3.09,0.56,-3.03,0.25,16.6,969.68,36.68,22.0,0.0,-0.000170433,0.00115499,-4.39247e-05,32.8213903,-111.787047,379.284332,-16.0386551,0.324957826,-0.037607718,,,,,,,,,,,,,,2022-11-15 19:52:19.800277+00:00
2022-11-15 12:52:20.000313-07:00,35.193755,2.9,0.55,-2.82,0.4,16.75,969.68,36.29,19.0,1.0,0.000635858,-0.000354501,-0.000174373,32.8213903,-111.787047,379.286835,-15.9475976,0.323849307,-0.0474820065,,,,,,,,,,,,,,2022-11-15 19:52:20.000313+00:00
2022-11-15 12:52:20.201739-07:00,35.395181,2.86,0.95,-2.68,0.36,16.24,969.69,37.49,20.0,1.0,5.20436e-05,0.00234954,0.00105208,32.8213903,-111.787047,379.297699,-15.2883666,0.319190259,-0.0565827037,2.09704,-14.4565,6123.16,25.9769,11523.0,0.00564569,-1.0,19.0,-1247.0,82.0,,0.0,,2022-11-15 19:52:20.201739+00:00
2022-11-15 12:52:20.400818-07:00,35.59426,3.27,0.68,-3.16,0.46,16.57,969.69,36.79,24.0,1.0,-0.000519562,0.00198878,-0.000412767,32.8213903,-111.787047,379.288391,-14.8361747,0.316612686,-0.0352062957,,,,,,,,,,,,,,2022-11-15 19:52:20.400818+00:00
2022-11-15 12:52:20.600477-07:00,35.793919,2.72,0.63,-2.64,0.22,16.88,969.7,36.02,23.0,1.0,0.000157985,-4.1535e-05,-0.000599633,32.8213904,-111.787047,379.291718,-14.5250175,0.318398355,-0.0693435725,,,,,,,,,,,,,,2022-11-15 19:52:20.600477+00:00
2022-11-15 12:52:20.801102-07:00,35.994544,2.66,0.09,-2.56,0.7,17.02,969.68,35.7,20.0,1.0,-0.000537928,0.00377187,-0.00164093,32.8213904,-111.787047,379.295166,-14.2805893,0.313652838,-0.0651810963,,,,,,,,,,,,,,2022-11-15 19:52:20.801102+00:00
2022-11-15 12:52:21.000311-07:00,36.193753,2.89,0.51,-2.84,0.21,16.83,969.68,36.23,19.0,1.0,0.000346195,0.001009,0.000379399,32.8213904,-111.787047,379.305206,-14.1099151,0.310581265,-0.0901497164,,,,,,,,,,,,,,2022-11-15 19:52:21.000311+00:00
2022-11-15 12:52:21.201540-07:00,36.394982,2.73,0.26,-2.68,0.45,16.9,969.68,36.1,22.0,1.0,-0.00183986,0.000829475,0.00357148,32.8213904,-111.787047,379.315369,-13.9518648,0.312643432,-0.0872185478,2.10034,-15.4817,6122.44,25.9778,11586.0,-0.0151361,-1.0,22.0,-1237.0,82.0,,0.0,,2022-11-15 19:52:21.201540+00:00
2022-11-15 12:52:21.400947-07:00,36.594389,2.97,0.7,-2.86,0.36,16.72,969.68,36.44,25.0,1.0,-0.000509723,0.00370283,0.00613982,32.8213904,-111.787047,379.341278,-13.8633679,0.32002201,-0.0804622562,,,,,,,,,,,,,,2022-11-15 19:52:21.400947+00:00
2022-11-15 12:52:21.600991-07:00,36.794433,3.0,0.56,-2.94,0.23,16.24,969.68,37.61,20.0,1.0,-8.43665e-05,0.00314968,0.00587531,32.8213904,-111.787047,379.33606,-13.8350823,0.317841525,-0.105129724,,,,,,,,,,,,,,2022-11-15 19:52:21.600991+00:00
2022-11-15 12:52:21.800533-07:00,36.993975,3.35,0.66,-3.28,0.19,16.18,969.7,37.84,20.0,1.0,-0.00159187,0.00314096,-0.00599999,32.8213904,-111.787047,379.315063,-13.8126508,0.321618144,-0.127290765,,,,,,,,,,,,,,2022-11-15 19:52:21.800533+00:00
2022-11-15 12:52:22.000566-07:00,37.194008,3.32,1.14,-3.1,0.26,16.3,969.68,37.52,21.0,1.0,-0.00386041,-0.000726943,-0.0116504,32.8213904,-111.787047,379.331512,-13.7445493,0.325728929,-0.225313927,,,,,,,,,,,,,,2022-11-15 19:52:22.000566+00:00
2022-11-15 12:52:22.201996-07:00,37.395438,3.12,0.56,-3.07,0.07,16.42,969.68,37.22,21.0,1.0,0.00194333,-0.00110411,-0.0152377,32.8213903,-111.787047,379.315155,-13.7421699,0.330462097,-0.308170817,2.10212,-13.8916,6132.39,25.9789,11582.0,0.146486,-1.0,22.0,-1217.0,82.0,,0.0,,2022-11-15 19:52:22.201996+00:00
2022-11-15 12:52:22.400411-07:00,37.593853,2.77,0.58,-2.69,0.33,16.07,969.67,38.16,30.0,1.0,0.00870016,-0.00985645,-0.00848307,32.8213902,-111.787047,379.324524,-13.7278405,0.322548793,-0.465774246,,,,,,,,,,,,,,2022-11-15 19:52:22.400411+00:00
2022-11-15 12:52:22.600634-07:00,37.794076,3.07,0.37,-3.03,0.28,16.09,969.65,38.06,23.0,1.0,0.00722272,-0.0147522,0.000805197,32.8213902,-111.787047,379.391113,-13.8349271,0.332801393,-0.845313586,,,,,,,,,,,,,,2022-11-15 19:52:22.600634+00:00
2022-11-15 12:52:22.801098-07:00,37.99454,3.25,0.35,-3.22,0.26,16.17,969.66,37.91,13.0,1.0,0.00520057,-0.0294566,0.0171753,32.8213902,-111.787047,379.369812,-13.8706993,0.315149856,-1.26712366,,,,,,,,,,,,,,2022-11-15 19:52:22.801098+00:00
2022-11-15 12:52:23.000928-07:00,38.19437,3.41,0.11,-3.39,0.3,16.86,969.66,36.28,65.0,1.0,0.00148013,-0.0582107,0.0684069,32.8213901,-111.787047,379.34613,-13.7285467,0.255506797,-1.42070775,,,,,,,,,,,,,,2022-11-15 19:52:23.000928+00:00
2022-11-15 12:52:23.201305-07:00,38.394747,3.16,0.19,-3.16,0.04,17.15,969.64,35.62,21.0,2.0,-0.000382553,-0.103126,0.281152,32.82139,-111.787047,379.369202,-13.3720943,1.10235756,-0.193992511,2.10219,-14.5766,6126.95,25.9808,11548.0,0.155114,-1.0,20.0,-1196.0,82.0,,0.0,,2022-11-15 19:52:23.201305+00:00
2022-11-15 12:52:23.401031-07:00,38.594473,3.22,0.18,-3.21,-0.04,16.13,969.63,38.07,16.0,2.0,0.0244528,-0.136759,0.496173,32.8213897,-111.787047,379.446594,-13.3340774,1.18413397,0.746927742,,,,,,,,,,,,,,2022-11-15 19:52:23.401031+00:00
2022-11-15 12:52:23.601095-07:00,38.794537,3.8,-0.04,-3.79,-0.28,15.41,969.62,39.9,15.0,2.0,0.0534214,-0.165821,0.614432,32.8213893,-111.787047,379.489807,-13.3489182,0.693833644,0.597863391,,,,,,,,,,,,,,2022-11-15 19:52:23.601095+00:00
2022-11-15 12:52:23.800939-07:00,38.994381,3.91,0.1,-3.88,-0.46,15.56,969.58,39.48,35.0,2.0,0.0603588,-0.257076,0.702951,32.8213887,-111.787047,379.631805,-13.25234,0.715530019,0.0455992482,,,,,,,,,,,,,,2022-11-15 19:52:23.800939+00:00
2022-11-15 12:52:24.001090-07:00,39.194532,3.83,0.1,-3.76,-0.73,15.68,969.57,39.17,16.0,2.0,0.0775911,-0.303935,0.872407,32.821388,-111.787047,379.793549,-13.3214257,1.1745016,0.804696323,,,,,,,,,,,,,,2022-11-15 19:52:24.001090+00:00
2022-11-15 12:52:24.202226-07:00,39.395668,4.23,-0.29,-4.22,-0.04,15.49,969.55,39.64,20.0,2.0,0.0830611,-0.366234,1.09268,32.8213872,-111.787047,380.042328,-13.3108214,1.03426262,2.03361205,2.09853,-14.2124,6118.59,25.9818,11511.0,0.101687,-1.0,20.0,-1216.0,82.0,,0.0,,2022-11-15 19:52:24.202226+00:00
2022-11-15 12:52:24.400562-07:00,39.594004,3.97,-0.65,-3.92,0.01,15.57,969.51,39.55,17.0,2.0,0.0529213,-0.35402,1.27839,32.8213863,-111.787047,380.358246,-13.2425313,1.1689969,3.64797647,,,,,,,,,,,,,,2022-11-15 19:52:24.400562+00:00
2022-11-15 12:52:24.601173-07:00,39.794615,4.02,-0.62,-3.97,-0.1,15.81,969.5,38.9,12.0,2.0,0.0464098,-0.28148,1.36662,32.8213856,-111.787047,380.727356,-13.3964476,1.6045193,4.68147618,,,,,,,,,,,,,,2022-11-15 19:52:24.601173+00:00
2022-11-15 12:52:24.800296-07:00,39.993738,3.92,-0.24,-3.91,-0.1,16.25,969.45,37.86,20.0,2.0,0.0531791,-0.198821,1.25576,32.8213852,-111.787048,381.030823,-13.4111976,1.37576188,4.95044135,,,,,,,,,,,,,,2022-11-15 19:52:24.800296+00:00
2022-11-15 12:52:25.000380-07:00,40.193822,4.04,0.08,-4.03,-0.29,15.67,969.44,39.28,19.0,2.0,0.0597014,-0.123932,1.12538,32.821385,-111.787048,381.31955,-13.4238131,0.983577641,4.43806654,,,,,,,,,,,,,,2022-11-15 19:52:25.000380+00:00
2022-11-15 12:52:25.201807-07:00,40.395249,3.82,-0.06,-3.82,-0.16,15.66,969.43,39.35,24.0,2.0,0.0356761,-0.0736693,1.07514,32.821385,-111.787047,381.573547,-13.4999594,0.948305334,3.83538576,2.10002,-14.194,6109.75,25.9829,11533.0,0.0130477,-1.0,20.0,-1252.0,82.0,,0.0,,2022-11-15 19:52:25.201807+00:00
2022-11-15 12:52:25.401059-07:00,40.594501,4.61,-0.19,-4.61,-0.18,15.95,969.42,38.59,29.0,2.0,0.0458367,-0.0218842,1.09066,32.8213851,-111.787047,381.799957,-13.4545867,0.355823037,3.10649419,,,,,,,,,,,,,,2022-11-15 19:52:25.401059+00:00
2022-11-15 12:52:25.600933-07:00,40.794375,5.23,-0.02,-5.23,-0.08,16.02,969.39,38.45,54.0,2.0,0.0132106,-0.0195055,1.3023,32.8213852,-111.787047,382.101746,-13.4747373,0.321319527,2.32245885,,,,,,,,,,,,,,2022-11-15 19:52:25.600933+00:00
2022-11-15 12:52:25.801072-07:00,40.994514,4.5,-0.07,-4.5,-0.14,16.07,969.36,38.34,19.0,2.0,0.0238369,-0.0181347,1.41449,32.8213852,-111.787047,382.433289,-13.3501978,1.13627588,2.78175857,,,,,,,,,,,,,,2022-11-15 19:52:25.801072+00:00
2022-11-15 12:52:26.000383-07:00,41.193825,4.32,-0.47,-4.29,-0.14,15.48,969.32,39.86,15.0,2.0,0.0392675,-0.0478628,1.49194,32.8213851,-111.787047,382.731079,-13.3339308,1.19860517,3.74076875,,,,,,,,,,,,,,2022-11-15 19:52:26.000383+00:00
2022-11-15 12:52:26.201391-07:00,41.394833,4.14,-0.42,-4.12,0.03,15.69,969.3,39.34,16.0,2.0,0.0551326,-0.00144172,1.53191,32.8213851,-111.787047,383.039612,-13.4840215,0.681736609,3.71997286,2.09915,-15.2201,6095.77,25.9849,11585.0,0.10552,-1.0,22.0,-1243.0,82.0,,0.0,,2022-11-15 19:52:26.201391+00:00
2022-11-15 12:52:26.401248-07:00,41.59469,4.22,-0.2,-4.21,0.04,15.71,969.27,39.37,21.0,2.0,0.068154,0.00757609,1.49126,32.8213851,-111.787047,383.3573,-13.5291366,1.87596804,2.01107141,,,,,,,,,,,,,,2022-11-15 19:52:26.401248+00:00
2022-11-15 12:52:26.601166-07:00,41.794608,3.75,-0.21,-3.75,-0.03,15.81,969.24,39.03,15.0,2.0,0.163892,0.0184249,1.48483,32.8213852,-111.787047,383.63089,-13.550905,4.67616361,2.35084652,,,,,,,,,,,,,,2022-11-15 19:52:26.601166+00:00
2022-11-15 12:52:26.801085-07:00,41.994527,4.2,-0.12,-4.19,-0.15,15.84,969.21,39.05,40.0,2.0,0.326857,0.0334075,1.44542,32.8213853,-111.787046,383.884125,-13.5475459,6.73085795,2.92812276,,,,,,,,,,,,,,2022-11-15 19:52:26.801085+00:00
2022-11-15 12:52:27.000739-07:00,42.194181,4.45,-0.17,-4.45,-0.08,15.66,969.18,39.46,10.0,2.0,0.581538,0.0901561,1.45494,32.8213854,-111.787046,384.119263,-13.6494132,8.29289747,3.14978439,,,,,,,,,,,,,,2022-11-15 19:52:27.000739+00:00
2022-11-15 12:52:27.202023-07:00,42.395465,4.37,-0.02,-4.37,0.06,15.52,969.15,39.82,2.0,2.0,0.836587,0.100813,1.35715,32.8213856,-111.787044,384.435883,-13.6495991,8.07384925,2.93782024,2.10085,-14.5848,6083.1,25.9864,11539.0,0.142768,-1.0,17.0,-1205.0,82.0,,0.0,,2022-11-15 19:52:27.202023+00:00
2022-11-15 12:52:27.400347-07:00,42.593789,4.42,0.06,-4.41,0.08,15.8,969.14,39.14,31.0,2.0,0.994103,0.0960479,1.20691,32.8213857,-111.787042,384.644012,-13.6076088,5.71951333,2.54424996,,,,,,,,,,,,,,2022-11-15 19:52:27.400347+00:00
2022-11-15 12:52:27.600991-07:00,42.794433,4.5,-0.08,-4.5,0.21,15.88,969.12,39.0,11.0,2.0,1.13466,0.0916693,0.9419,32.8213856,-111.787039,384.793579,-13.703875,4.23214294,2.80688876,,,,,,,,,,,,,,2022-11-15 19:52:27.600991+00:00
2022-11-15 12:52:27.800268-07:00,42.99371,4.32,-0.12,-4.31,0.16,15.84,969.1,39.04,18.0,2.0,1.23239,0.0849322,0.869338,32.8213855,-111.787036,384.928741,-13.5967962,4.36297259,2.70996064,,,,,,,,,,,,,,2022-11-15 19:52:27.800268+00:00
2022-11-15 12:52:28.001166-07:00,43.194608,4.43,-0.03,-4.43,0.16,15.85,969.09,39.01,29.0,2.0,1.36021,0.0584933,0.866078,32.8213853,-111.787033,385.115662,-13.5673647,4.7153226,2.65583204,,,,,,,,,,,,,,2022-11-15 19:52:28.001166+00:00
2022-11-15 12:52:28.201884-07:00,43.395326,4.72,-0.06,-4.72,0.08,15.64,969.08,39.7,23.0,2.0,1.49085,0.0473832,0.834826,32.8213851,-111.78703,385.289368,-13.5632127,4.72035485,2.84367883,2.09872,-13.8894,6082.31,25.9878,11510.0,0.116635,-1.0,17.0,-1215.0,82.0,,0.0,,2022-11-15 19:52:28.201884+00:00
2022-11-15 12:52:28.401017-07:00,43.594459,5.06,0.05,-5.06,-0.13,15.22,969.06,40.75,29.0,2.0,1.57478,0.0155651,0.721314,32.8213848,-111.787026,385.403534,-13.6359963,3.85990355,2.90893663,,,,,,,,,,,,,,2022-11-15 19:52:28.401017+00:00
2022-11-15 12:52:28.601010-07:00,43.794452,5.1,-0.07,-5.08,-0.41,15.23,969.03,40.66,10.0,2.0,1.63959,-0.0221372,0.70927,32.8213844,-111.787023,385.513702,-13.6759944,3.56748604,2.92093401,,,,,,,,,,,,,,2022-11-15 19:52:28.601010+00:00
2022-11-15 12:52:28.801006-07:00,43.994448,4.48,0.33,-4.47,0.01,14.61,969.01,42.3,41.0,2.0,1.71663,-0.034098,0.726288,32.821384,-111.787019,385.630432,-13.6316711,4.1960176,3.40916619,,,,,,,,,,,,,,2022-11-15 19:52:28.801006+00:00
2022-11-15 12:52:29.000850-07:00,44.194292,4.86,0.53,-4.83,-0.01,14.52,969.01,42.61,33.0,2.0,1.7819,-0.024767,0.647868,32.8213837,-111.787015,385.767273,-13.7210743,4.87619184,4.26707558,,,,,,,,,,,,,,2022-11-15 19:52:29.000850+00:00
2022-11-15 12:52:29.201541-07:00,44.394983,4.16,0.47,-4.13,-0.14,14.41,968.98,43.01,9.0,2.0,1.90018,0.013284,0.604896,32.8213835,-111.787011,385.921234,-13.7844882,5.72602613,4.50577115,2.09609,-14.7779,6075.24,25.9887,11510.0,0.108789,-1.0,17.0,-1215.0,82.0,,0.0,,2022-11-15 19:52:29.201541+00:00
2022-11-15 12:52:29.400424-07:00,44.593866,3.63,0.23,-3.63,0.03,14.53,968.98,42.64,7.0,2.0,2.03854,0.0512761,0.53568,32.8213834,-111.787006,386.015869,-13.8476441,6.86447505,4.79695073,,,,,,,,,,,,,,2022-11-15 19:52:29.400424+00:00
2022-11-15 12:52:29.600676-07:00,44.794118,3.78,0.38,-3.76,-0.03,14.56,968.97,42.59,7.0,2.0,2.20992,0.0842391,0.357472,32.8213833,-111.787001,386.085144,-13.9001912,6.95573311,5.09735583,,,,,,,,,,,,,,2022-11-15 19:52:29.600676+00:00
2022-11-15 12:52:29.800402-07:00,44.993844,4.36,-0.32,-4.31,-0.6,14.58,968.96,42.54,7.0,2.0,2.3389,0.114534,0.192617,32.8213834,-111.786995,386.105652,-13.9208653,5.92707783,5.12394174,,,,,,,,,,,,,,2022-11-15 19:52:29.800402+00:00
2022-11-15 12:52:30.000642-07:00,45.194084,4.56,-0.56,-4.46,-0.74,14.65,968.95,42.36,12.0,2.0,2.46087,0.152818,0.0284095,32.8213834,-111.786989,386.124298,-13.9290615,5.44382149,4.99247837,,,,,,,,,,,,,,2022-11-15 19:52:30.000642+00:00
2022-11-15 12:52:30.202061-07:00,45.395503,4.67,-0.89,-4.49,-0.89,14.57,968.94,42.52,7.0,2.0,2.56602,0.163937,-0.0186191,32.8213835,-111.786983,386.129974,-13.8372458,4.71775288,4.51890919,2.09995,-14.5757,6051.68,25.9897,11548.0,0.113988,-1.0,20.0,-1244.0,82.0,,0.0,,2022-11-15 19:52:30.202061+00:00
2022-11-15 12:52:30.400575-07:00,45.594017,4.77,-1.16,-4.55,-0.82,14.55,968.92,42.73,9.0,2.0,2.65261,0.214916,0.00761779,32.8213837,-111.786976,386.123688,-13.8133209,3.84242263,4.17223788,,,,,,,,,,,,,,2022-11-15 19:52:30.400575+00:00
2022-11-15 12:52:30.600447-07:00,45.793889,5.01,-1.55,-4.67,-0.94,14.91,968.92,41.75,10.0,2.0,2.70831,0.20634,-0.0376661,32.8213838,-111.786969,386.124268,-13.7838968,3.11888453,4.05625905,,,,,,,,,,,,,,2022-11-15 19:52:30.600447+00:00
2022-11-15 12:52:30.800349-07:00,45.993791,5.04,-1.61,-4.69,-0.89,15.79,968.92,39.41,9.0,2.0,2.76505,0.240072,-0.019582,32.8213839,-111.786962,386.175598,-13.7463177,2.3821928,3.96462624,,,,,,,,,,,,,,2022-11-15 19:52:30.800349+00:00
2022-11-15 12:52:31.001223-07:00,46.194665,5.17,-2.73,-4.38,-0.34,15.89,968.93,38.55,12.0,2.0,2.77622,0.231886,-0.0421774,32.8213841,-111.786955,386.163635,-13.7287438,1.71451154,3.61068783,,,,,,,,,,,,,,2022-11-15 19:52:31.001223+00:00
2022-11-15 12:52:31.201287-07:00,46.394729,5.99,-3.66,-4.74,0.03,15.94,968.94,39.09,15.0,2.0,2.79439,0.228853,0.00511626,32.8213843,-111.786948,386.149384,-13.7573906,1.39329744,3.28218698,2.10025,-14.4438,6022.27,25.9908,11577.0,0.136224,-1.0,23.0,-1236.0,82.0,,0.0,,2022-11-15 19:52:31.201287+00:00
