Timestamp,Seconds,S,Um,Vm,Wm,T,P,H,MD,Sts,Vx,Vy,Vz,Lat,Lon,Alt,Yaw,Roll,Pitch,CH4,C2H6,H2O,T_a,Batt,R,C2C1,Power,Current,SOC,Lat_a,Lon_a,TS,Timestamp_UTC,Rho,Rho_err,Sc,V,U,W,WD,V_err,U_err,Sc_avg,WD_avg,V_avg,U_avg,W_avg,U_err_avg,V_err_avg,Nx,Ny,cross_wind,cross_wind_err,CH4_sub,CH4_res,CH4_adj,CH4_adj_err,BG_Samples_CH4,C2H6_sub,C2H6_res,C2H6_adj,C2H6_adj_err,BG_Samples_C2H6,x_dist,y_dist,s_dist,z_dist,velocity_s,velocity_z,x_src_dist,y_src_dist,s_src_dist,collecting,group,transect_num
2022-11-15 12:51:45.200480-07:00,0.393922,2.85,2.08,-1.9,0.44,15.39,969.67,38.48,19.0,0.0,0.000252027,-0.00128034,-0.000807068,32.821394,-111.787047,380.135065,-17.7658573,0.325958083,-0.0316353334,2.09536,-15.8842,6120.4,25.9368,11585.0,0.435488,-1.0,19.0,-1229.0,82.0,,0.0,,2022-11-15 19:51:45.200480+00:00,1.1707193097386945,0.014547031550171336,2.8179248490840556,-1.1760059989802019,2.5608026760076568,0.439192932,294.66616543142675,0.2636782691893834,0.15067783831812706,2.779988523559653,294.4259450245511,-1.1483523058365717,2.52711315721184,0.42814622580000006,0.15029471640134162,0.2634393549452517,0.9811716867879148,0.19313757025953815,2.25774190501426,0.1450217272346717,,,,,,,,,,,0.4119042742766073,0.0,0.4119042742766073,-0.012634000000048218,0.4119042742766073,-0.012634000000048218,-20.14990911463013,-103.37689694790602,105.32237017797233,False,,
2022-11-15 12:51:46.200976-07:00,1.394418,2.63,1.76,-1.92,0.4,15.2,969.67,39.13,19.0,0.0,0.000225958,-0.000634651,-0.00139963,32.8213935,-111.787047,380.128259,-17.6961431,0.329263042,-0.0228616076,2.09748,-14.9798,6131.83,25.9375,11592.0,0.405537,-1.0,22.0,-1253.0,82.0,,0.0,,2022-11-15 19:51:46.200976+00:00,1.171490721803374,0.01455960226578408,2.6051227654147913,-1.2947986669007363,2.26056652967226,0.39860037000000004,299.80305379343133,0.2637142642352862,0.15336327536928018,2.6761323186371273,303.3967539402396,-1.4641526376138407,2.2287116110095004,0.36483661440000004,0.15727728083891696,0.26494477424552987,0.9420720198347563,0.33541065791722025,1.6085144495396022,0.14273045834730058,,,,,,,,,,,0.3562415345695831,0.0,0.3562415345695831,-0.019440000000031432,-0.055662739707024234,-0.006805999999983214,-20.205571854337155,-103.37689694790602,105.33303354854432,False,,
2022-11-15 12:51:47.200437-07:00,2.393879,2.42,1.21,-2.08,0.25,16.13,969.66,36.92,19.0,0.0,0.000428197,-0.0005978,-0.00157402,32.8213933,-111.787047,380.122339,-17.6281418,0.331022325,-0.0163497856,2.09874,-15.0494,6106.82,25.9381,11535.0,0.418158,-1.0,21.0,-1212.0,82.0,,0.0,,2022-11-15 19:51:47.200437+00:00,1.1677124791873643,0.01449823302270625,2.4070645037697322,-1.6164912240253957,1.7835121664729696,0.24842598,312.1876767408297,0.26488114101155874,0.16105399406639656,2.4450210797157106,314.0783586382764,-1.6988915002221927,1.7551823582862611,0.22151072580000003,0.16318399113577287,0.265478278621717,0.8129628379200536,0.5823155709415407,0.43760705713999426,0.14048277985742919,,,,,,,,,,,0.33397643812771566,0.0,0.33397643812771566,-0.025360000000034688,-0.022265096441867416,-0.005920000000003256,-20.22783695077902,-103.37689694790602,105.33730683041637,False,,
2022-11-15 12:51:48.201003-07:00,3.394445,2.76,1.85,-2.01,0.39,15.24,969.68,39.28,22.0,0.0,0.000675804,-0.000879897,0.00188846,32.8213933,-111.787047,380.14486100000005,-17.5726528,0.330853922,-0.0213730865,2.10016,-15.4118,6073.95,25.9398,11525.0,0.312598,-1.0,19.0,-1220.0,82.0,,0.0,,2022-11-15 19:51:48.201003+00:00,1.1713403144515588,0.014557000731508805,2.732799744867231,-1.3585404413220914,2.3711942802813057,0.39188846,299.8099095238065,0.2642197970717107,0.15518384262746782,2.730968133634535,304.9355109541446,-1.5569632706874585,2.2345190510824073,0.34229916942000005,0.1599086157976536,0.26547250905896874,0.7930767133603559,0.6091217667474509,0.8237648067715025,0.14077561166677874,,,,,,,,,,,0.3339764393069648,0.0,0.3339764393069648,-0.0028379999999970096,1.1792491427797813e-09,0.02252200000003768,-20.227836949599773,-103.37689694790602,105.33730683018992,False,,
2022-11-15 12:51:49.201492-07:00,4.394934,2.81,1.74,-2.18,0.35,15.59,969.66,38.45,24.0,0.0,0.000590724,-0.00116558,0.00182067,32.8213931,-111.787047,380.152979,-17.5088314,0.328008712,-0.0178205541,2.09875,-15.1946,6066.81,25.9405,11587.0,0.332914,-1.0,20.0,-1240.0,82.0,,0.0,,2022-11-15 19:51:49.201492+00:00,1.1698963288055717,0.014533776192646185,2.7904055639956478,-1.5566835948942304,2.315836651615361,0.35182067,303.9086227293746,0.26554942242388985,0.15998729149952545,2.776267287858606,302.76342658148207,-1.5049847326636479,2.3309714678872644,0.37319662420000005,0.15891301439063416,0.26522102292385535,0.8919853355125341,0.4520643330662041,1.3988424474071541,0.13756500692302456,,,,,,,,,,,0.3117113442219898,0.0,0.3117113442219898,0.0052799999999706415,-0.022265095084974984,0.008117999999967651,-20.25010204468475,-103.37689694790602,105.34158464442297,False,,
2022-11-15 12:51:50.201382-07:00,5.394824,2.75,1.62,-2.2,0.32,15.8,969.67,38.09,23.0,0.0,-0.000340691,-0.000727315,0.000851037,32.8213929,-111.787047,380.138544,-17.4399882,0.320091738,-0.0268706889,2.09878,-16.2428,6066.82,25.9416,11544.0,0.15048,-1.0,21.0,-1229.0,82.0,,0.0,,2022-11-15 19:51:50.201382+00:00,1.1690581402734137,0.01451997953667295,2.7322600708106557,-1.6140715008912376,2.2045449155226926,0.320851037,306.2099591336917,0.2656216709188212,0.16165651891626012,2.864676271338773,311.0981108576471,-1.8848170769964845,2.1306085754440525,0.27635361040000006,0.1694721939288443,0.2680022530277742,0.9055727409165527,-0.42419100757663647,2.728943502473972,0.1471065480543775,,,,,,,,,,,0.28944624734876434,0.0,0.28944624734876434,-0.009155000000021118,-0.022265096873225476,-0.01443499999999176,-20.272367141557975,-103.37689694790602,105.34586699106947,False,,
2022-11-15 12:51:51.201565-07:00,6.395007,2.81,1.39,-2.44,0.15,16.49,969.66,35.93,21.0,0.0,-0.000130455,-0.000435563,0.00119703,32.8213925,-111.787047,380.13982500000003,-17.3897128,0.320132383,-0.023817604,2.09778,-15.1291,6069.95,25.9429,11523.0,0.088459,-1.0,20.0,-1217.0,82.0,,0.0,,2022-11-15 19:51:51.201565+00:00,1.1662611033673551,0.014474634603026145,2.8083501131394835,-1.9134843877046612,2.0555796885504263,0.15119702999999998,312.94964624782233,0.2677884148999766,0.1698017755230911,2.8296369448525893,312.9963166213162,-1.9070396852992786,2.0431989706928837,0.14674271728000002,0.17022753093323367,0.26778923288016737,0.9579556671715308,-0.28691625909653024,2.50445472558898,0.15776202351585603,,,,,,,,,,,0.24491605577050807,0.0,0.24491605577050807,-0.007874000000015258,-0.04453019157825627,0.0012810000000058608,-20.316897333136232,-103.37689694790602,105.35444527794344,False,,
2022-11-15 12:51:52.201988-07:00,7.39543,2.42,1.38,-1.98,0.05,16.93,969.66,34.85,19.0,0.0,-0.000287452,0.000153955,-0.000834549,32.8213923,-111.787047,380.14074100000005,-17.3286349,0.320923158,-0.0158164471,2.09767,-15.1831,6064.73,25.9436,11523.0,0.0456758,-1.0,20.0,-1217.0,82.0,,0.0,,2022-11-15 19:51:52.201988+00:00,1.1644920917654464,0.014445896877180685,2.4131407484344933,-1.4789421631137658,1.906824152857143,0.049165451000000006,307.7973310185188,0.26357949713561896,0.1588164485847244,2.4935605797202482,307.9558122385646,-1.533812126255358,1.9598964492315303,0.12318615080000002,0.16028282340182348,0.26419555927309757,0.4721329045504656,0.881527379291614,-0.42676578078975724,0.2083895556278361,,,,,,,,,,,0.22265095963021259,0.0,0.22265095963021259,-0.006957999999997355,-0.02226509614029548,0.0009160000000179025,-20.339162429276527,-103.37689694790602,105.35874121734027,False,,
2022-11-15 12:51:53.201481-07:00,8.394923,2.68,1.36,-2.31,-0.02,17.08,969.66,34.73,19.0,0.0,0.000318681,-0.000420805,0.00222933,32.8213919,-111.787047,380.161127,-17.2766529,0.321761725,-0.0191860318,2.09767,-15.6749,6075.09,25.9445,11573.0,-0.0112965,-1.0,20.0,-1233.0,82.0,,0.0,,2022-11-15 19:51:53.201481+00:00,1.163890245595978,0.01443612616013224,2.6811344079213693,-1.8022972961627908,1.9849952568165408,-0.017770670000000002,312.2382081780821,0.2663849340941971,0.16712267391923258,2.686456153764942,303.69186842117244,-1.4539638537320727,2.2096024597340733,0.17542637619999998,0.15923533855334002,0.26415410343398593,0.7971930489678214,0.6037244757978499,0.8836861564587865,0.13968022943641284,,,,,,,,,,,0.17812076855671602,0.0,0.17812076855671602,0.013427999999976237,-0.04453019107349657,0.020385999999973592,-20.383692620350022,-103.37689694790602,105.36734668491417,False,,
2022-11-15 12:51:54.201187-07:00,9.394629,3.05,2.54,-1.63,0.41,15.09,969.65,39.5,21.0,0.0,-0.000114599,0.00030624,0.000843277,32.8213914,-111.787047,380.15001800000005,-17.2183881,0.325675063,-0.0221787954,2.09837,-15.0834,6086.96,25.946,11590.0,-0.045384,-1.0,21.0,-1241.0,82.0,,0.0,,2022-11-15 19:51:54.201187+00:00,1.1719136217271668,0.01456679641670674,3.017837032585213,-0.8047655968610834,2.908555086181375,0.41084327699999995,285.4661883250805,0.2607794870070306,0.146630459630022,2.836604995012981,300.4357139823684,-1.3463513737867296,2.391719405533094,0.3561413418,0.15781147743270899,0.26371633797170463,0.9365712718532399,0.35047717862823063,1.768150254629189,0.14216651333633853,,,,,,,,,,,0.12245802808094558,0.0,0.12245802808094558,0.00231899999999996,-0.05566274047577044,-0.011108999999976277,-20.439355360825793,-103.37689694790602,105.37812899337366,False,,
2022-11-15 12:51:55.201643-07:00,10.395085,2.74,1.49,-2.29,0.24,16.08,969.65,37.21,24.0,0.0,0.00061852,-6.81709e-05,0.000263682,32.821391,-111.787047,380.140985,-17.1680626,0.325839745,-0.0290472583,2.09679,-15.7746,6094.97,25.9473,11548.0,-0.086082,-1.0,22.0,-1222.0,82.0,,0.0,,2022-11-15 19:51:55.201643+00:00,1.167902300337581,0.014501470323474241,2.732587780075879,-1.7482212198613019,2.1001805975312418,0.24026368199999998,309.77449476438153,0.26604008589575356,0.1660669320186847,2.6689964452174673,303.0570257980254,-1.4457112386557625,2.213532477456771,0.32001043339999996,0.15927444242780375,0.2638988799775868,0.10955276801464657,0.993980981216607,-1.1945108655592236,0.2607386234167624,,,,,,,,,,,0.07792783555488633,0.0,0.07792783555488633,-0.006714000000044962,-0.04453019252605925,-0.009033000000044922,-20.483885553351854,-103.37689694790602,105.38677521368987,False,,
2022-11-15 12:51:56.201643-07:00,11.395085,2.51,1.84,-1.68,0.27,15.57,969.66,38.38,25.0,0.0,0.000234416,-0.000347963,-0.000467861,32.8213905,-111.787046,380.147241,-17.114964,0.326898481,-0.0109441442,2.10221,-15.6293,6088.44,25.9479,11570.0,-0.1716,-1.0,18.0,-1241.0,82.0,,0.0,,2022-11-15 19:51:56.201643+00:00,1.169977369005683,0.014535095974096465,2.491946420154067,-1.0644576669308514,2.2531593011216047,0.269532139,295.28740607830605,0.2609358248847668,0.1510966937012686,2.603000635615474,296.7919202674719,-1.184540933925226,2.304867700828138,0.28366017270000005,0.15396962292120106,0.2620839275840906,0.8293556724170205,0.5587210114446314,1.2497271931523217,0.13382636654460334,,,,,,,,,,,0.022265096198156607,0.09355396003068057,0.09616692750699353,-0.00045800000003737296,0.018239091952107198,0.006256000000007589,-20.53954829270858,-103.28334298787534,105.3058497084545,False,,
2022-11-15 12:51:57.202147-07:00,12.395589,2.88,1.8,-2.23,0.25,15.77,969.66,38.06,23.0,0.0,0.000275528,0.000163038,0.000133898,32.8213902,-111.787046,380.141901,-17.060362,0.323954294,-0.0142300289,2.10034,-15.3752,6079.19,25.9489,11593.0,-0.168607,-1.0,20.0,-1228.0,82.0,,0.0,,2022-11-15 19:51:57.202147+00:00,1.1691674718929834,0.014521909001824193,2.8659528814944335,-1.6036262602093345,2.375303925082698,0.250133898,304.0242566168921,0.26532256119393793,0.16276612523190986,2.804782151099058,301.33081550618857,-1.4342372372458883,2.3821391591961016,0.292049754762,0.15923115826846193,0.2639678954375035,0.5092524388535368,-0.8606171933686456,2.447439402252485,0.19982440844618624,,,,,,,,,,,-0.01113254773568147,0.09355396026830214,0.09421399631143072,-0.005798000000027059,-0.001952931195562807,-0.005339999999989686,-20.57294593664242,-103.28334298763772,105.31236889945087,False,,
2022-11-15 12:51:58.201324-07:00,13.394766,2.74,1.96,-1.88,0.37,15.4,969.66,39.08,20.0,0.0,0.000231502,0.000381915,0.000353359,32.8213899,-111.787046,380.15493200000003,-17.0215712,0.328034079,-0.0244199881,2.10288,-15.0484,6063.34,25.95,11545.0,-0.0769703,-1.0,22.0,-1195.0,82.0,,0.0,,2022-11-15 19:51:58.201324+00:00,1.170666664284598,0.014546323860339182,2.7159138235300215,-1.2235097840641858,2.4247085814878186,0.370353359,296.775545989749,0.2622634871825189,0.15444124314938498,2.758174155644991,297.5333158126206,-1.2539717418133067,2.429552183037542,0.37635355164,0.15554120626813256,0.26257697762885424,0.8551597534021724,-0.5183645398376857,2.7276697306386106,0.13385206679868056,,,,,,,,,,,-0.044530191741852965,0.09355396077537342,0.10361120380212895,0.007232999999985168,0.009397207490698223,0.013031000000012227,-20.60634358064859,-103.28334298713065,105.31889827737949,False,,
2022-11-15 12:51:59.201471-07:00,14.394913,2.96,2.13,-2.01,0.39,15.41,969.66,39.11,19.0,0.0,0.000770483,-0.000466049,-0.00117101,32.8213897,-111.787046,380.14299900000003,-16.9726303,0.32348545,-0.0369541274,2.10056,-15.2505,6053.39,25.9511,11524.0,-0.032713,-1.0,20.0,-1196.0,82.0,,0.0,,2022-11-15 19:51:59.201471+00:00,1.1706260950212113,0.014545662913385046,2.9295488771311,-1.3011404761303336,2.6247457181364098,0.38882899000000004,296.36856154924465,0.26324188182226427,0.1561837408508005,2.757563352291609,301.04516302669043,-1.4032011640840882,2.3585558534950373,0.33416933344000005,0.15852832417146492,0.26341845635490646,0.5175620985601184,0.8556456475282547,0.020056148451012223,0.19747627441738708,,,,,,,,,,,-0.06679528784189415,0.09355396081097993,0.11495196414722048,-0.004700000000013915,0.01134076034509153,-0.011932999999999083,-20.628608676748634,-103.28334298709504,105.32325685492422,False,,
2022-11-15 12:52:00.202058-07:00,15.3955,2.98,2.13,-2.04,0.41,15.32,969.65,39.47,19.0,0.0,0.000485562,-6.14908e-05,-0.000594684,32.8213895,-111.787046,380.148187,-16.9175507,0.324868253,-0.0318586786,2.09915,-15.0701,6039.37,25.9523,11572.0,-0.047977,-1.0,20.0,-1237.0,82.0,,0.0,,2022-11-15 19:52:00.202058+00:00,1.170979243341209,0.014551566899571055,2.9497829591629476,-1.3319595321469861,2.6319390781115923,0.40940531599999996,296.8428481705506,0.2634068886313819,0.15704361474296005,2.898705452782712,300.5131680705721,-1.4674346836967394,2.4888457167266647,0.3484047148,0.1602848977759831,0.26423322038952773,0.12563499551680157,0.9920765332883816,-1.143121393366029,0.2600748288445703,,,,,,,,,,,-0.08906038338952797,0.09355396109770231,0.1291669289197514,0.00048799999996163024,0.014214964772530925,0.0051879999999755455,-20.650873772296265,-103.28334298680832,105.32761995834711,False,,
2022-11-15 12:52:01.201749-07:00,16.395191,3.16,2.23,-2.2,0.41,15.16,969.65,40.03,21.0,0.0,0.000416971,1.70325e-05,-0.000461256,32.8213894,-111.787046,380.151422,-16.8597555,0.330338892,-0.0330626564,2.10003,-15.106,6032.63,25.9533,11572.0,0.0212897,-1.0,20.0,-1237.0,82.0,,0.0,,2022-11-15 19:52:01.201749+00:00,1.1716290878798463,0.014562157952682444,3.1329159502329644,-1.4586545216635656,2.7726322038190627,0.40953874399999995,297.7484163296488,0.2647415019875678,0.1600443647659124,3.082118934116434,296.47704302125874,-1.3731623435724918,2.757079730553431,0.3980690386,0.15820134682448386,0.2639786697908203,0.040814128026115844,-0.9991667563292265,1.4845459698417822,0.2635390677194526,,,,,,,,,,,-0.10019293189514938,0.09355396125046513,0.1370801490639676,0.0037229999999794927,0.007913220144216193,0.0032350000000178625,-20.66200632080189,-103.28334298665555,105.32980320735433,False,,
2022-11-15 12:52:02.201340-07:00,17.394782,2.86,1.89,-2.12,0.38,15.46,969.66,39.32,24.0,0.0,0.000277207,0.000575695,0.000195695,32.8213894,-111.787046,380.140009,-16.8129987,0.331176968,-0.0213327157,2.10039,-14.7363,6027.55,25.9549,11587.0,0.0465825,-1.0,20.0,-1251.0,82.0,,0.0,,2022-11-15 19:52:02.201340+00:00,1.1704232908746086,0.014542359084790617,2.840094411678699,-1.4821220075259627,2.422694908992006,0.380195695,301.4568710107612,0.26394056842090147,0.16076443732122353,2.8167752110702304,301.3978840703975,-1.458456587641728,2.405097844395882,0.35812017620000003,0.16023551091180183,0.26369136928068726,0.9009891176438836,-0.4338416875858014,2.7997062519225686,0.13922326426203338,,,,,,,,,,,-0.1001929317158744,0.09355396108306922,0.13708014881869038,-0.007690000000025066,-2.452772152050642e-10,-0.011413000000004558,-20.662006320622613,-103.28334298682294,105.32980320748328,False,,
2022-11-15 12:52:03.201639-07:00,18.395081,2.67,1.61,-2.12,0.16,16.29,969.65,36.77,24.0,0.0,0.00014484,0.00107577,-0.000693691,32.8213893,-111.787046,380.14144300000004,-16.7701208,0.327462746,-0.014259891,2.09689,-14.9928,6022.28,25.9558,11540.0,0.0978541,-1.0,23.0,-1233.0,82.0,,0.0,,2022-11-15 19:52:03.201639+00:00,1.1670549417034222,0.014487688990286927,2.6615328511773195,-1.5642234658896146,2.153360644819245,0.159306309,305.9950430454605,0.26387261696034037,0.16286344938018535,2.674824198177439,306.473838336227,-1.5892060189783888,2.148651651270865,0.2196821156,0.16355694000297338,0.26411382080449314,0.9910576396013019,-0.1334344595218792,2.3414924800452415,0.16071366080309737,,,,,,,,,,,-0.11132547947328174,0.09355396120941654,0.14541563202740307,-0.006256000000007589,0.00833548320871269,0.0014340000000174769,-20.673138868380022,-103.2833429866966,105.33198758771684,False,,
2022-11-15 12:52:04.202246-07:00,19.395688,2.69,1.61,-2.14,0.28,15.86,969.68,38.41,21.0,0.0,-7.54184e-05,-0.000222871,-0.00111747,32.8213893,-111.787046,380.136652,-16.7237525,0.329059274,-0.024452048,2.09953,-14.7031,6029.1,25.9567,11542.0,0.134278,-1.0,21.0,-1225.0,82.0,,0.0,,2022-11-15 19:52:04.202246+00:00,1.1688274913832915,0.014516075672966195,2.678074238730954,-1.5864182132248614,2.1576280682506,0.27888253,306.32556746223645,0.26398017513385585,0.16353326759326384,2.6413268735209456,306.18358037963947,-1.559879933852193,2.11452603282554,0.2942975012,0.16335489598720027,0.2637642870813614,0.9472351490590185,-0.32053950206977455,2.5029565191782903,0.1490552683287899,,,,,,,,,,,-0.11132547938966302,0.09355396113914635,0.14541563191817855,-0.011047000000019125,-1.0922451831874014e-10,-0.004791000000011536,-20.6731388682964,-103.28334298676687,105.33198758776933,False,,
2022-11-15 12:52:05.201300-07:00,20.394742,2.51,0.96,-2.3,0.33,16.2,969.67,37.01,19.0,0.0,0.000408373,-0.000418655,0.00252862,32.8213894,-111.787046,380.155145,-16.6781559,0.328734478,-0.026130377,2.09771,-15.6112,6035.04,25.9577,11592.0,0.0381352,-1.0,21.0,-1219.0,82.0,,0.0,,2022-11-15 19:52:05.201300+00:00,1.1674420239571555,0.014493684710219773,2.4928908249051513,-1.9281466986251397,1.5801123293858765,0.33252862,320.66545053559815,0.2654186754267634,0.17261685398159676,2.548261717217186,310.5106031343815,-1.6454010431967343,1.9297472222067054,0.31950748399999995,0.16534461090893804,0.2638674112766107,0.7158425439229661,0.6982617362493067,0.23247457142375327,0.15404721013196387,,,,,,,,,,,-0.10019293195363013,0.0935539613050708,0.1370801491439787,0.007445999999958985,-0.008335482774199848,0.01849299999997811,-20.662006320860367,-103.28334298660094,105.32980320731224,False,,
2022-11-15 12:52:06.201532-07:00,21.394974,2.54,0.65,-2.41,0.47,16.59,969.67,36.23,19.0,0.0,0.000620078,-0.00112614,-0.000960804,32.8213895,-111.787046,380.135065,-16.635527,0.325840613,-0.0313906038,2.09819,-15.3997,6039.24,25.959,11548.0,0.0286745,-1.0,21.0,-1201.0,82.0,,0.0,,2022-11-15 19:52:06.201532+00:00,1.165870606861334,0.014468139365078287,2.4974009177940717,-2.1241725350736176,1.3133553919018237,0.469039196,328.2718979392989,0.26645534987458763,0.17839365225987902,2.5989114346336506,323.31839798030484,-2.0793870442102937,1.5524309260584537,0.30710383919999995,0.1771282871670456,0.2667442714692546,0.8759855544789965,0.48233733874138857,0.3569410524359413,0.1494165099900466,,,,,,,,,,,-0.08906038320631028,0.09355396090524029,0.12916692865402532,-0.012634000000048218,-0.007913220489953382,-0.020080000000007203,-20.650873772113048,-103.28334298700078,105.32761995849991,False,,
2022-11-15 12:52:07.201368-07:00,22.39481,2.73,1.07,-2.49,0.28,16.54,969.67,35.78,21.0,0.0,0.000551401,-0.00017117,0.000403005,32.8213896,-111.787046,380.13476,-16.5826296,0.325649785,-0.0293254151,2.09941,-15.2202,6047.17,25.9604,11514.0,0.0389289,-1.0,18.0,-1217.0,82.0,,0.0,,2022-11-15 19:52:07.201368+00:00,1.1660718341399527,0.014471409343615033,2.7106507302362797,-2.0812342691561465,1.7366897530130578,0.28040300500000004,320.1566288315585,0.26721335915097133,0.1773268979425333,2.7537445661847433,322.9068560712437,-2.1959375110731094,1.6601744814351638,0.25017791082,0.18076584253189562,0.26816791522716116,0.2964711795936357,0.9550417999597495,-1.6050182263320592,0.24511274741423236,,,,,,,,,,,-0.07792783547883361,0.09355396079545217,0.12175833081532106,-0.012939000000017131,-0.007408597838704262,-0.00030499999996891347,-20.639741224385574,-103.28334298711057,105.32543784102074,False,,
2022-11-15 12:52:08.201469-07:00,23.394911,2.39,0.73,-2.26,0.3,16.95,969.69,35.51,24.0,0.0,0.000128199,-3.07241e-05,-0.000483767,32.8213897,-111.787047,380.14220600000004,-16.5357014,0.314583658,-0.03010376,2.10229,-15.0143,6064.17,25.9616,11534.0,0.135512,-1.0,20.0,-1234.0,82.0,,0.0,,2022-11-15 19:52:08.201469+00:00,1.164447835013331,0.014444731377431455,2.375071521271537,-1.9587956498065282,1.3431620652229999,0.29951623299999997,325.5612513214505,0.264817890013413,0.1739670919860023,2.458122906805369,329.7125999564254,-2.101142139093197,1.243711735429087,0.21535000320000003,0.17810079785160046,0.26591565786805277,0.23305979177449296,0.9724624072209835,-1.7534225444094202,0.2516579560233785,,,,,,,,,,,-0.06679528783358987,0.0,0.06679528783358987,-0.005493000000001302,-0.054963042981731186,0.007446000000015829,-20.628608676740328,-103.37689694790602,105.41500044356148,False,,
2022-11-15 12:52:09.201695-07:00,24.395137,2.28,0.49,-2.2,0.38,16.97,969.68,34.9,25.0,0.0,-0.000170244,-0.000273164,0.000196362,32.8213897,-111.787047,380.14281600000004,-16.4913662,0.319981884,-0.0256673582,2.09959,-15.1885,6079.98,25.9624,11586.0,0.136472,-1.0,22.0,-1218.0,82.0,,0.0,,2022-11-15 19:52:09.201695+00:00,1.1643555538559391,0.0144433820548026,2.2540638794850825,-1.9706739911320477,1.0941882806331948,0.380196362,330.95940796946326,0.2641748975703427,0.1744441124276237,2.28260741319827,334.4237339734891,-2.043781507025721,0.9886699223894461,0.3637158708,0.17653791386595968,0.2645684637817536,0.8486727395569872,-0.5289183123440124,1.9200506770477919,0.14712371936615293,,,,,,,,,,,-0.06679528783997778,0.0,0.06679528783997778,-0.004883000000006632,6.387904094573571e-12,0.0006099999999946704,-20.628608676746715,-103.37689694790602,105.41500044356273,False,,
2022-11-15 12:52:10.201354-07:00,25.394796,2.03,0.35,-1.9,0.62,16.66,969.69,36.34,22.0,0.0,3.88627e-05,0.000312263,0.000194751,32.8213897,-111.787047,380.149133,-16.44857,0.323200577,-0.02615553,2.0994,-15.4995,6110.65,25.964,11578.0,0.100988,-1.0,21.0,-1201.0,82.0,,0.0,,2022-11-15 19:52:10.201354+00:00,1.1656130462626109,0.014463656162538623,1.9317069812623975,-1.722824782547474,0.8737085498598105,0.620194751,333.10873814067077,0.26143551858683767,0.1679217128783043,2.186889205454509,332.0394982132322,-1.930524339904568,1.0185030796983832,0.4876027742,0.1737747526223572,0.2636673917586265,0.9923442939841327,-0.12350223559568956,1.2491297913940638,0.17117145166497452,,,,,,,,,,,-0.06679528790612924,0.0,0.06679528790612924,0.0014339999999606334,6.615145931032629e-11,0.0063169999999672655,-20.628608676812867,-103.37689694790602,105.41500044357568,False,,
2022-11-15 12:52:11.201635-07:00,26.395077,2.36,0.87,-2.15,0.46,16.41,969.68,37.05,20.0,0.0,7.32759e-05,-7.42371e-05,-0.0020061,32.8213898,-111.787047,380.137903,-16.398183,0.320297816,-0.0263598954,2.0988,-14.4507,6119.87,25.9649,11578.0,0.150803,-1.0,21.0,-1201.0,82.0,,0.0,,2022-11-15 19:52:11.201635+00:00,1.1666073811461701,0.014479964495929736,2.3194570581825733,-1.81700793210779,1.4416529469363732,0.4579939,321.5707639501132,0.2635582410949348,0.17054889119778113,2.5540553134932376,326.41258890926076,-2.1097286597639795,1.3965807625659492,0.387488536,0.1790402487683081,0.2662642767061611,0.7116992055805491,0.7024843348972383,-0.4881059151206776,0.15965371750551555,,,,,,,,,,,-0.05566274005982532,0.0,0.05566274005982532,-0.009796000000051208,-0.011132547846303915,-0.011230000000011842,-20.617476128966565,-103.37689694790602,105.41282248619703,False,,
2022-11-15 12:52:12.201653-07:00,27.395095,3.08,1.23,-2.8,0.36,16.18,969.69,37.13,20.0,0.0,0.000372216,-0.000479731,-0.000672106,32.8213898,-111.787047,380.148767,-16.3424111,0.318329985,-0.0503523345,2.09831,-14.7376,6117.53,25.9665,11533.0,0.142894,-1.0,20.0,-1235.0,82.0,,0.0,,2022-11-15 19:52:12.201653+00:00,1.1675468044702146,0.014495089857143467,3.0588578617545914,-2.3412582793129992,1.9685327246368562,0.359327894,319.94283750291885,0.27040035986691974,0.1860038042750806,3.083292516772553,324.1432070105047,-2.4931448104918106,1.804653381158262,0.2700221414,0.19092159345575374,0.27162250459611226,0.7900764495266146,0.6130083228663529,-0.1025043829308161,0.15691244342184288,,,,,,,,,,,-0.0556627401546316,0.0,0.0556627401546316,0.0010679999999752,9.480628088143206e-11,0.010864000000026408,-20.61747612906137,-103.37689694790602,105.41282248621557,False,,
2022-11-15 12:52:13.201588-07:00,28.39503,2.45,0.62,-2.31,0.5,16.57,969.68,36.86,20.0,0.0,0.00030998,2.9243e-05,-0.00184759,32.8213899,-111.787047,380.14641700000004,-16.2963569,0.322238557,-0.0263227329,2.09942,-15.4314,6109.31,25.9675,11584.0,0.195218,-1.0,20.0,-1229.0,82.0,,0.0,,2022-11-15 19:52:13.201588+00:00,1.1659631136431212,0.014469493351130128,2.391892846085106,-2.043186679491257,1.2435994451199304,0.49815241,328.67293185064375,0.2649545020881443,0.17717302944945343,2.4185342307875626,332.45609363110884,-2.13162033023874,1.1273819931987012,0.408503988,0.17985671296304723,0.26556607659730114,0.09392133323969243,-0.9955796217091221,2.2280829818782024,0.26322824201448036,,,,,,,,,,,-0.04453019168240706,0.0,0.04453019168240706,-0.001282000000003336,-0.011132548472224543,-0.002349999999978536,-20.606343580589147,-103.37689694790602,105.41064565943645,False,,
2022-11-15 12:52:14.201805-07:00,29.395247,3.2,1.71,-2.68,0.42,15.78,969.68,38.18,23.0,0.0,-0.000175991,2.99397e-05,-0.00143857,32.8213899,-111.787047,380.14803500000005,-16.2511899,0.318377066,-0.0445671823,2.09823,-15.1046,6100.45,25.9687,11570.0,0.213092,-1.0,19.0,-1211.0,82.0,,0.0,,2022-11-15 19:52:14.201805+00:00,1.1691511206336658,0.01452134331185663,3.1789200677122884,-2.0943463870825356,2.3914945134409638,0.41856143,311.21018726372006,0.2688884615779146,0.1788089621857053,2.955757653119267,315.8435777736705,-2.0594159106290046,2.0628268085211507,0.4350837674,0.17784611687776883,0.2674860461616561,0.16771107502695917,0.9858361909127203,-1.684287835188036,0.26001058813302014,,,,,,,,,,,-0.04453019169370283,0.0,0.04453019169370283,0.00033600000000433283,1.1295769875019346e-11,0.0016180000000076689,-20.60634358060044,-103.37689694790602,105.41064565943866,False,,
2022-11-15 12:52:15.202238-07:00,30.39568,2.87,1.39,-2.47,0.48,16.28,969.69,37.01,25.0,0.0,-7.30463e-05,0.000401183,-0.00112615,32.8213899,-111.787047,380.150323,-16.2145105,0.317620793,-0.028641439,2.10067,-15.5286,6103.93,25.9703,11511.0,0.0603745,-1.0,19.0,-1213.0,82.0,,0.0,,2022-11-15 19:52:15.202238+00:00,1.1671434092435726,0.014488529836657733,2.8339218105576642,-1.9832139506660835,2.024345636060664,0.47887385,314.4119640192378,0.26650204416077755,0.17574597280761728,2.9262726653255657,312.5966279045941,-1.9790527629355767,2.154379491917879,0.4331015904,0.1756172559886751,0.2668504357942733,0.9838250195500922,0.17913216044937552,1.7650204486864691,0.17019752841041422,,,,,,,,,,,-0.04453019170967608,0.0,0.04453019170967608,0.0026239999999688735,1.5973250500067593e-11,0.0022879999999645406,-20.606343580616414,-103.37689694790602,105.41064565944178,False,,
2022-11-15 12:52:16.202049-07:00,31.395491,2.9,0.85,-2.76,0.29,16.47,969.67,36.65,26.0,0.0,9.73604e-05,0.000236123,-0.00111782,32.82139,-111.787047,380.154291,-16.1762855,0.31560448,-0.0410458719,2.10134,-14.9264,6087.4,25.9714,11570.0,0.124962,-1.0,20.0,-1247.0,82.0,,0.0,,2022-11-15 19:52:16.202049+00:00,1.1663536690560143,0.014475989813628033,2.8877792130528865,-2.4136883515489296,1.5853634677692556,0.28888218,326.7022127173235,0.2697371604603224,0.1888450981262662,2.7936297227771187,320.88876849031686,-2.145461568332725,1.7491559715677127,0.46097667859999997,0.18085184921051561,0.2673808369795514,0.9244942655758513,-0.3811959508144955,2.434925927788659,0.1593804801066361,,,,,,,,,,,-0.03339764398007185,0.0,0.03339764398007185,0.006591999999955078,-0.01113254772960423,0.003967999999986205,-20.595211032886812,-103.37689694790602,105.40846996359981,False,,
2022-11-15 12:52:17.201895-07:00,32.395337,3.45,0.81,-3.34,0.3,16.86,969.67,35.8,23.0,0.0,-0.000281855,-1.82404e-05,0.000120672,32.8213902,-111.787047,380.15481,-16.1425178,0.318841112,-0.0496471739,2.10025,-14.9304,6073.0,25.9724,11587.0,0.146143,-1.0,20.0,-1233.0,82.0,,0.0,,2022-11-15 19:52:17.201895+00:00,1.1647851785524737,0.01445050715150911,3.4366912627742567,-2.983130084809984,1.7063943661212944,0.300120672,330.22980738266654,0.27723251506979807,0.20828376796446174,3.2080981436031535,332.33030165773664,-2.8406636336061935,1.4862039813590247,0.382371763,0.20346578494848827,0.2746543716942975,0.06458045177268719,-0.9979125038042341,2.930713483620122,0.27351020501724566,,,,,,,,,,,-0.011132547758211923,0.0,0.011132547758211923,0.007110999999952128,-0.022265096221859924,0.0005189999999970496,-20.57294593666495,-103.37689694790602,105.40412196442281,False,,
2022-11-15 12:52:18.201882-07:00,33.395324,3.31,0.14,-3.29,0.33,17.32,969.68,34.82,19.0,0.0,0.000100891,0.000229695,-0.000418081,32.8213902,-111.787047,380.147852,-16.1000286,0.319270391,-0.041027219,2.09751,-15.1005,6081.98,25.9738,11565.0,0.140801,-1.0,18.0,-1212.0,82.0,,0.0,,2022-11-15 19:52:18.201882+00:00,1.162952570952887,0.01442061236356509,3.2927916764165746,-3.1219091481536303,1.0469767404068484,0.329581919,341.4603880677662,0.27650596146287126,0.21343451584937864,3.1690520310835373,335.393199684431,-2.8658651317495787,1.299675404355218,0.3873298912,0.2044823363130237,0.2741741900110886,0.9155716942339869,-0.402154787013044,2.34246739358661,0.17705414627037264,,,,,,,,,,,-0.011132547746067922,0.0,0.011132547746067922,0.00015299999995477265,-1.2144001082514677e-11,-0.006957999999997355,-20.572945936652808,-103.37689694790602,105.40412196442045,False,,
2022-11-15 12:52:19.201263-07:00,34.394705,3.17,0.52,-3.12,0.18,16.59,969.7,36.65,18.0,0.0,0.000258765,-6.29922e-05,-0.000261352,32.8213903,-111.787047,380.133051,-16.0657195,0.322436647,-0.0653804859,2.09906,-14.6052,6111.46,25.9753,11523.0,0.126794,-1.0,19.0,-1247.0,82.0,,0.0,,2022-11-15 19:52:19.201263+00:00,1.1659066769864341,0.014468277859741226,3.163204880537836,-2.854306408968435,1.3633781720344877,0.179738648,334.4682205185377,0.2741662035287807,0.20394173338750038,3.1949890894261572,336.42338086944267,-2.9183146620076874,1.2779601234446194,0.22564237739999998,0.20637854632510982,0.27479307836470124,0.23652656916058062,0.9716250213333975,-2.533236022208398,0.25967663302358746,,,,,,,,,,,0.0,0.0,0.0,-0.01464800000002242,-0.011132547746067922,-0.014800999999977194,-20.56181338890674,-103.37689694790602,105.40194966137109,False,,
2022-11-15 12:52:20.201739-07:00,35.395181,2.86,0.95,-2.68,0.36,16.24,969.69,37.49,20.0,1.0,5.20436e-05,0.00234954,0.00105208,32.8213903,-111.787047,380.14769900000005,-15.2883666,0.319190259,-0.0565827037,2.09704,-14.4565,6123.16,25.9769,11523.0,0.00564569,-1.0,19.0,-1247.0,82.0,,0.0,,2022-11-15 19:52:20.201739+00:00,1.1673047338794265,0.014491153127679318,2.8414967335872703,-2.3323145350526304,1.6230873656613058,0.36105208,325.16545195603305,0.2677117908475093,0.18915329019006247,2.9480018888491926,331.3438792898814,-2.58508101267511,1.408128073608805,0.33796427646,0.19721225484982238,0.27016239184045193,0.9997547668364225,-0.022145116568906477,1.4650296742723488,0.19711558526542428,2.0971799129261766,,-0.0001399129261767662,0.005099019513592785,False,-14.264346617135343,,-0.19215338286465666,0.7071067811865476,False,0.0,0.0,0.0,0.0,0.0,0.01464800000002242,-20.56181338890674,-103.37689694790602,105.40194966137109,False,,
2022-11-15 12:52:21.201540-07:00,36.394982,2.73,0.26,-2.68,0.45,16.9,969.68,36.1,22.0,1.0,-0.00183986,0.000829475,0.00357148,32.8213904,-111.787047,380.165369,-13.9518648,0.312643432,-0.0872185478,2.10034,-15.4817,6122.44,25.9778,11586.0,-0.0151361,-1.0,22.0,-1237.0,82.0,,0.0,,2022-11-15 19:52:21.201540+00:00,1.1646365567477506,0.014447944681961443,2.6911869191685374,-2.537419116181745,0.8966555987330347,0.45357148,340.53796322170854,0.26603066166047185,0.19971797900866128,2.812902069754167,337.52853515440637,-2.5888446096789677,1.0826395933082804,0.3928650158,0.2012659579500013,0.2674586180179319,0.4109983136684571,0.9116361040248925,-1.91512116673317,0.22486456797440316,2.0971237308861883,,0.003216269113811787,0.005099019513592785,False,-14.256435496486352,,-1.2252645035136478,0.7071067811865476,False,0.011132547776640855,0.0,0.011132547776640855,0.01766999999995278,0.011132547776640855,0.01766999999995278,-20.5506808411301,-103.37689694790602,105.3997784893876,False,,
2022-11-15 12:52:22.201996-07:00,37.395438,3.12,0.56,-3.07,0.07,16.42,969.68,37.22,21.0,1.0,0.00194333,-0.00110411,-0.0152377,32.8213903,-111.787047,380.165155,-13.7421699,0.330462097,-0.308170817,2.10212,-13.8916,6132.39,25.9789,11582.0,0.146486,-1.0,22.0,-1217.0,82.0,,0.0,,2022-11-15 19:52:22.201996+00:00,1.1665670935686883,0.01447930960254025,3.1224581876868953,-2.8501941959594412,1.2752012308541913,0.05476230000000001,335.8958500939474,0.271382336974738,0.21055412496548898,3.119889918077516,334.00836259046184,-2.7938946874542685,1.3678372350430252,0.2178868074,0.2085652049012346,0.2709388019870651,0.4939908821342378,0.8694670829699291,-1.7535003416710842,0.21105113166554465,2.0970678478223874,,0.00505215217761279,0.005099019513592785,False,-14.248578617311084,,0.3569786173110838,0.7071067811865476,False,0.0,0.0,0.0,0.017455999999981486,-0.011132547776640855,-0.0002139999999712927,-20.56181338890674,-103.37689694790602,105.40194966137109,False,,
2022-11-15 12:52:23.201305-07:00,38.394747,3.16,0.19,-3.16,0.04,17.15,969.64,35.62,21.0,2.0,-0.000382553,-0.103126,0.281152,32.82139,-111.787047,380.219202,-13.3720943,1.10235756,-0.193992511,2.10219,-14.5766,6126.95,25.9808,11548.0,0.155114,-1.0,20.0,-1196.0,82.0,,0.0,,2022-11-15 19:52:23.201305+00:00,1.1635855965344692,0.014431479195056439,3.264453661020395,-3.1335120090289568,0.9152924091353377,0.321152,343.71702495916634,0.27245241468394726,0.21784807500968179,3.459611624023625,343.82725849657356,-3.3223579661034854,0.9549078684792764,0.35146784000000003,0.22439384774687418,0.2758449988472605,0.999993119620384,-0.0037095433536378447,0.967225729262208,0.2243907599598902,2.097012363495835,,0.0051776365041646955,0.005099019513592785,False,-14.240789608951811,,-0.335810391048188,0.7071067811865476,False,-0.03339764431994505,0.0,0.03339764431994505,0.07150299999995013,0.03339764431994505,0.05404699999996865,-20.595211033226683,-103.37689694790602,105.40846996366622,False,,
2022-11-15 12:52:24.202226-07:00,39.395668,4.23,-0.29,-4.22,-0.04,15.49,969.55,39.64,20.0,2.0,0.0830611,-0.366234,1.09268,32.8213872,-111.787047,380.892328,-13.3108214,1.03426262,2.03361205,2.09853,-14.2124,6118.59,25.9818,11511.0,0.101687,-1.0,20.0,-1216.0,82.0,,0.0,,2022-11-15 19:52:24.202226+00:00,1.1701688809583455,0.014539864505465787,4.604880944203274,-4.539633139495135,0.7724373560904348,1.05268,350.3433715990403,0.29153928433888654,0.26099670201518604,4.291597396427109,350.37043111891415,-4.219193588329071,0.7084187321024821,0.7986096,0.2505483536266492,0.28631085628836206,0.9752328310379792,0.22118075247554495,-0.24233120703797928,0.2387025901254239,2.0969571243049647,0.0015728756950350586,0.0015728756950350586,0.005099019513592785,True,-14.233046529318456,,0.02064652931845501,0.7071067811865476,False,-0.3451090281978227,0.0,0.3451090281978227,0.7446289999999749,0.31171138387787767,0.6731260000000248,-20.90692241710456,-103.37689694790602,105.46981666587276,False,,
2022-11-15 12:52:25.201807-07:00,40.395249,3.82,-0.06,-3.82,-0.16,15.66,969.43,39.35,24.0,2.0,0.0356761,-0.0736693,1.07514,32.821385,-111.787047,382.42354700000004,-13.4999594,0.948305334,3.83538576,2.10002,-14.194,6109.75,25.9829,11533.0,0.0130477,-1.0,20.0,-1252.0,82.0,,0.0,,2022-11-15 19:52:25.201807+00:00,1.1693353483869353,0.014528087947982268,3.900193864926041,-3.802129708313377,0.869092552705155,0.91514,347.1245067427157,0.2838636787702793,0.24309251954960925,4.4169767940731735,347.4201760419018,-4.309003620216662,0.9629804276345825,1.0078479999999999,0.26301158559507026,0.2939497118298616,0.9000171114738938,0.43585456181413146,-1.0114000218594672,0.22024416449264897,2.096902292655041,0.0031177073449590864,0.0031177073449590864,0.005099019513592785,True,-14.225371762130163,,0.031371762130161684,0.7071067811865476,False,-0.5900252537957276,0.0,0.5900252537957276,2.2758479999999963,0.24491622559790488,1.5312190000000214,-21.151838642702465,-103.37689694790602,105.51863864050229,False,,
2022-11-15 12:52:26.201391-07:00,41.394833,4.14,-0.42,-4.12,0.03,15.69,969.3,39.34,16.0,2.0,0.0551326,-0.00144172,1.53191,32.8213851,-111.787047,383.889612,-13.4840215,0.681736609,3.71997286,2.09915,-15.2201,6095.77,25.9849,11585.0,0.10552,-1.0,22.0,-1243.0,82.0,,0.0,,2022-11-15 19:52:26.201391+00:00,1.1690571059505699,0.014525505242683347,4.150490437830687,-4.105807015900175,0.607387539145206,1.5619100000000001,351.5850501321082,0.28953633609102325,0.25782706911531517,4.206695102424469,349.3562747154456,-4.13157745769684,0.7740974391216917,1.434886,0.2587601875344638,0.2907206037224687,0.02614110908367781,0.9996582628157861,-4.109929778452609,0.2905219914054068,2.096847793560358,0.0023022064396416297,0.0023022064396416297,0.005099019513592785,True,-14.217754404316455,,-1.0023455956835452,0.7071067811865476,False,-0.5788928344255077,0.0,0.5788928344255077,3.741912999999954,-0.011132419370219915,1.4660649999999578,-21.140706223332245,-103.37689694790602,105.51640764449489,False,,
2022-11-15 12:52:27.202023-07:00,42.395465,4.37,-0.02,-4.37,0.06,15.52,969.15,39.82,2.0,2.0,0.836587,0.100813,1.35715,32.8213856,-111.787044,385.285883,-13.6495991,8.07384925,2.93782024,2.10085,-14.5848,6083.1,25.9864,11539.0,0.142768,-1.0,17.0,-1205.0,82.0,,0.0,,2022-11-15 19:52:27.202023+00:00,1.1695645536166905,0.014536018999473474,4.5434686136297495,-4.150485114602917,1.8483994039433813,1.4171500000000001,335.9944198590562,0.29443397691971707,0.2633217696747592,4.5532046772630865,337.5726689413673,-4.193623154013949,1.7439065454105898,1.305264,0.2643826999942685,0.2947357952684966,0.11963955911709816,-0.9928173930256592,4.372142217334516,0.2905417038155324,2.0967935699228466,0.0040564300771532835,0.0040564300771532835,0.005099019513592785,True,-14.210186108114588,,-0.37461389188541183,0.7071067811865476,False,-0.523230176870772,0.28066212168060894,0.5937516690793216,5.138183999999967,0.01485883465381399,1.396271000000013,-21.08504356577751,-103.09623482622541,105.23028412731264,False,,
2022-11-15 12:52:28.201884-07:00,43.395326,4.72,-0.06,-4.72,0.08,15.64,969.08,39.7,23.0,2.0,1.49085,0.0473832,0.834826,32.8213851,-111.78703,386.13936800000005,-13.5632127,4.72035485,2.84367883,2.09872,-13.8894,6082.31,25.9878,11510.0,0.116635,-1.0,17.0,-1215.0,82.0,,0.0,,2022-11-15 19:52:28.201884+00:00,1.1689941276490006,0.014527777076455143,5.215105739127373,-4.555055460628706,2.539448290648161,0.9148259999999999,330.860286554848,0.30172723361924847,0.2778810657476969,5.214505498841095,331.08219485563575,-4.5614297191745745,2.525525489508363,0.7721652,0.27773876678798526,0.3018290629377717,0.03176663401480486,-0.9994953131272649,4.639355069394676,0.3015246117427715,2.0967397198037037,0.00198028019629648,0.00198028019629648,0.005099019513592785,True,-14.202680181662721,,0.3132801816627211,0.7071067811865476,False,-0.5788930386068852,1.5904189053330375,1.6924979895374321,5.991669000000002,1.0987463204581105,0.8534850000000347,-21.140706427513624,-101.78647804257298,103.95872537005015,False,,
2022-11-15 12:52:29.201541-07:00,44.394983,4.16,0.47,-4.13,-0.14,14.41,968.98,43.01,9.0,2.0,1.90018,0.013284,0.604896,32.8213835,-111.787011,386.77123400000005,-13.7844882,5.72602613,4.50577115,2.09609,-14.7779,6075.24,25.9887,11510.0,0.108789,-1.0,17.0,-1215.0,82.0,,0.0,,2022-11-15 19:52:29.201541+00:00,1.1738732007126622,0.01460885526355562,5.124408997654902,-3.8857799888897513,3.340700742836819,0.464896,319.3135400040231,0.28968840865166184,0.24898615458837003,5.142574850923252,319.8392102626553,-3.933987608515602,3.297334979219483,0.5464408000000001,0.25139382978767605,0.2907080042424102,0.006990745823023437,-0.9999755644378706,3.9569423100500654,0.2906937974486123,2.0966862115335627,,-0.0005962115335629292,0.005099019513592785,False,-14.195231813640198,-0.5826681863598022,-0.5826681863598022,0.7071067811865476,True,-0.7570140483907961,3.367946310982728,3.451975177072278,6.623535000000004,1.759477187534846,0.6318660000000023,-21.318827437297536,-100.00895063692329,102.2559661379219,False,,
2022-11-15 12:52:30.202061-07:00,45.395503,4.67,-0.89,-4.49,-0.89,14.57,968.94,42.52,7.0,2.0,2.56602,0.163937,-0.0186191,32.8213835,-111.786983,386.979974,-13.8372458,4.71775288,4.51890919,2.09995,-14.5757,6051.68,25.9897,11548.0,0.113988,-1.0,20.0,-1244.0,82.0,,0.0,,2022-11-15 19:52:30.202061+00:00,1.173171983130142,0.01459800781792235,5.209643928843038,-4.408615356386384,2.77569820131175,-0.9086191,327.8051656011837,0.29676569307461687,0.27603020655316535,5.207398939695395,328.0184233284111,-4.408848415615578,2.7519981974423766,-0.763528182,0.27633085243113326,0.2969048166115336,0.06375766962835544,-0.9979654100035539,4.575339208623681,0.29570002010514856,2.096632987679047,,0.003317012320953161,0.005099019513592785,False,-14.187832637678667,-0.387867362321332,-0.387867362321332,0.7071067811865476,True,-0.7570140731645579,5.9874603038281595,6.03512644415071,6.8322749999999814,2.583151267078432,0.2087399999999775,-21.318827462071297,-97.38943664407786,99.6955103011586,False,,
2022-11-15 12:52:31.201287-07:00,46.394729,5.99,-3.66,-4.74,0.03,15.94,968.94,39.09,15.0,2.0,2.79439,0.228853,0.00511626,32.8213843,-111.786948,386.999384,-13.7573906,1.39329744,3.28218698,2.10025,-14.4438,6022.27,25.9908,11577.0,0.136224,-1.0,23.0,-1236.0,82.0,,0.0,,2022-11-15 19:52:31.201287+00:00,1.167612310997283,0.014507375890843563,5.258347873267072,-5.245551981769286,0.36661527907146585,0.035116259999999996,356.0020592254564,0.301992196824777,0.3145531395211865,5.145722013054746,348.3726387570372,-4.989695700010199,1.0232999300815357,-0.24270132800000002,0.30269466048938115,0.2998227324460047,0.08162402581344269,-0.9966631920613936,5.056571903695045,0.2978319968800297,2.0965801621241775,0.0036698378758224237,0.0036698378758224237,0.005099019513592785,True,-14.180498099818886,,-0.2633019001811139,0.7071067811865476,False,-0.6679535971260537,9.261852603374926,9.285907368402752,6.851684999999975,3.250780924252042,0.019409999999993488,-21.229766986032793,-94.1150443445311,96.47976253212019,False,,
2022-11-15 12:52:32.201314-07:00,47.394756,5.85,-1.5,-5.46,-1.46,14.59,968.93,41.91,1.0,2.0,2.6519,0.112315,0.0145288,32.8213852,-111.786912,386.77749,-13.7036489,0.243817992,4.42488371,2.09779,-14.925,6017.86,25.9923,11567.0,0.134702,-1.0,21.0,-1217.0,82.0,,0.0,,2022-11-15 19:52:32.201314+00:00,1.1730783322913823,0.014596629523176478,6.080007709975618,-5.547610859134886,2.4880730513736244,-1.4454712,335.84402716842754,0.3180170705561549,0.32276057274820596,5.644505021069655,342.58533947445136,-5.357939075413658,1.697744674985746,-0.79523863,0.31560535103865756,0.3105077522160987,0.042314718864070455,-0.9991043311724029,5.424979725028641,0.30995229222936255,2.0965276232228147,0.0012623767771851035,0.0012623767771851035,0.005099019513592785,True,-14.173212312552005,,-0.7517876874479956,0.7071067811865476,False,-0.567760537204032,12.629798435982472,12.642553561727611,6.629790999999955,3.3566461933248597,-0.22189400000002024,-21.12957392611077,-90.74709851192355,93.17453934756928,True,,
2022-11-15 12:52:33.201304-07:00,48.394746,5.39,-0.23,-5.34,-0.66,14.58,968.96,41.26,8.0,2.0,1.94171,0.150959,-0.0369981,32.8213887,-111.78688,386.88192100000003,-12.7890426,-8.47784668,1.89588716,2.09876,-14.2383,6018.47,25.993,11522.0,0.102884,-1.0,17.0,-1199.0,82.0,,0.0,,2022-11-15 19:52:33.201304+00:00,1.1731554245006388,0.014597436169349753,5.873105457619817,-5.107477970853685,2.8994890055952984,-0.6969981000000001,330.4166451734594,0.3166705902871979,0.307177908164713,5.754238754305854,335.32600286967966,-5.216231470917947,2.404612120893904,-0.7985971200000002,0.3116119943862719,0.31697740019118914,0.07751148917116985,-0.9969914588633483,5.386923290328925,0.3150785523727236,2.0964754147312896,0.0022845852687103374,0.0022845852687103374,0.005099019513592785,True,-14.165980975825375,,-0.07231902417462521,0.7071067811865476,False,-0.178120955528536,15.623528076989595,15.624543406041681,6.734221999999988,2.9819898443140698,0.10443100000003369,-20.739934344435273,-87.75336887091642,90.17094113297591,True,,
2022-11-15 12:52:34.201447-07:00,49.394889,5.9,-0.24,-5.89,-0.25,14.71,968.96,40.99,21.0,2.0,0.589201,-0.0578706,0.0169585,32.8213921,-111.786865,386.767084,-12.9022805,-1.60041764,0.799365478,2.09919,-14.3865,5996.38,25.9945,11502.0,0.0969218,-1.0,17.0,-1220.0,82.0,,0.0,,2022-11-15 19:52:34.201447+00:00,1.172625617632074,0.014588787846671098,6.086463520423281,-5.852751030804444,1.6704321467395449,-0.2330415,344.0707376904679,0.32998248870842256,0.33021127679521645,5.97079901530479,342.5369267077395,-5.694395837916174,1.7858685970344361,-0.28776440000000003,0.32247963631573445,0.3261178857009489,0.09774841991856204,0.995211156691596,-5.492560434970071,0.32301660564155316,2.096423526139565,0.002766473860435159,0.002766473860435159,0.005099019513592785,True,-14.158802257950581,,-0.2276977420494184,0.7071067811865476,False,0.2003860716274501,17.026838022183703,17.028017136806707,6.619384999999966,1.4034737307650254,-0.11483700000002273,-20.36142731727929,-86.35005892572232,88.71820782045005,True,,
2022-11-15 12:52:35.201655-07:00,50.395097,4.75,0.67,-4.7,0.25,14.67,968.94,41.14,53.0,2.0,0.3975,-0.773784,0.032715,32.8213919,-111.786859,386.781244,-13.0082431,-1.36278836,-3.09429383,2.10131,-14.6659,5984.84,25.9955,11561.0,0.0463931,-1.0,21.0,-1227.0,82.0,,0.0,,2022-11-15 19:52:35.201655+00:00,1.1727643769932752,0.014591353824633588,5.61330605188675,-5.202360021768939,2.1082350523716977,0.282715,337.939950011181,0.3017397257789298,0.2720028016417138,5.710553269726982,341.4680012102185,-5.412255719885261,1.8000653367338095,0.06478754,0.2815568397025359,0.30540607956448373,0.8894962568940308,0.4569424569587602,-0.8719380471440574,0.23171588023932166,2.0963719614727587,0.004938038527241062,0.004938038527241062,0.005099019513592785,True,-14.15167634195601,-0.5142236580439903,-0.5142236580439903,0.7071067811865476,True,0.17812095342525808,17.588162432275123,17.589064353118477,6.63354499999997,0.5610472163117706,0.014160000000003947,-20.383692435481482,-85.78873451563089,88.17710523201418,True,,
2022-11-15 12:52:36.201535-07:00,51.394977,4.12,0.75,-4.02,0.44,14.61,968.94,41.35,20.0,2.0,0.142736,-1.30384,-0.0534097,32.8213832,-111.786857,386.93432,-12.9690822,0.061881566,1.06182265,2.09644,-13.9227,5974.02,25.9965,11544.0,-0.107176,-1.0,19.0,-1228.0,82.0,,0.0,,2022-11-15 19:52:36.201535+00:00,1.1730089066798874,0.014595345488267072,5.355932407917248,-5.052976141969886,1.7757939257868232,0.3865903,340.63672718958287,0.2876205873131755,0.24524277614916948,5.516923370551207,343.0064145020602,-5.268884494198013,1.6112824984678682,0.175824892,0.25459491974571036,0.29157288514921953,0.9940610982733652,0.10882340235239363,1.0283353127952228,0.2516035660553682,2.0963207402151793,0.00011925978482052457,0.00011925978482052457,0.005099019513592785,True,-14.144605541875253,0.2219055418752518,0.2219055418752518,0.7071067811865476,True,-0.7904117479346072,17.77527271142935,17.792837623520253,6.786620999999968,0.20377327040177562,0.15307599999999866,-21.352225136841344,-85.60162423647667,88.22446140508487,True,,
2022-11-15 12:52:37.201529-07:00,52.394971,4.4,0.36,-4.38,0.04,14.63,968.95,41.35,14.0,2.0,-0.0432003,-1.30961,-0.0570769,32.8213734,-111.786858,386.951746,-12.993703,0.275194721,2.62142861,2.09868,-14.1134,5962.37,25.9988,11502.0,-0.126025,-1.0,16.0,-1229.0,82.0,,0.0,,2022-11-15 19:52:37.201529+00:00,1.1729394907182107,0.01459406168026551,5.646412509905577,-5.49651531629638,1.2923983943573696,-0.0170769,346.7683632292727,0.2949113428946529,0.26229467648344146,5.40565405162374,346.4594087081624,-5.255266390782973,1.2639513746693982,0.05753084000000001,0.2527253097959672,0.2899288516262989,0.9994563676312842,-0.03296921596397561,1.4365262623755917,0.2524508018707372,2.096269838972212,0.002410161027787794,0.002410161027787794,0.005099019513592785,True,-14.137586251337122,0.024186251337122044,0.024186251337122044,0.7071067811865476,True,-1.8814026163311846,17.68172064310978,17.78153313709795,6.804046999999969,-0.011304486422304194,0.017426000000000386,-22.44321600523792,-85.69517630479623,88.58533279594245,True,,
2022-11-15 12:52:38.214657-07:00,53.408099,3.75,0.67,-3.69,0.1,15.0,968.96,40.53,25.0,2.0,-0.132256,-1.30464,-0.0944797,32.8213636,-111.786861,386.974908,-12.8858267,0.818992554,1.55734628,2.09837,-14.4087,5956.58,25.9999,11533.0,-0.101909,-1.0,17.0,-1246.0,82.0,,0.0,,2022-11-15 19:52:38.214657+00:00,1.1714454634446254,0.014569532528547686,4.938628407719709,-4.752296460999624,1.3437741239905483,0.005520300000000006,344.2110541152944,0.2813031524976847,0.23414613565063302,5.017632297814614,345.28776583802374,-4.85117209092917,1.2720552480679166,0.024622900000000007,0.23838854093186584,0.28322272556653993,0.9949009678141654,-0.10085665194937371,1.7548419725372173,0.2359812240289272,2.0962186008466177,,0.0021513991533823607,0.005099019513592785,False,-14.130527648939479,,-0.27817235106052074,0.7071067811865476,False,-2.9723934933619196,17.401060393638456,17.653102444115405,6.827208999999982,-0.12843069298254406,0.02316200000001345,-23.53420688226866,-85.97583655426756,89.13867491040885,True,,
2022-11-15 12:52:39.238523-07:00,54.431965,3.66,0.54,-3.62,0.07,14.85,968.98,40.9,43.0,2.0,-0.122374,-1.40942,-0.0636694,32.8213508,-111.786863,386.91634500000004,-12.9627541,0.879742739,1.61222149,2.09546,-13.3763,5953.05,26.0014,11533.0,-0.263352,-1.0,17.0,-1246.0,82.0,,0.0,,2022-11-15 19:52:39.238523+00:00,1.1720797833226846,0.014579579578021546,4.967153023383853,-4.816036744472932,1.2158944171258919,0.006330600000000006,345.8307543883789,0.2800462585777294,0.23243172095696904,4.832651127906612,345.28420233253155,-4.673034298901273,1.2242395945517084,-0.0670842,0.22854539950495073,0.2782916481001874,0.9962518204852598,-0.08650034785944856,1.6238700171963703,0.2268449089421005,2.0961671581201164,,-0.0007071581201163468,0.005099019513592785,False,-14.123447820355574,0.7471478203555737,0.7471478203555737,0.7071067811865476,True,-4.397361120822692,17.213954540147867,17.766739029354834,6.76864599999999,0.11363658523942988,-0.05856299999999237,-24.95917450972943,-86.16294240775815,89.70514498382897,True,,
2022-11-15 12:52:40.262343-07:00,55.455785,3.93,0.55,-3.9,-0.06,14.95,968.96,40.69,13.0,2.0,-0.0673406,-1.28841,-0.0562236,32.8213391,-111.786865,386.87829000000005,-13.0285559,0.797809367,2.15464595,2.09989,-14.2738,5958.13,26.0033,11575.0,-0.255495,-1.0,20.0,-1237.0,82.0,,0.0,,2022-11-15 19:52:40.262343+00:00,1.1716487688010027,0.014572848762430058,5.143719897384427,-4.9640253788321305,1.3477041296438137,-0.1162236,344.810660247056,0.2852937994467294,0.24229052304895715,4.788136396827081,344.533659857601,-4.612604934538002,1.274222724361008,-0.048487920000000004,0.22850723979641038,0.278376374186573,0.9986369019141275,-0.05219519264600268,1.5132416369625699,0.227885970753704,2.0961160572385396,,0.0037739427614602583,0.005099019513592785,False,-14.116421683149222,-0.15737831685077808,-0.15737831685077808,0.7071067811865476,True,-5.699870582166311,17.026848477695186,17.95555885334221,6.730591000000004,0.18881982398737662,-0.03805499999998574,-26.26168397107305,-86.35004847021084,90.25523206886278,True,,
2022-11-15 12:52:41.286179-07:00,56.479621,3.24,0.59,-3.19,-0.08,14.7,969.0,41.37,31.0,2.0,-0.0224816,-1.7081,-0.0122892,32.8213255,-111.786867,386.800745,-13.0770926,1.12088308,-1.13339184,2.10222,-13.6569,5956.39,26.0043,11562.0,-0.128554,-1.0,20.0,-1225.0,82.0,,0.0,,2022-11-15 19:52:41.286179+00:00,1.1727147642949367,0.014589640580502364,4.85211671063863,-4.681877644844873,1.2739930503579944,-0.0922892,344.7777216260022,0.27268666391324,0.21674144465476786,4.833924849083516,345.30885992008245,-4.674125031601133,1.2111030582742746,0.008243299999999999,0.2188886193285177,0.27343801264738316,0.9999133953060936,-0.013160618809153904,1.2725125488718505,0.21885071253093497,2.096065294397711,0.0061547056022890345,0.0061547056022890345,0.005099019513592785,True,-14.10944831645636,0.45254831645635996,0.45254831645635996,0.7071067811865476,True,-7.213898618782361,16.83974262648656,18.319859852312696,6.653045999999961,0.36430099897048507,-0.07754500000004327,-27.7757120076891,-86.53715432141945,90.88547329239832,True,,
2022-11-15 12:52:47.225631-07:00,62.419073,3.15,0.22,-3.14,-0.08,14.52,968.98,41.33,34.0,2.0,0.189047,-1.67963,-0.0749184,32.8212342,-111.786864,386.86260400000003,-13.0633423,1.39448391,0.838412429,2.09921,-14.2817,5948.4,26.0098,11512.0,-0.0278546,-1.0,14.0,-1202.0,81.0,,0.0,,2022-11-15 19:52:47.225631+00:00,1.1734243320364763,0.014601525261668835,4.818954757124627,-4.688643060678189,1.1130818481892222,-0.1549184,346.6452286304112,0.27186196110917105,0.2179933586822626,4.812317554094376,346.0036939133364,-4.666719956654978,1.1662476824892496,0.052002080000000006,0.21728563549045726,0.27185410743512906,0.9937254897615636,0.111846551123137,0.6369735172555435,0.21459441692347495,2.095777459099996,0.0034325409000039997,0.0034325409000039997,0.005099019513592785,True,-14.070012636314383,,-0.21168736368561802,0.7071067811865476,False,-17.377925698875217,17.120422766574954,24.394695679632605,6.7149049999999875,6.074835827319909,0.061859000000026754,-37.93973908778196,-86.25647418133107,94.23164617178034,True,,
2022-11-15 12:52:48.201442-07:00,63.394884,3.06,0.34,-3.01,0.47,14.71,968.99,40.88,17.0,2.0,0.220641,-1.87198,-0.0203047,32.82122,-111.786861,386.875024,-13.0637286,1.16762977,0.307974232,2.09682,-14.3445,5943.16,26.0102,11530.0,-0.0126823,-1.0,14.0,-1231.0,81.0,,0.0,,2022-11-15 19:52:48.201442+00:00,1.1726619233294495,0.01458892871615639,4.885182509226301,-4.727227165671699,1.2322059375713519,0.44969529999999996,345.3902903667384,0.2697972390997371,0.21275881206447445,4.836117267414623,344.7645012031752,-4.665722925667938,1.2697082779412345,0.292997926,0.21096979546769806,0.269214062976333,0.9931254603650991,0.11705477339523605,0.7148344782707474,0.2081118186562995,2.095731248789872,0.0010887512101280805,0.0010887512101280805,0.005099019513592785,True,-14.063695671304677,,-0.28080432869532324,0.7071067811865476,False,-18.958749214594636,17.401088250226316,25.733869589979214,6.727324999999951,1.3391739103466094,0.012419999999963238,-39.520562603501375,-85.9758086976797,94.62406961084102,True,,
2022-11-15 12:52:49.202171-07:00,64.395613,3.07,-0.05,-3.07,-0.06,14.55,968.99,41.39,20.0,2.0,0.281312,-1.87201,0.0364939,32.8212024,-111.786859,386.74187600000005,-13.1573574,1.4477266,2.81212206,2.09857,-14.2502,5944.81,26.0113,11580.0,-0.075101,-1.0,19.0,-1223.0,81.0,,0.0,,2022-11-15 19:52:49.202171+00:00,1.1733140815071785,0.014599574481061353,4.961023040893393,-4.872799464396639,0.93143705748212,-0.023506099999999995,349.1784356235922,0.2708304410658022,0.21743915698102176,4.873599535057384,346.60986756416617,-4.7376482798480115,1.1249384309035524,0.1371918338,0.21320708709770128,0.26965390863379307,0.9888967567713448,0.1486041871789478,0.40841359412141454,0.20858381031751208,2.095684173069741,,0.002885826930258961,0.005099019513592785,False,-14.057263717396596,,-0.19293628260340334,0.7071067811865476,False,-20.918079289467183,17.58819984306719,27.329669132283776,6.594177000000002,1.5957995423045617,-0.13314799999994875,-41.47989267837392,-85.78869710483883,95.29051394317905,True,,
2022-11-15 12:52:50.201340-07:00,65.394782,3.68,0.25,-3.67,0.06,14.62,969.0,41.11,13.0,2.0,0.171938,-1.58091,-0.130569,32.8211873,-111.786856,386.678156,-13.1277847,1.03987105,3.94851427,2.10007,-14.2629,5940.66,26.012,11580.0,-0.0754194,-1.0,19.0,-1223.0,81.0,,0.0,,2022-11-15 19:52:50.201340+00:00,1.1730407787548995,0.014594962033344726,5.2489702780929495,-5.098217107301739,1.2489480802335464,-0.07056899999999999,346.2349197294317,0.28101867179819723,0.23607962320924059,4.981121516776664,346.33809229594,-4.839242635544087,1.1763955571001046,-0.09427227599999999,0.2264881253914921,0.27622932443029297,0.9941377086733882,0.1081213031443176,0.6462739636424834,0.22386372152950118,2.0956374879161657,,0.004432512083834439,0.005099019513592785,False,-14.050888137802737,-0.2120118621972633,-0.2120118621972633,0.7071067811865476,True,-22.59909554729833,17.8688654652921,28.809989110942542,6.530456999999956,1.4803199786587662,-0.06372000000004618,-43.16090893620507,-85.50803148261392,95.78354508072395,True,,
2022-11-15 12:52:51.201313-07:00,66.394755,3.74,0.19,-3.73,0.3,14.73,969.02,41.01,13.0,2.0,0.0642559,-1.1075,-0.616978,32.8211756,-111.786854,386.25271000000004,-13.0939845,1.90711764,7.6708553,2.09918,-14.68,5946.69,26.0134,11507.0,-0.0851015,-1.0,13.0,-1221.0,81.0,,0.0,,2022-11-15 19:52:51.201313+00:00,1.1726167577034243,0.014587739939594698,4.823262138410464,-4.697474778542361,1.0943438037391562,-0.31697800000000004,346.8860330318883,0.2821080184130814,0.23888721151772974,4.739782412014212,345.0438056343262,-4.574482916915367,1.221460135577384,-0.36899139999999997,0.2358946593942485,0.2813377266683799,0.9983211426117142,0.0579214659210322,0.9544487218258157,0.23510515192149645,2.095591081866678,0.003588918133321961,0.003588918133321961,0.005099019513592785,True,-14.044553347117466,-0.6354466528825338,-0.6354466528825338,0.7071067811865476,True,-23.90160340118493,18.05597517750391,29.95504773419953,6.10501099999999,1.1450586232569862,-0.42544599999996535,-44.46341679009167,-85.32092177040211,96.21151243172764,True,,
2022-11-15 12:52:52.201330-07:00,67.394772,5.08,0.09,-5.07,-0.24,14.94,969.1,40.42,20.0,2.0,0.0231409,-0.232135,-1.10905,32.821172,-111.786852,385.443079,-13.0193346,1.12159565,6.15480168,2.10024,-14.415,5950.65,26.0142,11534.0,-0.0463131,-1.0,17.0,-1226.0,81.0,,0.0,,2022-11-15 19:52:52.201330+00:00,1.1718587296647547,0.014574168198050923,5.301723305528178,-5.151530896020663,1.252996183443978,-1.34905,346.32952137606435,0.31001881325977876,0.2923046938718307,5.077952567899059,345.1510474307082,-4.9033318532714585,1.273923405659876,-1.0686756,0.2811210817197357,0.30447093702211275,0.995067955032776,0.09919558894874969,0.7812514671419357,0.2783710384040746,2.095544989946567,0.004695010053433091,0.004695010053433091,0.005099019513592785,True,-14.038263770912097,-0.3767362290879017,-0.3767362290879017,0.7071067811865476,True,-24.302372427383126,18.243082152988904,30.387750032536697,5.295379999999966,0.4327022983371691,-0.8096310000000244,-44.86418581628986,-85.13381479491711,96.23181173860249,True,,
