Timestamp,Seconds,S,Um,Vm,Wm,T,P,H,MD,Sts,Vx,Vy,Vz,Lat,Lon,Alt,Yaw,Roll,Pitch,CH4,C2H6,H2O,T_a,Batt,R,C2C1,Power,Current,SOC,Lat_a,Lon_a,TS,Timestamp_UTC,Rho,Rho_err,Sc,V,U,W,WD,V_err,U_err,Sc_avg,WD_avg,V_avg,U_avg,W_avg,U_err_avg,V_err_avg,Nx,Ny,cross_wind,cross_wind_err,CH4_sub,CH4_res,CH4_adj,CH4_adj_err,BG_Samples_CH4,C2H6_sub,C2H6_res,C2H6_adj,C2H6_adj_err,BG_Samples_C2H6,x_dist,y_dist,s_dist,z_dist,velocity_s,velocity_z,x_src_dist,y_src_dist,s_src_dist,collecting,group,transect_num
2022-11-15 14:12:25.596500-07:00,0.799482,2.23,0.69,-2.12,-0.03,16.95,969.06,36.08,25.0,0.0,-0.000502896,0.000343208,-7.80415e-05,32.8213562,-111.787043,386.19347500000003,-1.29727129,-0.504966596,0.0176375447,2.05947,-9.16662,6225.92,28.8286,11461.0,0.115642,-1.0,20.0,-1317.0,78.0,,0.0,,2022-11-15 21:12:25.596500+00:00,1.1636913023729423,0.014441833331672356,2.228971550231581,-2.1034920046121783,0.7373164573467865,-0.0300780415,340.6834050491326,0.23460196937694672,0.2274963583519574,2.383004419627521,338.24913273195557,-2.2043564749588445,0.8835810652646231,0.0213801821,0.22989331333261126,0.23690761935178273,0.5637004524540286,0.8259792975027422,-1.322677766362647,0.17736988055347894,,,,,,,,,,,0.5900256018151511,-0.9355408459644935,1.1060591689712134,-0.0580449999999928,1.1060591689712134,-0.0580449999999928,-24.35803498230051,-103.00278292478457,105.84369210514751,False,,
2022-11-15 14:12:26.596685-07:00,1.799667,2.34,1.75,-1.54,0.24,16.45,969.06,37.14,24.0,0.0,-0.000639661,0.000450949,-0.000812875,32.821356,-111.787042,386.186578,-1.2517211,-0.510183707,0.0323645896,2.0572,-9.83381,6232.36,28.8294,11444.0,0.150619,-1.0,18.0,-1306.0,78.0,,0.0,,2022-11-15 21:12:26.596685+00:00,1.1657004379088072,0.014474479975599377,2.3303358518019865,-1.5009529585636214,1.7825839106120085,0.239187125,310.0977040960834,0.22342157707830265,0.2153795670924746,2.3439982820805416,317.31250477516255,-1.709650445510175,1.5712801840623354,0.17522557674,0.21949555397941561,0.2272135115075186,0.5761915267717207,0.8173147034505579,-0.4919641186352357,0.16836650172972328,,,,,,,,,,,0.567760484605896,-0.8419867621152322,1.0155263046604033,-0.06494200000003048,-0.09053286431081009,-0.0068970000000376785,-24.380300099509764,-102.9092288409353,105.75778181097667,False,,
2022-11-15 14:12:27.596858-07:00,2.79984,2.12,1.59,-1.39,0.21,16.43,969.05,37.13,24.0,0.0,-0.000317753,-7.67752e-05,1.83692e-05,32.8213557,-111.787042,386.19002700000004,-1.20982771,-0.508184611,0.030963867,2.05829,-8.93313,6238.67,28.8301,11423.0,0.101561,-1.0,20.0,-1311.0,78.0,,0.0,,2022-11-15 21:12:27.596858+00:00,1.1657689176245194,0.014475742719062101,2.1117242857799328,-1.3561957981872996,1.6186761307104889,0.2100183692,309.95770883528945,0.22094130589053065,0.2130936670239808,2.212832599030185,310.54467094273286,-1.4365544549696925,1.6822716557699597,0.26807323016,0.2144158328600258,0.22222683311692593,0.23486079463456902,-0.9720290155873017,1.7914722705670878,0.21030172478702092,,,,,,,,,,,0.5343628093297861,-0.8419867654140105,0.997238850590554,-0.06149299999998448,-0.01828745406984933,0.0034490000000459986,-24.413697774785874,-102.90922884423408,105.76548595999323,False,,
2022-11-15 14:12:28.597297-07:00,3.800279,2.26,1.73,-1.45,0.18,16.59,969.06,36.9,24.0,0.0,-0.000600382,0.000683391,0.000686329,32.8213555,-111.787042,386.189569,-1.17974954,-0.517003323,0.0303322279,2.05907,-9.22785,6241.68,28.8308,11485.0,-0.00235977,-1.0,19.0,-1303.0,78.0,,0.0,,2022-11-15 21:12:28.597297+00:00,1.165137180984298,0.014465323948836845,2.2564031927041057,-1.413390170257858,1.7588870329454775,0.180686329,308.7843404368892,0.22178058742382267,0.2141313487857099,2.2055626498031953,310.30154649034915,-1.4251197435810716,1.680905118482783,0.22345466286000004,0.2143633414845351,0.22196052404334554,0.7512595892866749,0.6600068404985031,0.32220730964826527,0.15487374510996235,,,,,,,,,,,0.5120976927097106,-0.8419867672492165,0.9854875763303135,-0.06195100000002185,-0.011751274260240474,-0.00045800000003737296,-24.43596289140595,-102.90922884606928,105.77062760579057,False,,
2022-11-15 14:12:29.598257-07:00,4.801239,2.1,1.59,-1.36,0.23,16.67,969.05,36.73,25.0,0.0,-0.00101189,-4.37429e-05,-0.000525998,32.8213552,-111.787042,386.185602,-1.13903291,-0.515937058,0.0277806083,2.05936,-9.09799,6230.44,28.8315,11418.0,0.00544092,-1.0,19.0,-1303.0,78.0,,0.0,,2022-11-15 21:12:29.598257+00:00,1.164803544150536,0.014460051056509252,2.0915413768088595,-1.3281680907746605,1.6157087774569692,0.229474002,309.42137868306884,0.22029564301017382,0.21288451032121067,2.1189389722324696,311.24198887989974,-1.398543396486137,1.5873842335437203,0.2270543038,0.2141321206790236,0.22146559601170526,0.04318857304091172,-0.9990669382772557,1.4657953290896735,0.22105286751831904,,,,,,,,,,,0.4787000161231228,-0.841986769569052,0.9685532641861293,-0.06591800000001058,-0.01693431214418417,-0.0039669999999887295,-24.469360567992535,-102.90922884838912,105.77834839312132,False,,
2022-11-15 14:12:30.598115-07:00,5.801097,1.51,1.13,-0.98,0.15,17.43,969.07,35.0,25.0,0.0,-0.000531003,0.000399785,-0.000466103,32.8213551,-111.787041,386.18963,-1.10011076,-0.505663655,0.034454818,2.05794,-8.95586,6214.93,28.8327,11418.0,-0.02073,-1.0,19.0,-1303.0,78.0,,0.0,,2022-11-15 21:12:30.598115+00:00,1.1617810257797256,0.014410677508753732,1.4950968286031618,-0.9577242825663222,1.1480760974264972,0.149533897,309.83484050605796,0.21527770087490047,0.2079887915789959,1.7015063970538589,304.01592487417184,-0.9446967200377838,1.411983174559595,0.21549288500000002,0.20784124057802975,0.21519727699746158,0.601474829139421,0.7988917510599945,0.09456192177435108,0.15658013196790524,,,,,,,,,,,0.4675674581344612,-0.7484326863022537,0.8824799226225652,-0.06189000000000533,-0.08607334156356405,0.00402800000000525,-24.480493125981198,-102.81567476512232,105.68991210658955,False,,
2022-11-15 14:12:31.598240-07:00,6.801222,2.1,1.79,-1.09,0.12,17.2,969.06,35.56,25.0,0.0,-0.000761654,0.000235203,-0.0016608,32.821355,-111.787041,386.181726,-1.06395749,-0.512557533,0.0298590104,2.06157,-9.31298,6217.03,28.8337,11473.0,0.0444198,-1.0,21.0,-1295.0,78.0,,0.0,,2022-11-15 21:12:31.598240+00:00,1.1626893294933376,0.01442556553840357,2.0949812729534982,-1.0563392663690212,1.8091693918350538,0.11833919999999999,300.2798352103194,0.2164374881948862,0.20929799474863167,2.0147518534544395,305.23110230304593,-1.1655217851014683,1.6335632413847332,0.12289652960000001,0.21099622364924486,0.21802022782415512,0.29505740331418684,0.9554795281687041,-0.631637277146611,0.19988546479718233,,,,,,,,,,,0.45643489856974906,-0.7484326862173389,0.8766323644669292,-0.06979400000000169,-0.00584755815563609,-0.007903999999996358,-24.49162568554591,-102.81567476503741,105.69249124753775,False,,
2022-11-15 14:12:32.598191-07:00,7.801173,1.87,0.75,-1.7,0.15,17.18,969.08,35.65,24.0,0.0,-0.000546462,0.00085383,0.000558245,32.8213548,-111.787041,386.193658,-1.03047928,-0.515895183,0.0388360551,2.05726,-9.32774,6217.12,28.8341,11449.0,0.00833445,-1.0,20.0,-1288.0,78.0,,0.0,,2022-11-15 21:12:32.598191+00:00,1.1627934217054898,0.014426957389400804,1.8570860329365866,-1.685383013349706,0.7799055276380679,0.150558245,335.16781284077547,0.22561843748879631,0.21947659665930017,1.7601437664348416,315.4078178023834,-1.194131180290341,1.1949728025783894,0.159936894022,0.21196100869725526,0.2185872111534981,0.842266563517323,0.5390612543864745,0.36277578397505206,0.16323331572339722,,,,,,,,,,,0.43416978282760554,-0.7484326893024391,0.8652484560731972,-0.05786200000000008,-0.011383908393731934,0.011932000000001608,-24.513890801288053,-102.8156747681225,105.69765286060905,False,,
2022-11-15 14:12:33.598253-07:00,8.801235,1.82,1.04,-1.49,0.21,17.03,969.06,35.93,25.0,0.0,-0.000191827,0.000389971,-0.000226208,32.8213547,-111.787041,386.18676100000005,-0.993899858,-0.521153438,0.0344095813,2.05979,-9.55836,6221.66,28.8353,11473.0,0.000180463,-1.0,20.0,-1284.0,78.0,,0.0,,2022-11-15 21:12:33.598253+00:00,1.163370483211767,0.014436623620478109,1.8166296992732414,-1.4713460617400778,1.0654971754460687,0.209773792,324.08926322229536,0.22191259048578796,0.21570245653467499,1.7446692861835023,323.44865003010665,-1.3979145645939426,1.0379460262736413,0.13131566546,0.2145319233196044,0.2207935448821404,0.8973153515671645,0.44139003142560446,0.31433934987704326,0.17801127098173744,,,,,,,,,,,0.4230372240721894,-0.748432689335683,0.859716222608918,-0.06475899999998092,-0.005532233464279224,-0.006896999999980835,-24.52502336004347,-102.81567476815576,105.70023533011579,False,,
2022-11-15 14:12:34.598111-07:00,9.801093,1.6,1.3,-0.94,0.1,17.56,969.06,34.8,25.0,0.0,-0.000735932,0.000118633,0.000799575,32.8213545,-111.78704,386.194086,-0.959707751,-0.51979161,0.0344599773,2.0599,-9.40104,6236.44,28.836,11427.0,0.0189504,-1.0,18.0,-1298.0,78.0,,0.0,,2022-11-15 21:12:34.598111+00:00,1.1612495160757816,0.014402204632711814,1.6035730089007723,-0.9179754448209028,1.3148260255946191,0.100799575,304.9216880912633,0.21441727136507163,0.2080083836167279,1.6406261604953372,306.2338156640955,-0.9495767185710667,1.3253957607880527,0.09454227412,0.20838790701569873,0.2147871525150528,0.15914652352698852,0.9872549741831002,-0.7265422111509248,0.20941362837251773,,,,,,,,,,,0.4007721072523741,-0.654878605246408,0.767778789470632,-0.05743400000000065,-0.09193743313828595,0.007324999999980264,-24.547288476863283,-102.72212068406648,105.61440928868686,False,,
2022-11-15 14:12:35.597691-07:00,10.800673,2.25,1.93,-1.15,0.16,16.9,969.07,36.24,24.0,0.0,-7.42634e-05,-0.000411439,-0.000441834,32.8213544,-111.78704,386.187402,-0.935116679,-0.513379565,0.0267596716,2.05923,-8.64315,6243.55,28.8376,11473.0,-0.00617504,-1.0,21.0,-1296.0,78.0,,0.0,,2022-11-15 21:12:35.597691+00:00,1.1639039147425365,0.014445137335671146,2.2467823734040113,-1.118760408348961,1.9484368560848533,0.159558166,299.8637340549558,0.21680356267951462,0.21052630167495637,1.9751788717801635,301.88187133269366,-1.0291760009264506,1.680476407768277,0.05500049400000001,0.20940839099720746,0.21566676883783673,0.9840979794216569,-0.1776264814103239,1.8365623491470395,0.20291543521852975,,,,,,,,,,,0.38963954783718074,-0.6548786052973649,0.7620268793913929,-0.06411800000000767,-0.005751910079239142,-0.006684000000007018,-24.558421036278478,-102.72212068411744,105.61699731405696,False,,
2022-11-15 14:12:36.597681-07:00,11.800663,2.09,1.8,-1.06,0.13,17.23,969.06,35.57,24.0,0.0,-0.00022516,-0.000354341,0.00136183,32.8213543,-111.78704,386.19021000000004,-0.897280979,-0.50967247,0.0229812143,2.05985,-8.6041,6245.9,28.8385,11435.0,0.0953077,-1.0,18.0,-1297.0,78.0,,0.0,,2022-11-15 21:12:36.597681+00:00,1.162569208686516,0.014423615882321213,2.0889024293220726,-1.0320365992621596,1.8161535774848592,0.13136183,299.6075785931835,0.21557752530111576,0.20954303840438723,2.1392361036260903,299.77144249417023,-1.0553923838037371,1.8563758929967686,0.10450893466,0.2098674321792303,0.21589493875286533,0.8440170374362533,-0.536316362343468,2.1328370857018335,0.16188632302436817,,,,,,,,,,,0.37850699042489405,-0.6548786063228644,0.7563950891034976,-0.06130999999999176,-0.005631790287895289,0.002808000000015909,-24.569553593690763,-102.72212068514294,105.61958644989248,False,,
2022-11-15 14:12:37.597423-07:00,12.800405,2.19,1.67,-1.41,-0.07,17.21,969.06,35.66,25.0,0.0,0.000347408,-0.000373748,-0.000638576,32.8213542,-111.78704,386.190332,-0.868760667,-0.517523732,0.026184008,2.05968,-9.76874,6253.52,28.8389,11429.0,0.0649854,-1.0,20.0,-1290.0,78.0,,0.0,,2022-11-15 21:12:37.597423+00:00,1.1626492864664228,0.014424915594084198,2.186140490669564,-1.3848908700154028,1.6915340738787803,-0.07063857600000001,309.30783411798143,0.2203006599025848,0.21466109648110746,2.3153055762215384,307.02030948954587,-1.3924205795027942,1.8451403425672175,-0.06008266581099999,0.21487991353370278,0.2205407056022092,0.7324452402426044,0.6808259469541048,0.40346820189459387,0.15407509482210877,,,,,,,,,,,0.3673744314317947,-0.6548786070725929,0.7508861184435187,-0.06118800000001556,-0.005508970659978907,0.0001219999999761967,-24.580686152683864,-102.72212068589266,105.62217669572921,False,,
2022-11-15 14:12:38.598333-07:00,13.801315,2.34,1.76,-1.54,-0.07,18.02,969.05,33.81,25.0,0.0,-0.000216632,-6.76489e-05,0.000302451,32.8213541,-111.78704,386.196863,-0.835082108,-0.513941811,0.0298606279,2.06019,-8.74052,6245.36,28.84,11478.0,0.113264,-1.0,18.0,-1285.0,78.0,,0.0,,2022-11-15 21:12:38.598333+00:00,1.1594029713421998,0.014372419687609158,2.338510793086368,-1.5142531090590876,1.782041035185868,-0.06969754900000001,310.3555427537842,0.22231064840048023,0.2169471469154529,2.344480071830366,307.4543302386163,-1.4248354956322198,1.8586250755570497,-0.03588028380000001,0.21551169985325128,0.22094998190863033,0.2980798938282913,-0.9545409246833342,1.914082556711061,0.20222683345547848,,,,,,,,,,,0.35624187350436975,-0.6548786084803327,0.7455026923378885,-0.05465700000002016,-0.005383426105630251,0.006530999999995402,-24.59181871061129,-102.7221206873004,105.6247680517779,False,,
2022-11-15 14:12:39.597720-07:00,14.800702,2.82,2.26,-1.69,0.01,17.77,969.03,34.42,26.0,0.0,-0.000381265,0.000429144,-0.000863703,32.8213541,-111.78704,386.188593,-0.803430243,-0.517900578,0.026214939,2.05979,-9.1891,6255.41,28.8407,11478.0,0.199724,-1.0,18.0,-1285.0,78.0,,0.0,,2022-11-15 21:12:39.597720+00:00,1.1603753466944315,0.014388475660712243,2.8214421748747602,-1.6577148875335734,2.2830937996086735,0.009136297,305.9827520394391,0.2248592472869321,0.21966326701784827,2.6123342927319766,303.0897769385793,-1.417358682325403,2.1799441540465,0.0833095434,0.2156782798502424,0.22098971930896982,0.7475791235775111,0.6641727591456009,0.6883097133909651,0.15502374012981252,,,,,,,,,,,0.35624187304248583,-0.6548786076312526,0.74550269137131,-0.06292700000000195,-9.665784839185676e-10,-0.008269999999981792,-24.591818711073174,-102.72212068645132,105.62476805105969,False,,
2022-11-15 14:12:40.598351-07:00,15.801333,2.95,2.19,-1.97,0.1,17.78,969.05,34.46,26.0,0.0,-5.12371e-05,-0.000856928,-0.000432624,32.8213542,-111.78704,386.19268200000005,-0.784280613,-0.512465506,0.0272998569,2.06066,-9.16025,6262.94,28.8418,11469.0,0.1885,-1.0,20.0,-1292.0,78.0,,0.0,,2022-11-15 21:12:40.598351+00:00,1.1603594100495251,0.014387920352177038,2.9462006348936254,-1.9406959776492994,2.216708664525727,0.099567376,311.2016715720251,0.2302858973164039,0.22541631110428156,2.8285102967612215,308.7603697626651,-1.7403336849883977,2.2018128921304863,-0.016080071200000007,0.22148532683785277,0.22645368606880342,0.9982172606164437,-0.05968501158082257,2.301759469715491,0.2206978038489751,,,,,,,,,,,0.36737443156714494,-0.6548786073138672,0.7508861187201645,-0.058837999999980184,0.0053834273488545525,0.00408900000002177,-24.580686152548513,-102.72212068613393,105.62217669593235,False,,
2022-11-15 14:12:41.598207-07:00,16.801189,2.74,2.02,-1.85,0.13,18.84,969.05,32.2,25.0,0.0,-0.000478548,0.000418343,-0.00155204,32.821354,-111.787039,386.189294,-0.739460569,-0.515211743,0.0199232553,2.06125,-8.56975,6274.89,28.8427,11441.0,0.298481,-1.0,18.0,-1287.0,78.0,,0.0,,2022-11-15 21:12:41.598207+00:00,1.156147002177158,0.014319711947738244,2.7385066097657558,-1.8233581462065007,2.0432287004623655,0.12844796,311.74542348887434,0.22774500501977604,0.2231211209717786,2.591699266210249,313.9510942004891,-1.7939387518462897,1.860754076222888,0.0730548146,0.22262529740951326,0.227216831094209,0.6581601492584724,0.7528779568615788,-0.12594276168467822,0.16089523262473365,,,,,,,,,,,0.3451093140831097,-0.5613245201601195,0.6589276558165569,-0.06222600000000966,-0.09195846290360765,-0.0033880000000294785,-24.60295127003255,-102.62856659898019,105.53638184700529,False,,
2022-11-15 14:12:42.597715-07:00,17.800697,2.48,2.05,-1.36,0.31,17.85,969.05,34.25,27.0,0.0,-0.000166035,9.35223e-05,0.000210536,32.8213539,-111.787039,386.19475700000004,-0.703300004,-0.508368065,0.0341910752,2.05782,-9.00175,6288.09,28.8435,11423.0,0.231294,-1.0,18.0,-1303.0,78.0,,0.0,,2022-11-15 21:12:42.597715+00:00,1.160080285792812,0.014383395847996914,2.4599114101530124,-1.3346411066932495,2.0663729726565823,0.310210536,302.8578460753615,0.21907164704669058,0.21441058254106776,2.3401309099092424,300.88616057400577,-1.1877095408270226,1.9905147889895478,0.20190013639999999,0.21262751638472754,0.21728906902625506,0.4907698611031076,0.871289242119307,-0.05795387916896466,0.17272087211126774,,,,,,,,,,,0.3339767560787785,-0.5613245212727666,0.6531658991274762,-0.05676299999998946,-0.005761756689080633,0.005463000000020202,-24.61408382803688,-102.62856660009284,105.53897765794076,False,,
2022-11-15 14:12:43.597967-07:00,18.800949,2.17,1.81,-1.19,0.12,18.27,969.04,33.4,26.0,0.0,-0.000151891,-0.000634463,-0.000362751,32.8213537,-111.787039,386.188287,-0.668219524,-0.508040983,0.0311219319,2.05462,-9.2534,6311.19,28.844,11473.0,0.187323,-1.0,19.0,-1293.0,78.0,,0.0,,2022-11-15 21:12:43.597967+00:00,1.1583964021447608,0.014356263457450193,2.166363204837027,-1.1694446505787588,1.8236032311071613,0.119637249,302.671338090473,0.21654238867854889,0.2120904695455979,2.506539794118587,307.11234774541145,-1.5091221544583555,1.9935556436224728,-0.0242456886,0.2176720483113296,0.2220103433214347,0.9725193675342153,-0.23282199159626202,2.2901282992430287,0.20622433304096785,,,,,,,,,,,0.31171163916277894,-0.5613245219671645,0.6420664801647975,-0.06323300000002519,-0.011099418962678742,-0.006470000000035725,-24.63634894495288,-102.62856660078724,105.54417260971684,False,,
2022-11-15 14:12:44.597667-07:00,19.800649,2.79,2.44,-1.36,-0.06,16.71,969.04,36.9,26.0,0.0,-0.000517074,0.000684005,0.00202758,32.8213537,-111.787039,386.200555,-0.632086196,-0.512462224,0.0332216651,2.05986,-8.93621,6316.84,28.8455,11405.0,0.154655,-1.0,16.0,-1299.0,78.0,,0.0,,2022-11-15 21:12:44.597667+00:00,1.1646307855965852,0.014457393015467898,2.7926400582876494,-1.3323157385744286,2.454337643418224,-0.05797242,298.4949357243357,0.21887090188962663,0.2146153153313067,2.902622755226625,302.87117185554393,-1.5748417505211216,2.4313056596657545,-0.0124215568,0.21883922710612308,0.22300697348777948,0.7977157201679851,0.6030336887744108,0.9898081151960633,0.16115065952126834,,,,,,,,,,,0.31171163976230654,-0.5613245230467827,0.6420664813997099,-0.050965000000019245,1.2349123945654128e-09,0.01226800000000594,-24.63634894435335,-102.62856660186685,105.54417261062669,False,,
2022-11-15 14:12:45.598186-07:00,20.801168,3.13,2.58,-1.78,-0.08,16.54,969.03,37.36,26.0,0.0,0.000398078,-0.000358743,0.00183216,32.8213537,-111.787039,386.198053,-0.606066424,-0.507806555,0.0195559676,2.05922,-9.33351,6320.53,28.8462,11462.0,0.230075,-1.0,20.0,-1303.0,78.0,,0.0,,2022-11-15 21:12:45.598186+00:00,1.1653022053241189,0.01446845412385551,3.1349843250195537,-1.752968805034401,2.599081969983742,-0.07816784,303.99796785816204,0.22605221381807203,0.222110197490444,3.1664370947413696,304.1666953951615,-1.7642266012305114,2.622810822879257,-0.06085066840000001,0.22235852163854286,0.22629066926892355,0.6694520432167249,0.7428552765060986,0.4452810246709522,0.1597640834737808,,,,,,,,,,,0.31171163964003573,-0.5613245228265996,0.6420664811478553,-0.05346700000001192,-2.5185464824772907e-10,-0.0025019999999926767,-24.636348944475625,-102.62856660164667,105.54417261044114,False,,
2022-11-15 14:12:46.598249-07:00,21.801231,2.97,2.32,-1.85,-0.01,16.86,969.03,36.61,27.0,0.0,-0.00111491,-0.000114914,-0.00125191,32.8213536,-111.787039,386.191217,-0.570862061,-0.521494938,0.0251196673,2.05713,-9.36616,6300.88,28.8471,11444.0,0.242755,-1.0,18.0,-1292.0,78.0,,0.0,,2022-11-15 21:12:46.598249+00:00,1.1640163989529464,0.014447560698120263,2.9664974429069826,-1.8269083323514805,2.3372019647344127,-0.01125191,308.013485273199,0.22733847731769405,0.22370944197637654,3.151217825580951,306.4371965356887,-1.8686309355059962,2.535951347129764,0.0069777202,0.2245806647305729,0.22824333742729763,0.10252704539073819,-0.9947302171762178,2.1187872551739555,0.2258564283349891,,,,,,,,,,,0.3005790803040821,-0.5613245228569006,0.6367362118467702,-0.06030300000003308,-0.005330269301085044,-0.0068360000000211585,-24.647481503811576,-102.62856660167698,105.54677175165321,False,,
2022-11-15 14:12:47.597764-07:00,22.800746,3.23,2.67,-1.82,-0.09,16.24,969.04,38.11,27.0,0.0,-0.000898732,-0.00010399,-0.000994826,32.8213535,-111.787039,386.18737200000004,-0.553891203,-0.522852648,0.0239007986,2.05885,-9.07353,6276.55,28.8483,11427.0,0.260857,-1.0,20.0,-1305.0,78.0,,0.0,,2022-11-15 21:12:47.597764+00:00,1.1665222693010338,0.014488143321974258,3.2306103644531885,-1.794207857168164,2.6865705820224393,-0.090994826,303.73671037126877,0.22670295812692837,0.2231001835129405,3.190596057466447,302.38708259926216,-1.7100753096651444,2.6877751243484793,0.0949007788,0.22163847671331904,0.22526042983882447,0.11494059678325116,-0.993372366844936,2.0076760346569427,0.22230372282562552,,,,,,,,,,,0.28944652183587216,-0.5613245231504179,0.6315572098336999,-0.06414799999998877,-0.005179002013070311,-0.0038449999999556894,-24.65861406227979,-102.62856660197049,105.54937200309415,False,,
2022-11-15 14:12:48.597554-07:00,23.800536,4.05,3.52,-1.99,-0.09,16.57,969.0,37.29,27.0,0.0,-0.00111067,0.000753153,0.00089828,32.8213536,-111.787038,386.19500100000005,-0.530778833,-0.52257164,0.00907117077,2.0573,-8.88695,6257.99,28.8491,11474.0,0.215547,-1.0,18.0,-1296.0,78.0,,0.0,,2022-11-15 21:12:48.597554+00:00,1.165145467700875,0.014466354327264489,4.042238707364043,-1.9565532138196717,3.5371730645819475,-0.08910172,298.94875247913603,0.23012582759060773,0.22657571775227198,3.8739094344532816,298.36620892262096,-1.8402622942496567,3.408189166029956,-0.0755022238,0.22417566510216033,0.22771543892382495,0.5612381425028927,0.8276543646957362,0.3897046368204182,0.17122596743222215,,,,,,,,,,,0.3005790804823989,-0.4677704367850629,0.556018853235871,-0.056518999999980224,-0.07553835659782893,0.007629000000008546,-24.64748150363326,-102.53501251560513,105.45580655443894,False,,
2022-11-15 14:12:49.597608-07:00,24.80059,3.24,2.73,-1.74,-0.16,16.79,969.03,36.0,27.0,0.0,-0.000201241,0.000347308,0.00102512,32.8213534,-111.787038,386.197961,-0.494271328,-0.51733447,0.0219948605,2.057,-9.75007,6246.16,28.8498,11415.0,0.295538,-1.0,17.0,-1291.0,78.0,,0.0,,2022-11-15 21:12:49.597608+00:00,1.164297426572201,0.014452125943053423,3.2370052759443104,-1.7160374522602242,2.744707383116011,-0.15897488,302.01431909528714,0.22500781052044605,0.22175401436356007,3.2278005474915226,301.9709806718173,-1.705952724124137,2.738459572793845,-0.15154544460000002,0.22159239046712131,0.2248478149727887,0.865244803941036,0.5013496078117926,1.5141591869773685,0.1752573288103409,,,,,,,,,,,0.27831396330273156,-0.46777043805528307,0.5443049190368443,-0.05355900000000702,-0.011713934199026665,0.0029599999999732063,-24.669746620812926,-102.53501251687536,105.46101265477634,False,,
2022-11-15 14:12:50.597920-07:00,25.800902,3.22,2.74,-1.65,0.38,17.4,969.03,34.6,26.0,0.0,-0.000498442,0.00056433,-0.000497398,32.8213535,-111.787038,386.188898,-0.468263551,-0.515362648,0.0209384506,2.05723,-8.38092,6225.95,28.8514,11466.0,0.183004,-1.0,22.0,-1305.0,78.0,,0.0,,2022-11-15 21:12:50.597920+00:00,1.161853023095316,0.014412440450468201,3.197736512045192,-1.6269875051936231,2.7528949232418554,0.379502602,300.58349777796593,0.22326843410029684,0.2201556774095436,3.351920872746139,304.6387044152003,-1.9012933146731796,2.7514350639745073,0.10574588700000001,0.2257724546499323,0.22879047170753006,0.7495058308697348,0.6619977413045066,0.8035647438373317,0.16167534831698532,,,,,,,,,,,0.2894465219051198,-0.4677704368640689,0.5500804219811617,-0.06262200000003304,0.00577550294431739,-0.009063000000026022,-24.65861406221054,-102.53501251568414,105.4584090485939,False,,
2022-11-15 14:12:51.598134-07:00,26.801116,3.2,2.54,-1.94,0.04,17.03,969.03,35.42,25.0,0.0,-0.000393798,-0.000234714,-0.00173935,32.8213533,-111.787038,386.19674100000003,-0.437649072,-0.50721741,0.0289770288,2.05646,-9.28014,6224.3,28.852,11436.0,0.194945,-1.0,18.0,-1294.0,78.0,,0.0,,2022-11-15 21:12:51.598134+00:00,1.1633344677798059,0.014436485753129183,3.1959489451464242,-1.9207767280065298,2.554350489093278,0.03826065,306.9418069699046,0.2288587238189999,0.22607555032675603,3.2834041370594713,308.1290682920044,-2.00430140168561,2.578989409630481,0.03536244652,0.2280128898323246,0.23076650616424033,0.5119837631740366,-0.85899512585704,3.042085837924973,0.1804612929900047,,,,,,,,,,,0.2671814049461284,-0.4677704384923869,0.5386975833214281,-0.05477899999999636,-0.011382838659733552,0.007843000000036682,-24.68087917916953,-102.53501251731245,105.46361737102605,False,,
2022-11-15 14:12:52.597832-07:00,27.800814,3.0,1.89,-2.33,0.16,17.84,969.04,33.66,25.0,0.0,-0.000510198,-0.001286,0.00130768,32.8213532,-111.787038,386.20556000000005,-0.413848247,-0.507164019,0.0231139961,2.05395,-8.47472,6216.09,28.8536,11433.0,-0.00127265,-1.0,19.0,-1304.0,78.0,,0.0,,2022-11-15 21:12:52.597832+00:00,1.1601081807382596,0.01438399641807532,3.0008355062485474,-2.3175738412285773,1.9062699772107288,0.16130768,320.56173749444724,0.2376005319125069,0.23523424994101205,2.9508341646136627,316.61343509936,-2.1392928777361524,2.0171729868884842,0.1274181842,0.2311968903655166,0.23364873213764875,0.9295203108640196,-0.36877092034385833,2.6639122652469087,0.20226728650252174,,,,,,,,,,,0.2560488462886209,-0.46777043966570725,0.5332637207899885,-0.04595999999997957,-0.005433862531439626,0.008819000000016786,-24.692011737827038,-102.53501251848579,105.46622319883757,False,,
2022-11-15 14:12:53.598264-07:00,28.801246,2.76,1.79,-2.1,0.02,17.08,969.03,35.41,25.0,0.0,-0.00171225,0.000567658,-0.0109764,32.8213531,-111.787038,386.18786,-0.386349802,-0.514032398,0.017042813,2.05665,-9.64252,6235.56,28.8541,11472.0,0.0336454,-1.0,19.0,-1301.0,78.0,,0.0,,2022-11-15 21:12:53.598264+00:00,1.163134051822155,0.014433231668626971,2.7578170062842995,-2.087314584885237,1.8024074078510293,0.0090236,319.1892144810354,0.23219765161518713,0.2299102018475265,2.7337665686961983,318.95212478341267,-2.0639191077928443,1.771809963992403,0.038462128,0.22984451077164586,0.23213076097213584,0.31468468571958136,0.9491962645172853,-1.4015028457090442,0.21037852984354485,,,,,,,,,,,0.24491628799838128,-0.4677704388942395,0.5280086851844537,-0.06366000000002714,-0.0052550356055348635,-0.017700000000047567,-24.703144296117276,-102.5350125177143,105.46883013536569,False,,
2022-11-15 14:12:54.598106-07:00,29.801088,2.49,1.69,-1.83,-0.03,16.75,969.05,36.05,25.0,0.0,-0.000146742,-0.000289877,-0.00324964,32.8213531,-111.787038,386.192316,-0.365328778,-0.509683982,0.0349725417,2.0551,-8.86824,6243.1,28.8553,11411.0,-0.0108799,-1.0,15.0,-1299.0,78.0,,0.0,,2022-11-15 21:12:54.598106+00:00,1.1644821081949237,0.01445482810898197,2.4910952178139434,-1.8194769889377675,1.7014872526532345,-0.03324964,316.91929955225714,0.22644109202318363,0.22419527870535072,2.56940077082082,313.91522070585734,-1.74821989103445,1.8427070829465975,0.092540054,0.22306415821221162,0.225331992446871,0.8921958114310727,-0.45164879504416894,2.4336369483572824,0.18341493148831275,,,,,,,,,,,0.2449162881694794,-0.46777043922102324,0.5280086855533197,-0.05920400000002246,3.6886604881658513e-10,0.0044560000000046784,-24.703144295946178,-102.5350125180411,105.46883013564332,False,,
2022-11-15 14:12:55.597979-07:00,30.800961,2.65,2.05,-1.67,-0.03,17.61,969.04,34.15,25.0,0.0,-0.000890927,-5.15171e-05,-0.00178095,32.821353,-111.787038,386.191461,-0.34098273,-0.514198395,0.0120156986,2.05691,-8.85078,6246.96,28.8562,11433.0,-0.0264571,-1.0,18.0,-1278.0,78.0,,0.0,,2022-11-15 21:12:55.597979+00:00,1.1610258615800872,0.01439887466710103,2.6434638560734705,-1.6578219092537798,2.0590113344916228,-0.03178095,308.83943033685796,0.22330551923620448,0.22112081814654114,2.632364997993309,311.6943826727647,-1.7527947660806618,1.9418281780797837,0.060415996000000007,0.22344428643529626,0.22557349008662878,0.057727724326403614,-0.9983323644178299,1.8619690649139367,0.22482300177537207,,,,,,,,,,,0.23378372913434026,-0.4677704396848945,0.5229378703545557,-0.06005900000002384,-0.005070815198763956,-0.0008550000000013824,-24.714276854981318,-102.53501251850497,105.47143818415788,False,,
2022-11-15 14:12:56.597975-07:00,31.800957,3.01,2.6,-1.52,-0.0,17.84,969.04,33.69,25.0,0.0,-0.00059442,3.02836e-05,-0.00140097,32.8213529,-111.787037,386.187433,-0.313411119,-0.514521699,0.0221267319,2.05667,-8.68864,6264.62,28.8577,11427.0,-0.0992431,-1.0,18.0,-1299.0,78.0,,0.0,,2022-11-15 21:12:56.597975+00:00,1.1601081807382596,0.01438399641807532,3.0111805546292034,-1.5057249015910124,2.6076811256949677,-0.00140097,300.00295791069755,0.22056837243869482,0.21847345593538528,3.0833364152987945,306.6514728680285,-1.8308327896536323,2.4575094169194434,0.102547367,0.22496712800121604,0.2269567600557137,0.05088048038859465,0.998704749520811,-1.7034221429131622,0.2263699583056936,,,,,,,,,,,0.22265117069958126,-0.3742163516948143,0.43544393633356643,-0.06408700000002909,-0.08749393402098932,-0.00402800000000525,-24.725409413416077,-102.44145843051488,105.3831024217448,False,,
2022-11-15 14:12:57.597593-07:00,32.800575,2.95,2.37,-1.77,-0.01,17.01,969.01,35.51,25.0,0.0,-0.000747846,6.97514e-05,-0.00151517,32.8213529,-111.787037,386.184473,-0.278831746,-0.514159884,0.0185658285,2.05922,-8.84959,6268.2,28.8589,11469.0,-0.088418,-1.0,17.0,-1300.0,78.0,,0.0,,2022-11-15 21:12:57.597593+00:00,1.163390641559759,0.014437695873601077,2.957363289238141,-1.7583756536898891,2.37783781722894,-0.01151517,306.48237389647176,0.22504518619139322,0.22325100042654106,2.9617624221248797,304.04753050240043,-1.6541019545304336,2.4477497331425986,-0.0272209012,0.22139965230273076,0.2232266638676384,0.09286667709667117,0.9956785526890808,-1.4196394560058252,0.22130974510968285,,,,,,,,,,,0.22265117059625777,-0.3742163515211555,0.43544393613149435,-0.0670470000000023,-2.0207208129008336e-10,-0.0029599999999732063,-24.7254094135194,-102.44145843034123,105.38310242160023,False,,
2022-11-15 14:12:58.597537-07:00,33.800519,2.78,2.32,-1.53,0.15,17.69,969.04,34.02,25.0,0.0,-0.000298848,-0.000589063,-0.00250312,32.8213528,-111.787037,386.17714800000005,-0.261370804,-0.512647453,0.0127164074,2.05492,-9.08538,6259.94,28.86,11469.0,-0.0764002,-1.0,17.0,-1300.0,78.0,,0.0,,2022-11-15 21:12:58.597537+00:00,1.1607065036206374,0.014393696109863671,2.7791544883224635,-1.5199898480527754,2.326656513492998,0.14749688,303.15632900281463,0.22059871894195068,0.2188755569703642,2.8803002467941448,308.28703665011807,-1.7757439195994507,2.2578156840936803,0.05779569999999999,0.22375431594119904,0.2254252944376788,0.8917979673196862,-0.45243384652839125,2.8169220896510327,0.18383791404044514,,,,,,,,,,,0.21151861136323846,-0.3742163515126673,0.42985811693218595,-0.07437199999998256,-0.005585819199308395,-0.007324999999980264,-24.73654197275242,-102.44145843033274,105.38571494326607,False,,
2022-11-15 14:12:59.598021-07:00,34.801003,2.86,2.15,-1.88,0.07,17.99,969.05,33.33,25.0,0.0,-0.000284881,0.000246022,8.91664e-05,32.821353,-111.787037,386.179926,-0.235213464,-0.510364844,0.00942649403,2.05505,-9.41721,6249.36,28.8612,11418.0,-0.024986,-1.0,18.0,-1305.0,78.0,,0.0,,2022-11-15 21:12:59.598021+00:00,1.1595224399454158,0.014374355431043522,2.8556523027767606,-1.870911874733271,2.1574148491507734,0.0700891664,310.93185514055574,0.22713843600166775,0.22566493618822042,2.8762903244156512,311.5864423352906,-1.911145839869275,2.1475870755517916,0.045652420879999996,0.22661872753871778,0.22808062365555365,0.6536022323149552,0.7568382402554111,-0.04276054764671455,0.1626054792161503,,,,,,,,,,,0.23378372871156042,-0.37421635083313115,0.44123996763795725,-0.0715940000000046,0.011381850705771301,0.0027779999999779648,-24.714276855404098,-102.44145842965321,105.38049101081249,False,,
2022-11-15 14:13:00.597699-07:00,35.800681,3.14,2.48,-1.91,0.28,17.2,969.02,35.08,25.0,0.0,-4.94268e-05,0.0015168,-0.00133091,32.8213529,-111.787037,386.173334,-0.208503904,-0.503266779,0.0127928544,2.05762,-8.40047,6268.81,28.8618,11472.0,-0.0347245,-1.0,19.0,-1311.0,78.0,,0.0,,2022-11-15 21:13:00.597699+00:00,1.1626413370334487,0.014425382005481498,3.129295400089468,-1.8994456554856818,2.486884778769952,0.27866909,307.3720536649707,0.22769496207445306,0.22636921575802219,3.2851295965521814,308.0469061273573,-2.002393629065749,2.5908303940491235,0.086692499,0.22863412084366855,0.22994171991351714,0.9994694911293772,0.032568946890923024,2.5242400837830363,0.22839173057064352,,,,,,,,,,,0.22265117020743333,-0.3742163508676468,0.4354439353710615,-0.07818600000001652,-0.005796032266895734,-0.006592000000011922,-24.725409413908224,-102.44145842968771,105.38310242105618,False,,
2022-11-15 14:13:01.597950-07:00,36.800932,3.61,2.87,-2.19,0.09,16.75,969.02,36.1,25.0,0.0,-0.000683933,-0.00246161,-0.00138932,32.8213527,-111.787037,386.165094,-0.185430649,-0.515733527,0.00369608408,2.0577,-9.10026,6270.47,28.8631,11434.0,0.0049652,-1.0,17.0,-1293.0,78.0,,0.0,,2022-11-15 21:13:01.597950+00:00,1.164446057977447,0.014454689883952201,3.611067313698824,-2.183161759776468,2.8763886863068,0.08861068,307.1982801083914,0.2338194792216029,0.23265795631625258,3.732960035830478,305.60436923544677,-2.165427794348725,3.0363006622864006,0.12050820740000001,0.23228996639625707,0.23347902372015633,0.9635025207421575,-0.26769925760731655,3.505166754793432,0.21629153140576063,,,,,,,,,,,0.2003860527153765,-0.3742163512267355,0.42449080985140436,-0.08642600000001721,-0.010953125519657159,-0.008240000000000691,-24.747674531400282,-102.44145843004681,105.38832857573522,False,,
2022-11-15 14:13:02.597374-07:00,37.800356,3.44,2.35,-2.51,0.16,17.72,969.02,33.96,25.0,0.0,-0.000919757,0.00112192,0.000934378,32.8213526,-111.787037,386.184137,-0.176307539,-0.526383142,0.00641303113,2.05697,-8.65377,6254.94,28.864,11431.0,-0.0190698,-1.0,16.0,-1313.0,78.0,,0.0,,2022-11-15 21:13:02.597374+00:00,1.1605628363449714,0.014391663792972985,3.4369534872635144,-2.501634912463369,2.3567927440394976,0.16093437800000002,316.7076281058453,0.241659862516195,0.24065184228662004,3.285221226417323,316.2158004913048,-2.367325277687554,2.2706496526663495,0.16004843332000002,0.2372887906560452,0.23829711727024047,0.773341260800643,0.6339899796868022,0.2551265605163513,0.1712110884409067,,,,,,,,,,,0.18925349432410327,-0.37421635276521875,0.4193504069281274,-0.06738300000000663,-0.005140402923276943,0.01904300000001058,-24.758807089791556,-102.44145843158529,105.39094332104504,False,,
2022-11-15 14:13:03.597806-07:00,38.800788,3.92,2.79,-2.74,0.16,16.08,969.02,37.67,25.0,0.0,-0.00257778,0.00106633,-0.0139769,32.8213525,-111.787037,386.15368,-0.143136729,-0.524678509,0.00466361182,2.0579,-9.18026,6250.5,28.8653,11416.0,0.0277095,-1.0,20.0,-1309.0,78.0,,0.0,,2022-11-15 21:13:03.597806+00:00,1.1671434920570545,0.01449854884631946,3.9078715330377154,-2.7319551289382944,2.7942585943670806,0.14602310000000002,314.35406508636675,0.24773994113350528,0.24692845116137796,3.73135421604407,313.04139689240634,-2.543375672000665,2.725399046535009,0.15047952800000003,0.24193355536876665,0.24278233479380823,0.38224846696089226,0.9240595811450946,-1.3084510507688734,0.2103007633600327,,,,,,,,,,,0.17812093590036515,-0.3742163513996103,0.41444534677187367,-0.09784000000001924,-0.004905060156253749,-0.030457000000012613,-24.769939648215292,-102.44145843021968,105.39355917458455,False,,
2022-11-15 14:13:04.598202-07:00,39.801184,3.79,2.85,-2.5,0.15,16.04,969.02,37.77,25.0,0.0,-0.00602439,-0.000823992,-0.0144492,32.8213525,-111.787036,386.139703,-0.126705008,-0.522472531,-0.0047448533,2.05842,-8.23942,6251.89,28.8658,11466.0,0.0865526,-1.0,20.0,-1291.0,78.0,,0.0,,2022-11-15 21:13:04.598202+00:00,1.1673049282743586,0.014501175767010323,3.7871151269043115,-2.4945153383989833,2.8494971856311184,0.1355508,311.1996485239597,0.24131474541038983,0.24056044633121992,3.717965923856294,311.6477586356051,-2.468729441886723,2.775671986143139,0.111972392,0.2399629868724229,0.24071708002173553,0.13551430029706213,-0.9907753904972598,2.8220996238737444,0.23633760828785016,,,,,,,,,,,0.17812093551005365,-0.28066226382736187,0.332412957033381,-0.11181700000003048,-0.0820323897384927,-0.01397700000001123,-24.769939648605604,-102.34790434264744,105.30262785670297,False,,
2022-11-15 14:13:05.597814-07:00,40.800796,3.29,2.54,-2.08,0.16,16.09,969.02,37.64,25.0,0.0,-0.000450285,-0.00070508,-0.00469126,32.8213524,-111.787036,386.170343,-0.0992358834,-0.523271385,-0.0123181387,2.05725,-8.47697,6233.97,28.8671,11398.0,0.052721,-1.0,15.0,-1283.0,78.0,,0.0,,2022-11-15 21:13:05.597814+00:00,1.1671031399794698,0.014497892265794846,3.2830834494303107,-2.07630270043918,2.5431484486895757,0.15530874,309.22923169389117,0.23112138100898377,0.2305031551842962,3.28113018160487,313.7188851396335,-2.2543498224452074,2.371118246529587,0.088710428,0.23470689402239975,0.23529423903073016,0.8427953685681332,-0.538234118874031,3.2117354668201537,0.18010999812711545,,,,,,,,,,,0.16698837740023226,-0.28066226549150847,0.32658295340937255,-0.08117700000002515,-0.0058300036240084285,0.03064000000000533,-24.781072206715425,-102.34790434431159,105.30524708383147,False,,
2022-11-15 14:13:06.597712-07:00,41.800694,3.27,2.01,-2.58,0.03,16.42,969.03,36.77,25.0,0.0,-0.000312286,-0.000672233,-0.00258652,32.8213523,-111.787036,386.17302900000004,-0.0769219609,-0.521794342,-0.00722809357,2.05727,-9.05274,6212.44,28.8677,11447.0,0.017551,-1.0,18.0,-1300.0,78.0,,0.0,,2022-11-15 21:13:06.597712+00:00,1.165785115379162,0.01447630484905318,3.2708879663737167,-2.5779714003077974,2.013149658560794,0.027413479999999997,322.0135597550467,0.24331814724290624,0.24289663296305097,3.305230706649509,319.6693347100599,-2.5197394976501983,2.136772435468148,0.083718756,0.24143852745284136,0.2418727067996312,0.9069173156949146,-0.4213086546615564,2.999463979278249,0.20317086532422315,,,,,,,,,,,0.1558558192085662,-0.28066226592564014,0.32103324422197776,-0.07849099999998543,-0.00554970918739478,0.002686000000039712,-24.792204764907094,-102.34790434474571,105.30786742150988,False,,
2022-11-15 14:13:07.598119-07:00,42.801101,3.03,2.3,-1.97,0.04,16.14,969.04,37.44,25.0,0.0,-0.000459999,-0.000618491,-0.00147365,32.8213522,-111.787036,386.180627,-0.0605303483,-0.523900579,-0.00175176927,2.0584,-8.24322,6196.08,28.8695,11447.0,0.126632,-1.0,18.0,-1300.0,78.0,,0.0,,2022-11-15 21:13:07.598119+00:00,1.166925505593094,0.014494702934103548,3.028401646530069,-1.9681875481857307,2.301619931238143,0.03852635,310.5347925581268,0.22861816704532328,0.2282406706523954,2.9771448011249255,312.60846233133327,-2.0144327225817613,2.1875407993930738,0.025931131999999996,0.22933444382934715,0.22969260251033,0.8024030507790911,-0.5967824931249301,2.9574675935515184,0.16880362959782608,,,,,,,,,,,0.14472326041081976,-0.2806622665759067,0.3157786091290277,-0.07089300000001231,-0.005254635092950044,0.007597999999973126,-24.803337323704838,-102.34790434539597,105.3104888711842,False,,
2022-11-15 14:13:08.597621-07:00,43.800603,2.96,2.2,-1.97,0.01,16.96,969.03,35.5,24.0,0.0,-0.00126473,-0.000951479,-0.000621255,32.821352,-111.787036,386.189813,-0.0375617743,-0.530327153,-0.00377323054,2.05693,-8.29071,6187.14,28.8707,11440.0,0.0834822,-1.0,16.0,-1286.0,78.0,,0.0,,2022-11-15 21:13:08.597621+00:00,1.163615166179532,0.014441043953877247,2.9528089184988366,-1.9695087871735752,2.2000262831185315,0.009378745,311.8355590376248,0.22856503447064985,0.22833221098474435,3.0089830922168552,310.2453470061827,-1.9430942518711833,2.2967254538131767,0.004712029600000001,0.22777460240225164,0.22801463674069447,0.6011847787278192,-0.7991100436272736,2.9335025161339106,0.16726582660468575,,,,,,,,,,,0.12245814332853133,-0.2806622676119914,0.3062144760271405,-0.06170700000001261,-0.009564133101887196,0.009185999999999694,-24.825602440787126,-102.34790434643206,105.31573510475262,False,,
2022-11-15 14:13:09.598228-07:00,44.80121,2.69,1.74,-2.05,0.01,16.89,969.04,35.64,25.0,0.0,-0.00117505,-8.99093e-05,-0.00317225,32.8213519,-111.787035,386.181146,-0.0244544561,-0.536684684,0.007568264,2.05541,-9.08376,6189.87,28.8714,11443.0,0.131826,-1.0,17.0,-1316.0,78.0,,0.0,,2022-11-15 21:13:09.598228+00:00,1.1639080110089168,0.014445651068428274,2.688192450979711,-2.0493470718511575,1.7396997535780112,0.0068277500000000005,319.671926128573,0.23028553254074774,0.23014015824657033,2.831894094921906,313.69146301484744,-1.9454645764027068,2.049818822732463,0.017189636,0.22789809416120624,0.2280428326610035,0.07629229306948149,-0.9970854958418562,2.0961798901685045,0.2267193866778774,,,,,,,,,,,0.11132558559413888,-0.18710817836438356,0.21772197045478878,-0.07037400000001526,-0.08849250557235175,-0.008667000000002645,-24.83673499852152,-102.25435025718446,105.22744676131671,False,,
2022-11-15 14:13:10.602144-07:00,45.805126,3.16,2.51,-1.92,0.01,16.36,969.03,36.92,25.0,0.0,6.79202e-05,0.000426044,-0.00170861,32.8213517,-111.787035,386.18471700000003,-0.0067380796,-0.523354034,0.00082840499,2.0569,-8.3811,6189.98,28.8725,11465.0,0.173159,-1.0,18.0,-1310.0,78.0,,0.0,,2022-11-15 21:13:10.602144+00:00,1.1660267205289765,0.014480233428199785,3.1599375656444884,-1.9192787625212864,2.5102936980572563,0.008291390000000001,307.40020610606473,0.22742744007664384,0.22738460419869364,3.101561107812176,314.06061376590276,-2.1517678655408017,2.2215586701606265,0.106183874,0.23267597198919354,0.232712398482905,0.9875297335782541,-0.15743260557731487,2.53261366334181,0.2269823856855999,,,,,,,,,,,0.08906046838354084,-0.18710817889039486,0.2072226764530747,-0.06680299999999306,-0.010499294001714066,0.0035710000000221953,-24.85900011573212,-102.25435025771047,105.23270420064527,False,,
2022-11-15 14:13:11.597962-07:00,46.800944,2.98,2.19,-2.02,-0.01,16.31,969.02,37.03,25.0,0.0,-0.000387952,4.17698e-05,-0.00259235,32.8213517,-111.787035,386.184595,0.00444075319,-0.520827247,0.00971875226,2.0558,-8.46667,6194.46,28.8741,11445.0,0.0848401,-1.0,18.0,-1311.0,78.0,,0.0,,2022-11-15 21:13:11.597962+00:00,1.1662160996602702,0.014483462620504893,2.979032104526917,-2.0201279617567254,2.189455479778178,-0.01259235,312.6965595555005,0.22955692281320939,0.22958422163091877,2.958803293002599,309.70187190360014,-1.888294976695398,2.269130843542914,0.004481327440000002,0.22693225690841654,0.2268803625217422,0.10704876168922649,0.9942537717407981,-1.6345367558265032,0.22429551710841314,,,,,,,,,,,0.0890604683818374,-0.18710817888681605,0.2072226764491112,-0.0669250000000261,-3.9635239534874245e-12,-0.00012200000003304012,-24.85900011573382,-102.25435025770689,105.23270420064219,False,,
2022-11-15 14:13:12.598139-07:00,47.801121,2.61,2.05,-1.61,-0.07,16.86,969.04,35.71,25.0,0.0,-0.000775045,0.000258269,-0.00146759,32.8213516,-111.787035,386.19176600000003,0.031003542,-0.519877983,0.0158327005,2.05712,-8.99426,6183.37,28.8752,11460.0,0.0898734,-1.0,17.0,-1314.0,78.0,,0.0,,2022-11-15 21:13:12.598139+00:00,1.164028411134189,0.014447606726113556,2.605876461911733,-1.6108507787082043,2.0483534615590115,-0.07146759000000001,308.1819531950515,0.22123285018868252,0.22143276634586484,2.6511387957978423,299.8568103327593,-1.314968445997825,2.2929137465287446,0.0169888492,0.21664087471881296,0.21643493929548777,0.31614036579186333,0.9487124269856418,-0.5226443152553454,0.19600301432406284,,,,,,,,,,,0.07792790947912163,-0.18710817930780135,0.20268751772042232,-0.059753999999998086,-0.004535158728688871,0.007171000000028016,-24.870132674636537,-102.25435025812787,105.2353345885588,False,,
2022-11-15 14:13:13.597700-07:00,48.800682,2.19,1.89,-1.1,0.1,17.71,969.05,33.8,25.0,0.0,-0.000312896,0.000150677,-0.00103474,32.8213517,-111.787035,386.18779900000004,0.0531280804,-0.526604679,0.0205404403,2.05713,-8.26526,6186.65,28.8764,11421.0,0.041774,-1.0,17.0,-1317.0,78.0,,0.0,,2022-11-15 21:13:13.597700+00:00,1.1606386686574583,0.01439244772369759,2.186455120771557,-1.10160137111724,1.8886663057037842,0.09896526,300.25370643868837,0.21320513400856853,0.21356222674097802,2.1947900666892557,298.5393960467386,-1.047489263796741,1.9245174936411913,0.1768023224,0.2129558656337942,0.21260895662521392,0.4338702477857089,0.9009753648609753,-0.10877113980318809,0.17718122990821072,,,,,,,,,,,0.08906046842657368,-0.187108178980803,0.20722267655320192,-0.06372099999998682,0.004535158832779607,-0.0039669999999887295,-24.859000115689085,-102.25435025780088,105.23270420072294,False,,
2022-11-15 14:13:14.597888-07:00,49.80087,2.24,2.01,-0.98,0.1,17.38,969.05,34.5,25.0,0.0,-0.000340924,3.77385e-05,-0.00157352,32.8213515,-111.787035,386.188898,0.0566342895,-0.527139933,0.026542076,2.05752,-8.14543,6201.14,28.877,11469.0,0.0798114,-1.0,19.0,-1310.0,78.0,,0.0,,2022-11-15 21:13:14.597888+00:00,1.1619569860796075,0.014413829748103924,2.2358569155825028,-0.9819485766162893,2.0086894085047957,0.09842648000000001,296.05171441993866,0.21172309799066164,0.21210803648585796,2.3428670230928743,300.00024987435427,-1.1580511077430713,2.0041217055844314,0.1687593362,0.21487344995392657,0.2144725537537863,0.11002273885764637,0.9939290703738684,-0.9305217019120425,0.21189232774234829,,,,,,,,,,,0.0667953511544004,-0.1871081794343,0.19867332419592185,-0.06262200000003304,-0.008549352357280077,0.0010989999999537758,-24.88126523296126,-102.25435025825438,105.23796608796054,False,,
2022-11-15 14:13:15.598163-07:00,50.801145,2.39,1.86,-1.5,0.08,17.58,969.04,34.04,25.0,0.0,-0.00132839,-0.000641614,-0.00268968,32.8213514,-111.787034,386.185358,0.0831493703,-0.526353662,0.0217196135,2.05461,-8.04673,6209.32,28.8783,11429.0,0.0444567,-1.0,17.0,-1315.0,78.0,,0.0,,2022-11-15 21:13:15.598163+00:00,1.1611456661267368,0.014400817593551173,2.3888479771353763,-1.5033393218266085,1.856492806695919,0.07731032,308.99964751057644,0.2191465903411442,0.21968465868689255,2.552364469043243,302.2839000239911,-1.3455814060078137,2.1490786238088395,0.10605487980000002,0.21739589026668443,0.2168484490979949,0.4349262260299608,-0.9004660892622973,2.14634108174676,0.18057407744388385,,,,,,,,,,,0.05566279212567186,-0.09355409096075859,0.10886098641257873,-0.06616200000001982,-0.08981233778334312,-0.003539999999986776,-24.892397791989985,-102.16079616978084,105.14970157769434,False,,
2022-11-15 14:13:16.597603-07:00,51.800585,2.94,2.67,-1.24,0.04,16.72,969.02,35.98,25.0,0.0,-4.1975e-05,3.01948e-05,-0.00193839,32.8213513,-111.787034,386.189233,0.0971919309,-0.523429578,0.0219495005,2.05791,-7.99753,6219.21,28.8791,11425.0,0.0998013,-1.0,20.0,-1292.0,78.0,,0.0,,2022-11-15 21:13:16.597603+00:00,1.1645665719379785,0.014456648005643826,2.943841177198328,-1.2444971912445761,2.667850748740041,0.03806161,295.00807807722106,0.21499147890388268,0.21565673259199497,3.040023995343963,295.34218554846376,-1.30120093223205,2.7472588316183506,-0.057699664,0.21650023074675756,0.21583390784370593,0.583958229168518,0.8117837067756216,0.5479906863521959,0.1602523550344516,,,,,,,,,,,0.04453023457737516,-0.09355409112290837,0.10361133990712358,-0.06228700000002618,-0.005249646505455147,0.0038749999999936335,-24.903530349538283,-102.16079616994298,105.1523375771885,False,,
2022-11-15 14:13:17.597894-07:00,52.800876,2.85,2.76,-0.71,-0.09,16.93,969.04,35.46,25.0,0.0,-0.000275524,-0.000353129,-0.00191148,32.8213511,-111.787034,386.19063700000004,0.114481144,-0.510706363,0.028800521,2.05592,-8.45371,6216.03,28.8804,11425.0,0.130571,-1.0,20.0,-1292.0,78.0,,0.0,,2022-11-15 21:13:17.597894+00:00,1.1637475162473323,0.014443044353765998,2.8496816365810624,-0.7158663892544007,2.758300335823347,-0.09191147999999999,284.54908095857087,0.20881915794107667,0.2096180895583812,2.976991088454679,288.28253686365275,-0.9222786878225193,2.8259288947868937,-0.0756217358,0.2117071553115235,0.210903235283488,0.7884120194500789,-0.6151475331874854,2.795333766486678,0.1539046284490028,,,,,,,,,,,0.022265117293588464,-0.09355409135413033,0.09616706014636309,-0.060882999999989806,-0.007444279760760494,0.0014040000000363762,-24.92579546682207,-102.16079617017421,105.15761291403362,False,,
2022-11-15 14:13:18.598242-07:00,53.801224,3.04,2.88,-0.96,-0.12,16.7,969.03,35.95,25.0,0.0,-0.000340047,-0.000498943,-0.00245611,32.821351,-111.787034,386.18847,0.13010182,-0.519094959,0.0246889401,2.05417,-8.21513,6202.32,28.8815,11400.0,0.0552638,-1.0,18.0,-1298.0,78.0,,0.0,,2022-11-15 21:13:18.598242+00:00,1.1646589472497637,0.014457999812884315,3.035623111540073,-0.9670360932032817,2.8774726531729833,-0.12245610999999999,288.5760213148536,0.21126478075607608,0.21217243209740838,2.971884654444434,283.32861320327856,-0.686928257440885,2.8842643272013477,0.107709944,0.20968712828132902,0.2087819421977634,0.8263363334766561,-0.5631769384273086,2.77023456186184,0.15775222005721753,,,,,,,,,,,0.011132558288934993,-0.09355409142766133,0.09421412779892276,-0.06305000000003247,-0.001952932347440331,-0.0021670000000426626,-24.936928025826724,-102.16079617024774,105.16025225104858,False,,
2022-11-15 14:13:19.598048-07:00,54.80103,2.92,2.77,-0.94,0.03,16.59,969.03,36.23,25.0,0.0,-0.00102982,-0.000196818,-0.00415597,32.8213508,-111.787034,386.185632,0.141008865,-0.525290315,0.0273104974,2.05877,-7.7393,6199.07,28.8822,11466.0,0.177284,-1.0,22.0,-1291.0,78.0,,0.0,,2022-11-15 21:13:19.598048+00:00,1.165101110859198,0.014465185517318851,2.9242389400863598,-0.947011125438691,2.7666483887571873,0.025844029999999997,288.8958414436799,0.21100471140783622,0.21198591475478296,2.6053902704304823,288.46391084620484,-0.8041398828963187,2.471278853206978,0.044557022,0.21058547723823912,0.209602071995472,0.18772119336970655,-0.9822223544390818,1.2537555845501234,0.2023519719166292,,,,,,,,,,,-0.01113255899213597,-0.09355409159666529,0.09421412804983458,-0.06588800000002948,2.509118190996418e-10,-0.0028379999999970096,-24.959193143107793,-102.16079617041673,105.165534261603,False,,
2022-11-15 14:13:20.597770-07:00,55.800752,2.02,0.83,-1.84,-0.13,17.74,969.06,33.7,24.0,0.0,-0.00100835,-9.84347e-05,-0.00189488,32.8213507,-111.787034,386.19130900000005,0.155880352,-0.515576442,0.031575716,2.05503,-8.07245,6188.91,28.8838,11424.0,0.114605,-1.0,17.0,-1292.0,78.0,,0.0,,2022-11-15 21:13:20.597770+00:00,1.1605309457815343,0.014390552725114622,2.01821702253539,-1.8423497413269414,0.8239826337272937,-0.13189488,335.90363407373707,0.2253717053284983,0.22627941499050908,1.924743672372132,325.1952587142734,-1.5550336619414329,1.0849299407688457,0.043777584,0.22103154450561932,0.22006185618622398,0.09715773790756312,-0.9952689957818868,1.6530861299607673,0.217994539659471,,,,,,,,,,,-0.022265116587779965,-0.09355409178524526,0.09616706040235154,-0.06021099999998114,0.0019529323525169645,0.005677000000048338,-24.970325700703437,-102.16079617060532,105.16817693490356,False,,
2022-11-15 14:13:21.598178-07:00,56.80116,2.19,1.5,-1.6,-0.04,17.93,969.05,33.24,25.0,0.0,-0.000894224,-0.000440152,-0.00280015,32.8213505,-111.787034,386.185968,0.177912191,-0.513307733,0.0356701216,2.05669,-8.02037,6197.78,28.8851,11441.0,0.109664,-1.0,20.0,-1299.0,78.0,,0.0,,2022-11-15 21:13:21.598178+00:00,1.1597614510296423,0.014378228493700953,2.1928839001551896,-1.605090161207158,1.4941303068861884,-0.04280015,317.05045659012836,0.22066113165954054,0.22177841376997184,2.24227009681639,316.9481950110793,-1.6350360772318928,1.5303527421079224,0.024956845999999998,0.222348103702502,0.22122920624105236,0.44161832284420866,-0.8972030187913259,2.1427911156549184,0.18328717396668026,,,,,,,,,,,-0.04453023384642694,-0.09355409191753741,0.10361134031047232,-0.06555200000002515,0.007444279908120785,-0.005341000000044005,-24.992590817962085,-102.16079617073761,105.17346561767887,False,,
2022-11-15 14:13:22.598256-07:00,57.801238,2.44,1.41,-1.98,-0.0,16.79,969.04,35.74,24.0,0.0,-0.000368478,0.000249551,-0.000577853,32.8213504,-111.787034,386.188684,0.192050428,-0.517426529,0.0300109988,2.0577,-8.11023,6211.59,28.8858,11458.0,0.155635,-1.0,18.0,-1289.0,78.0,,0.0,,2022-11-15 21:13:22.598256+00:00,1.1643094416535358,0.014452172000959102,2.4303241371638697,-1.984465513538306,1.402986827186362,-0.000577853,324.74027236825765,0.22825107385810503,0.2293815286675729,2.3465379968459974,320.39596000163993,-1.8069493104950367,1.4893877978564576,0.0748096202,0.22578689329473028,0.22461535092300008,0.5607509079677853,0.8279845525209419,-0.6609505563141087,0.16956568951018913,,,,,,,,,,,-0.055662792862850904,-0.09355409206268799,0.10886098773650064,-0.06283600000000433,0.00524964742602832,0.002716000000020813,-25.00372337697851,-102.16079617088276,105.17611162702829,False,,
2022-11-15 14:13:23.597425-07:00,58.800407,2.54,2.15,-1.33,0.19,16.5,969.05,36.44,24.0,0.0,-0.000815238,0.000195164,-0.00198652,32.8213502,-111.787033,386.18813500000005,0.196943629,-0.517218063,0.0348869609,2.05777,-7.54699,6208.52,28.8872,11433.0,0.201179,-1.0,18.0,-1299.0,78.0,,0.0,,2022-11-15 21:13:23.597425+00:00,1.1654871851051556,0.014471162444325338,2.527326776684657,-1.3371871911404605,2.1446004411071877,0.18801348,301.9440937006492,0.21605015176025247,0.2173625126947305,2.497822758876414,305.0845798266354,-1.4189817900940127,2.0443676568975486,0.16369143,0.21869391086490847,0.21738566979488802,0.23281669559623033,0.9725206353860324,-0.9040261496407437,0.20594401812472096,,,,,,,,,,,-0.07792791014291481,0.0,0.07792791014291481,-0.06338499999998248,-0.030933077593585837,-0.0005489999999781503,-25.025988494258574,-102.06724207882007,105.09054194213303,False,,
2022-11-15 14:13:24.598016-07:00,59.800998,2.66,2.53,-0.83,-0.03,16.86,969.03,35.53,26.0,0.0,-0.000746812,-8.59555e-05,-0.00121068,32.8213502,-111.787033,386.190576,0.221410792,-0.51417972,0.042139176,2.05606,-8.02346,6204.79,28.8884,11470.0,0.146049,-1.0,22.0,-1297.0,78.0,,0.0,,2022-11-15 21:13:24.598016+00:00,1.1640163989529464,0.014447560698120263,2.661986266129387,-0.8398565326240438,2.526026897257865,-0.031210679999999998,288.39099792148085,0.2095862970328415,0.21112124777814004,2.400003992910606,294.6480652037977,-0.974200062991439,2.183965088365034,-0.035500336,0.21264671722479242,0.2111382866231209,0.11434170731691987,-0.9934414798909152,1.217529049212244,0.20839640452293495,,,,,,,,,,,-0.07792791017273726,0.0,0.07792791017273726,-0.060944000000006326,2.982245006499795e-11,0.0024409999999761567,-25.025988494288395,-102.06724207882007,105.09054194214013,False,,
2022-11-15 14:13:25.602988-07:00,60.80597,1.81,1.59,-0.87,-0.08,17.85,969.05,33.41,25.0,0.0,-3.93271e-05,0.000257914,-0.00208177,32.82135,-111.787033,386.188593,0.233277781,-0.515523506,0.0419825085,2.05754,-7.30331,6197.88,28.8898,11415.0,0.175061,-1.0,15.0,-1294.0,78.0,,0.0,,2022-11-15 21:13:25.602988+00:00,1.160080285792812,0.014383395847996914,1.8122977629573482,-0.8762084871103183,1.5864053292699365,-0.08208177,298.9128894445221,0.2099570066987078,0.211532969083174,2.1622977506070065,295.5167046240669,-0.9118816034094543,1.9500167594837865,-0.059822158000000014,0.2119972621138066,0.2104089039643371,0.9885735758178168,0.15073912960732944,1.7902788016246813,0.20723535629901882,,,,,,,,,,,-0.10019302672680967,0.0,0.10019302672680967,-0.06292700000000195,0.022265116554072414,-0.001982999999995627,-25.04825361084247,-102.06724207882007,105.09584632386544,False,,
2022-11-15 14:13:26.622794-07:00,61.825776,2.52,2.39,-0.8,0.01,16.7,969.02,35.95,26.0,0.0,-7.56334e-05,-9.78528e-05,-0.00131232,32.8213499,-111.787033,386.19903000000005,0.24644013,-0.513608419,0.042918098,2.05651,-8.26206,6205.72,28.8903,11440.0,0.169667,-1.0,17.0,-1295.0,78.0,,0.0,,2022-11-15 21:13:26.622794+00:00,1.164646928437681,0.014457953716811082,2.5202971226300974,-0.8103702691242002,2.3864613161032215,0.00868768,288.75593747241265,0.20921202774528386,0.21091572857887816,2.3061747868083065,288.43769628903857,-0.7274432935638622,2.186516438993743,0.06491296960000001,0.2101959854894037,0.2085064113736566,0.7912072510496472,-0.6115481059462621,2.1748542294333935,0.15295523897507324,,,,,,,,,,,-0.11132558519811936,0.0,0.11132558519811936,-0.0524899999999775,0.011132558471309686,0.010437000000024454,-25.05938616931378,-102.06724207882007,105.09850018320553,False,,
2022-11-15 14:13:27.646678-07:00,62.84966,2.41,2.23,-0.91,0.03,16.77,969.04,35.69,26.0,0.0,-0.000155943,-0.000181388,-0.0014124,32.8213497,-111.787033,386.20058600000004,0.262490581,-0.507658735,0.0376767669,2.05451,-6.54679,6205.46,28.8919,11462.0,0.0103197,-1.0,17.0,-1278.0,78.0,,0.0,,2022-11-15 21:13:27.646678+00:00,1.1643897610134732,0.014453476898690277,2.408451720072341,-0.9203881570077731,2.225651663751373,0.028587599999999998,292.46687940699184,0.21029198236511915,0.21209302701308083,2.3424892175097156,290.63845452565135,-0.827962023637061,2.189873406391417,0.04859139939999999,0.21120623210791506,0.20941374006889385,0.7582899264871747,-0.6519174697675122,2.2003218518618284,0.1505647503995061,,,,,,,,,,,-0.1335907025535937,0.0,0.1335907025535937,-0.050933999999983826,0.022265117355474345,0.0015559999999936736,-25.081651286669253,-102.06724207882007,105.1038112384253,False,,
2022-11-15 14:13:28.670498-07:00,63.87348,2.22,1.93,-1.1,0.07,16.86,969.03,35.44,26.0,0.0,4.15727e-05,0.000377823,-0.000440184,32.8213496,-111.787033,386.197717,0.283035061,-0.510127671,0.0363045189,2.05471,-7.5718,6190.21,28.8928,11424.0,-0.11773,-1.0,15.0,-1287.0,78.0,,0.0,,2022-11-15 21:13:28.670498+00:00,1.1640163989529464,0.014447560698120263,2.2213108194460416,-1.1091427117154202,1.9245841633029743,0.06955981600000001,299.9549560572289,0.21250811938090777,0.2144126269843776,2.228456300074831,290.43270161379075,-0.7722082829409009,2.080300318736721,0.09496100940000002,0.21087018700043636,0.2089407606655357,0.9940008756005471,-0.10937211392921771,2.1522783906352956,0.20836269441393077,,,,,,,,,,,-0.14472326150673379,0.0,0.14472326150673379,-0.053803000000016254,0.011132558953140081,-0.002869000000032429,-25.092783845622392,-102.06724207882007,105.10646843415293,False,,
2022-11-15 14:13:35.597827-07:00,70.800809,3.36,3.36,-0.17,0.03,17.38,969.02,34.3,26.0,0.0,-0.00107196,-0.000410035,-0.00275746,32.8213489,-111.787032,386.194452,0.380001278,-0.523280181,0.0484839702,2.0569,-8.16493,6238.61,28.8994,11410.0,-0.0812909,-1.0,13.0,-1292.0,78.0,,0.0,,2022-11-15 21:13:35.597827+00:00,1.161921014035252,0.014413692328353794,3.363251106471391,-0.1926905715788775,3.357726663801811,0.02724254,273.2844426582198,0.20504302479577052,0.20766077104229536,3.3290711553105368,273.6025491431907,-0.20229154963548623,3.3161176833751655,-0.007786914000000001,0.20792571935200987,0.20533383930868157,0.3572651270473801,-0.9340030133761986,1.3736741223951774,0.18108072773743106,,,,,,,,,,,-0.22265117094459058,0.09355409134657648,0.24150758151801544,-0.05706800000001522,0.09678432001128165,-0.003264999999998963,-25.17071175506025,-101.9736879874735,105.03426951249256,False,,
2022-11-15 14:13:36.597387-07:00,71.800369,3.07,2.88,-1.06,-0.2,17.59,969.01,33.88,26.0,0.0,-0.00066466,-0.00058339,-0.00205876,32.8213488,-111.787032,386.19072900000003,0.385309528,-0.526110602,0.0383428306,2.05325,-7.74895,6238.68,28.9009,11410.0,-0.120585,-1.0,13.0,-1292.0,78.0,,0.0,,2022-11-15 21:13:36.597387+00:00,1.1610697824688025,0.014400032741027182,3.068459101821089,-1.0799270444176472,2.8721418555294322,-0.20205876,290.60629044395205,0.21168089684455843,0.2143605238444422,3.239461608659673,281.5445115548052,-0.6398240828590882,3.16103204744588,-0.066325774,0.21036929949543975,0.2076677972850784,0.6596645880732289,-0.7515601314879451,2.566087175307392,0.14879334780921152,,,,,,,,,,,-0.23378372910751105,0.0935540913972854,0.25180786328585086,-0.06079099999999471,0.010300281767835429,-0.0037229999999794927,-25.18184431322317,-101.97368798742279,105.03693790648919,False,,
