Timestamp,Seconds,S,Um,Vm,Wm,T,P,H,MD,Sts,Vx,Vy,Vz,Lat,Lon,Alt,Yaw,Roll,Pitch,CH4,C2H6,H20,T_a,Batt,R,C2C1,Power,Current,SOC,Lat_a,Lon_a,TS,Timestamp_UTC,Rho,Rho_err,Sc,V,U,W,WD,V_err,U_err,Sc_avg,WD_avg,V_avg,U_avg,W_avg,U_err_avg,V_err_avg,Nx,Ny,cross_wind,cross_wind_err,CH4_sub,CH4_res,CH4_adj,CH4_adj_err,BG_Samples_CH4,C2H6_sub,C2H6_res,C2H6_adj,C2H6_adj_err,BG_Samples_C2H6
2022-11-15 14:12:24.797018-07:00,0.0,2.01,1.12,-1.67,0.02,17.14,969.06,35.54,26.0,0.0,-0.000545984,-0.000352492,-0.00323383,32.8213565,-111.787043,386.18316000000004,-1.33054807,-0.51217585,0.0309794284,,,,,,,,,,,,,,2022-11-15 21:12:24.797018+00:00,1.1629296455902391,0.014429466442942858,2.0107695231119878,-1.6438954114268063,1.1579300287003105,0.01676617,324.83983023385167,0.22584434630721345,0.2177061220793267,,,,,,,,0.5423922290042512,-0.8401253894007726,,,,,,,,,,,,
2022-11-15 14:12:24.996448-07:00,0.19943,2.26,1.06,-1.99,0.02,17.42,969.05,34.87,27.0,0.0,-0.000563078,0.000426191,-0.00210705,32.8213564,-111.787043,386.186914,-1.32229989,-0.509743907,0.0155328742,,,,,,,,,,,,,,2022-11-15 21:12:24.996448+00:00,1.1617970305458523,0.014411234581118286,2.2540586588237272,-1.964582854592159,1.1050767597143394,0.01789295,330.6422707384301,0.23192470783256092,0.22429339699032494,,,,,,,,0.6035128270399907,0.7973532890746725,,,,,,,,,,,,
2022-11-15 14:12:25.197077-07:00,0.400059,2.42,0.68,-2.33,0.04,16.88,969.06,36.04,25.0,0.0,-0.000694247,6.86827e-06,-0.00115846,32.8213563,-111.787043,386.188165,-1.3152518,-0.511433677,0.0222333402,,,,,,,,,,,,,,2022-11-15 21:12:25.197077+00:00,1.1639721643222787,0.014446394934989896,2.4269838303417535,-2.3137709058085396,0.7326081545917026,0.03884154,342.4306759909505,0.2393431571587983,0.232482528579352,,,,,,,,0.00989263750889607,0.9999510666643231,,,,,,,,,,,,
2022-11-15 14:12:25.396904-07:00,0.599886,2.36,0.64,-2.27,0.04,16.83,969.07,36.26,24.0,0.0,-0.000465056,0.000449728,-0.000999271,32.8213563,-111.787043,386.18624300000005,-1.30696814,-0.50690403,0.0141733497,,,,,,,,,,,,,,2022-11-15 21:12:25.396904+00:00,1.1641848764434537,0.014449701041310464,2.3579289726505293,-2.2543620068586847,0.6911446896973622,0.039000729,342.95545250185137,0.23794743390681783,0.23105454136324502,,,,,,,,0.6951610137157707,0.7188540637776643,,,,,,,,,,,,
2022-11-15 14:12:25.596500-07:00,0.799482,2.23,0.69,-2.12,-0.03,16.95,969.06,36.08,25.0,0.0,-0.000502896,0.000343208,-7.80415e-05,32.8213562,-111.787043,386.19347500000003,-1.29727129,-0.504966596,0.0176375447,2.05947,-9.16662,6225.92,28.8286,11461.0,0.115642,-1.0,20.0,-1317.0,78.0,,0.0,,2022-11-15 21:12:25.596500+00:00,1.1636913023729423,0.014441833331672356,2.228971550231581,-2.1034920046121783,0.7373164573467865,-0.0300780415,340.6834050491326,0.23460196937694672,0.2274963583519574,2.383004419627521,338.24913273195557,-2.2043564749588445,0.8835810652646231,0.0213801821,0.22989331333261126,0.23690761935178273,0.5637004524540286,0.8259792975027422,-1.322677766362647,0.17736988055347894,,,,,,,,,,
2022-11-15 14:12:25.797300-07:00,1.000282,2.43,1.04,-2.19,0.07,16.66,969.06,36.7,26.0,0.0,-0.000813722,0.000383195,0.000734603,32.8213562,-111.787043,386.192896,-1.28579859,-0.50348557,0.0195984928,,,,,,,,,,,,,,2022-11-15 21:12:25.797300+00:00,1.1648557565935975,0.01446075030628184,2.4236890539937623,-2.165728250493481,1.088066990338198,0.07073460300000001,333.3249384704365,0.23610799441207236,0.2289877424214454,,,,,,,,0.42604005382931487,0.9047043011576293,,,,,,,,,,,,
2022-11-15 14:12:25.996529-07:00,1.199511,2.47,1.12,-2.21,-0.01,17.03,969.06,35.88,27.0,0.0,-0.000260789,3.16583e-05,-0.00159792,32.8213562,-111.787043,386.18609000000004,-1.27846645,-0.501326555,0.0187322827,,,,,,,,,,,,,,2022-11-15 21:12:25.996529+00:00,1.163370483211767,0.014436623620478109,2.47744869091998,-2.184429207021339,1.1687690343490655,-0.011597920000000001,331.85119164740667,0.23653754190427861,0.2294453959470565,,,,,,,,0.12050960513717512,0.99271216123793,,,,,,,,,,,,
2022-11-15 14:12:26.197012-07:00,1.399994,2.42,1.18,-2.11,-0.02,16.87,969.06,36.16,26.0,0.0,-0.000530683,0.000690226,-0.00148507,32.8213561,-111.787042,386.182886,-1.26994204,-0.505474001,0.0239953574,,,,,,,,,,,,,,2022-11-15 21:12:26.197012+00:00,1.164012298525586,0.014447046829423632,2.4166760403503647,-2.082639333572764,1.2259431023742948,-0.021485070000000002,329.5168575058523,0.23432799203909846,0.22710804086574068,,,,,,,,0.7927683272178787,0.6095230753303491,,,,,,,,,,,,
2022-11-15 14:12:26.396557-07:00,1.599539,2.34,1.35,-1.92,0.04,16.64,969.05,36.75,24.0,0.0,-0.000526404,0.000294405,-0.00131023,32.8213561,-111.787042,386.18609000000004,-1.26192386,-0.507868755,0.0210885614,,,,,,,,,,,,,,2022-11-15 21:12:26.396557+00:00,1.1649241283885172,0.014462010641465368,2.34655538302012,-1.8895089521692474,1.3914302301060495,0.03868977,323.63215073248847,0.23037269773851102,0.22286090611772064,,,,,,,,0.4881221023878869,0.8727753509124953,,,,,,,,,,,,
2022-11-15 14:12:26.596685-07:00,1.799667,2.34,1.75,-1.54,0.24,16.45,969.06,37.14,24.0,0.0,-0.000639661,0.000450949,-0.000812875,32.821356,-111.787042,386.186578,-1.2517211,-0.510183707,0.0323645896,2.0572,-9.83381,6232.36,28.8294,11444.0,0.150619,-1.0,18.0,-1306.0,78.0,,0.0,,2022-11-15 21:12:26.596685+00:00,1.1657004379088072,0.014474479975599377,2.3303358518019865,-1.5009529585636214,1.7825839106120085,0.239187125,310.0977040960834,0.22342157707830265,0.2153795670924746,2.3439982820805416,317.31250477516255,-1.709650445510175,1.5712801840623354,0.17522557674,0.21949555397941561,0.2272135115075186,0.5761915267717207,0.8173147034505579,-0.4919641186352357,0.16836650172972328,,,,,,,,,,
2022-11-15 14:12:26.796822-07:00,1.999804,2.35,1.7,-1.59,0.31,16.38,969.05,37.26,26.0,0.0,-0.000782922,0.000202547,-0.000274626,32.8213559,-111.787042,386.187341,-1.24290535,-0.510009831,0.0294503496,,,,,,,,,,,,,,2022-11-15 21:12:26.796822+00:00,1.1659702385442212,0.014479016130955546,2.326962898549155,-1.5525485069574478,1.7333059351333464,0.309725374,311.85128790035117,0.22423426848951916,0.21631622851633045,,,,,,,,0.2504606762858907,0.9681267735345481,,,,,,,,,,,,
2022-11-15 14:12:26.996718-07:00,2.1997,2.31,1.69,-1.56,0.31,16.36,969.05,37.4,26.0,0.0,-0.000114344,0.000585709,1.06847e-05,32.8213558,-111.787042,386.18874500000004,-1.23581839,-0.508950539,0.0394156174,,,,,,,,,,,,,,2022-11-15 21:12:26.996718+00:00,1.1660507863828826,0.014480325912957517,2.2994612366810814,-1.522602476287796,1.7231377420859768,0.3100106847,311.4645236410377,0.22371102219216168,0.21581302730481172,,,,,,,,0.9814719040329394,0.19160611053397197,,,,,,,,,,,,
2022-11-15 14:12:27.196406-07:00,2.399388,2.24,1.63,-1.5,0.33,16.36,969.05,37.45,25.0,0.0,-0.000530535,0.000302092,0.000471348,32.8213558,-111.787042,386.18874500000004,-1.22825305,-0.509047663,0.0326325045,,,,,,,,,,,,,,2022-11-15 21:12:27.196406+00:00,1.1660507863828826,0.014480325912957517,2.2145546169725194,-1.4644135293460898,1.6612480749793006,0.330471348,311.39662975233597,0.22270686199707382,0.21482327668076143,,,,,,,,0.4948160969347679,0.868997715885515,,,,,,,,,,,,
2022-11-15 14:12:27.397108-07:00,2.60009,2.11,1.52,-1.44,0.29,16.38,969.06,37.35,24.0,0.0,-0.000348668,0.000593721,0.000245974,32.8213558,-111.787042,386.19036300000005,-1.21892252,-0.508585025,0.035449798,,,,,,,,,,,,,,2022-11-15 21:12:27.397108+00:00,1.1659822706399698,0.01447906236523467,2.093143155079818,-1.4067460630000057,1.5499399284783517,0.29024597399999996,312.22730156020975,0.22173163723771527,0.21389270614172157,,,,,,,,0.8623018967933286,0.5063945485356528,,,,,,,,,,,,
2022-11-15 14:12:27.596858-07:00,2.79984,2.12,1.59,-1.39,0.21,16.43,969.05,37.13,24.0,0.0,-0.000317753,-7.67752e-05,1.83692e-05,32.8213557,-111.787042,386.19002700000004,-1.20982771,-0.508184611,0.030963867,2.05829,-8.93313,6238.67,28.8301,11423.0,0.101561,-1.0,20.0,-1311.0,78.0,,0.0,,2022-11-15 21:12:27.596858+00:00,1.1657689176245194,0.014475742719062101,2.1117242857799328,-1.3561957981872996,1.6186761307104889,0.2100183692,309.95770883528945,0.22094130589053065,0.2130936670239808,2.212832599030185,310.54467094273286,-1.4365544549696925,1.6822716557699597,0.26807323016,0.2144158328600258,0.22222683311692593,0.23486079463456902,-0.9720290155873017,1.7914722705670878,0.21030172478702092,,,,,,,,,,
2022-11-15 14:12:27.796967-07:00,2.999949,2.26,1.67,-1.51,0.24,16.43,969.05,37.17,26.0,0.0,-0.000715854,0.000124774,-6.06004e-05,32.8213557,-111.787042,386.188196,-1.20459331,-0.51349683,0.0288667419,,,,,,,,,,,,,,2022-11-15 21:12:27.796967+00:00,1.1657689176245194,0.014475742719062101,2.250821335123659,-1.4744338250965792,1.7006591598727008,0.2399393996,310.9245635277176,0.22280500246291754,0.21506830004180663,,,,,,,,0.17171204559749323,0.9851471836211706,,,,,,,,,,,,
2022-11-15 14:12:27.996409-07:00,3.199391,2.41,1.85,-1.52,0.27,16.53,969.07,36.96,26.0,0.0,-0.000532506,1.53758e-05,-0.00030894,32.8213557,-111.787042,386.18410600000004,-1.19770765,-0.516012916,0.0318746569,,,,,,,,,,,,,,2022-11-15 21:12:27.996409+00:00,1.1653905360089503,0.014469292702495421,2.393919602194998,-1.480983059218488,1.8808349848089563,0.26969106000000004,308.2171510381118,0.2229493579963924,0.21520121441185847,,,,,,,,0.028862387198453524,0.9995833945225413,,,,,,,,,,,,
2022-11-15 14:12:28.196630-07:00,3.399612,2.14,1.51,-1.5,0.27,16.6,969.05,36.84,25.0,0.0,-0.000846698,0.000428735,-0.00115165,32.8213556,-111.787042,386.178644,-1.19181535,-0.51600513,0.0326298732,,,,,,,,,,,,,,2022-11-15 21:12:28.196630+00:00,1.1650849462146966,0.01446462425316341,2.1274944411527326,-1.467839363437512,1.5400260388315312,0.26884835,313.6252050893032,0.2226087672979724,0.21500213916209468,,,,,,,,0.451747914644581,0.8921456280306889,,,,,,,,,,,,
2022-11-15 14:12:28.396891-07:00,3.599873,2.26,1.62,-1.55,0.23,16.52,969.05,37.03,25.0,0.0,-0.00079277,0.000625481,-0.00116061,32.8213556,-111.787042,386.184259,-1.18334277,-0.516061785,0.0302142937,,,,,,,,,,,,,,2022-11-15 21:12:28.396891+00:00,1.165406715109291,0.014469854330192324,2.241067940434367,-1.515588100007153,1.6508719589233571,0.22883939,312.5535825570538,0.22340548793105636,0.21585984033685854,,,,,,,,0.6194063053960847,0.7850705884413021,,,,,,,,,,,,
2022-11-15 14:12:28.597297-07:00,3.800279,2.26,1.73,-1.45,0.18,16.59,969.06,36.9,24.0,0.0,-0.000600382,0.000683391,0.000686329,32.8213555,-111.787042,386.189569,-1.17974954,-0.517003323,0.0303322279,2.05907,-9.22785,6241.68,28.8308,11485.0,-0.00235977,-1.0,19.0,-1303.0,78.0,,0.0,,2022-11-15 21:12:28.597297+00:00,1.165137180984298,0.014465323948836845,2.2564031927041057,-1.413390170257858,1.7588870329454775,0.180686329,308.7843404368892,0.22178058742382267,0.2141313487857099,2.2055626498031953,310.30154649034915,-1.4251197435810716,1.680905118482783,0.22345466286000004,0.2143633414845351,0.22196052404334554,0.7512595892866749,0.6600068404985031,0.32220730964826527,0.15487374510996235,,,,,,,,,,
2022-11-15 14:12:28.797250-07:00,4.000232,2.12,1.65,-1.32,0.2,16.53,969.06,37.09,26.0,0.0,-0.000844905,0.000580687,-1.53047e-05,32.8213554,-111.787042,386.188196,-1.16924212,-0.518634814,0.0337825278,,,,,,,,,,,,,,2022-11-15 21:12:28.797250+00:00,1.165378510143574,0.014469246532275585,2.112007182157594,-1.2854750462732911,1.6757470700836512,0.19998469530000001,307.49201716189754,0.2197962220912849,0.21213847272914413,,,,,,,,0.566406158535269,0.8241262424976648,,,,,,,,,,,,
2022-11-15 14:12:28.996879-07:00,4.199861,2.3,1.75,-1.48,0.24,16.64,969.06,36.64,26.0,0.0,-0.000702239,0.000848769,-0.00108545,32.8213554,-111.787042,386.18575400000003,-1.16367406,-0.51795925,0.0274231856,,,,,,,,,,,,,,2022-11-15 21:12:28.996879+00:00,1.1649361496890525,0.014462056764212706,2.2908404925671757,-1.443306037929545,1.7789934916298988,0.23891455,309.0525872066021,0.22221155547259136,0.21468490640886817,,,,,,,,0.7704792607140856,0.6374650647756912,,,,,,,,,,,,
2022-11-15 14:12:29.197275-07:00,4.400257,2.27,1.56,-1.63,0.21,16.63,969.06,36.82,25.0,0.0,-0.000322917,0.000565001,-0.000987392,32.8213553,-111.787042,386.186975,-1.15383011,-0.519465017,0.0309652544,,,,,,,,,,,,,,2022-11-15 21:12:29.197275+00:00,1.1649763503982005,0.014462710082287802,2.2555854885057927,-1.5976911250817065,1.5921837094987081,0.209012608,315.0989228015992,0.22468959143070805,0.2174291640748442,,,,,,,,0.8682038959525401,0.4962076128525548,,,,,,,,,,,,
2022-11-15 14:12:29.397084-07:00,4.600066,2.2,1.52,-1.58,0.26,16.68,969.05,36.75,25.0,0.0,-0.000822044,-9.1729e-05,-0.000719638,32.8213553,-111.787042,386.186975,-1.14653552,-0.517361572,0.0255556472,,,,,,,,,,,,,,2022-11-15 21:12:29.397084+00:00,1.1647633549518972,0.014459397980304139,2.1919248205077966,-1.549360981355493,1.5504886224062657,0.259280362,314.97915735328365,0.22381181800882666,0.21656442408857282,,,,,,,,0.11089819352372073,-0.9938317718171298,,,,,,,,,,,,
2022-11-15 14:12:29.598257-07:00,4.801239,2.1,1.59,-1.36,0.23,16.67,969.05,36.73,25.0,0.0,-0.00101189,-4.37429e-05,-0.000525998,32.8213552,-111.787042,386.185602,-1.13903291,-0.515937058,0.0277806083,2.05936,-9.09799,6230.44,28.8315,11418.0,0.00544092,-1.0,19.0,-1303.0,78.0,,0.0,,2022-11-15 21:12:29.598257+00:00,1.164803544150536,0.014460051056509252,2.0915413768088595,-1.3281680907746605,1.6157087774569692,0.229474002,309.42137868306884,0.22029564301017382,0.21288451032121067,2.1189389722324696,311.24198887989974,-1.398543396486137,1.5873842335437203,0.2270543038,0.2141321206790236,0.22146559601170526,0.04318857304091172,-0.9990669382772557,1.4657953290896735,0.22105286751831904,,,,,,,,,,
2022-11-15 14:12:29.797277-07:00,5.000259,2.08,1.57,-1.35,0.23,16.65,969.07,36.72,26.0,0.0,-0.000784774,0.00043172,-0.000814943,32.8213552,-111.787041,386.186487,-1.13046207,-0.513303148,0.0246938794,,,,,,,,,,,,,,2022-11-15 21:12:29.797277+00:00,1.1649079726400025,0.014461449624340235,2.0697238017318624,-1.3183309837121908,1.5955438047386357,0.229185057,309.56549568084176,0.22012386886298885,0.21276706620454894,,,,,,,,0.4819995788145189,0.8761714478471816,,,,,,,,,,,,
2022-11-15 14:12:29.996820-07:00,5.199802,2.0,1.56,-1.23,0.21,16.67,969.06,36.77,26.0,0.0,-0.000810917,2.34439e-05,-0.00168051,32.8213552,-111.787041,386.186487,-1.12301397,-0.511337282,0.0293895616,,,,,,,,,,,,,,2022-11-15 21:12:29.996820+00:00,1.1648155642067162,0.014460097166410276,1.9859193736080385,-1.1991658015066353,1.582996253618022,0.20831949,307.1449898807052,0.21840705874582894,0.21101543870594122,,,,,,,,0.028898282843895843,0.9995823574116713,,,,,,,,,,,,
2022-11-15 14:12:30.197150-07:00,5.400132,1.88,1.57,-1.02,0.21,16.99,969.06,35.99,25.0,0.0,-0.000471901,0.000471561,-0.00139592,32.8213552,-111.787041,386.186487,-1.11666835,-0.506961513,0.0287456961,,,,,,,,,,,,,,2022-11-15 21:12:30.197150+00:00,1.1635308706775713,0.01443922800300689,1.8715948415686001,-0.9887380859104994,1.5891080040249737,0.20860408,301.8897461847045,0.21577397767716228,0.2082968337708232,,,,,,,,0.7068519117694583,0.7073615587716525,,,,,,,,,,,,
2022-11-15 14:12:30.396691-07:00,5.599673,1.79,1.5,-0.93,0.31,17.28,969.07,35.33,25.0,0.0,-0.000434078,-0.000436727,-0.000618298,32.8213551,-111.787041,386.187402,-1.10872351,-0.504845329,0.033624583,,,,,,,,,,,,,,2022-11-15 21:12:30.396691+00:00,1.1623810572980502,0.014420413484359797,1.7647576533047489,-0.9012381080762699,1.5172802797930216,0.309381702,300.7095754929433,0.2147702764784425,0.20731841256486538,,,,,,,,0.7092545274442261,-0.7049524915197247,,,,,,,,,,,,
2022-11-15 14:12:30.598115-07:00,5.801097,1.51,1.13,-0.98,0.15,17.43,969.07,35.0,25.0,0.0,-0.000531003,0.000399785,-0.000466103,32.8213551,-111.787041,386.18963,-1.10011076,-0.505663655,0.034454818,2.05794,-8.95586,6214.93,28.8327,11418.0,-0.02073,-1.0,19.0,-1303.0,78.0,,0.0,,2022-11-15 21:12:30.598115+00:00,1.1617810257797256,0.014410677508753732,1.4950968286031618,-0.9577242825663222,1.1480760974264972,0.149533897,309.83484050605796,0.21527770087490047,0.2079887915789959,1.7015063970538589,304.01592487417184,-0.9446967200377838,1.411983174559595,0.21549288500000002,0.20784124057802975,0.21519727699746158,0.601474829139421,0.7988917510599945,0.09456192177435108,0.15658013196790524,,,,,,,,,,
2022-11-15 14:12:30.796440-07:00,5.999422,1.64,1.31,-0.97,0.2,17.22,969.07,35.45,26.0,0.0,-0.000234577,0.000425683,0.000124246,32.8213551,-111.787041,386.187006,-1.09381463,-0.506299849,0.0346442023,,,,,,,,,,,,,,2022-11-15 21:12:30.796440+00:00,1.1626212434861474,0.014424311584268837,1.6295927973061044,-0.9443903080788696,1.3280435350690247,0.200124246,305.41716399498205,0.21514958067874185,0.2078576697038674,,,,,,,,0.8758234898630773,0.48263155160438903,,,,,,,,,,,,
2022-11-15 14:12:30.996706-07:00,6.199688,1.75,1.46,-0.96,0.21,16.99,969.07,35.99,26.0,0.0,-0.000509051,0.000788132,-0.0001795,32.821355,-111.787041,386.18874500000004,-1.08503178,-0.508464738,0.0356946743,,,,,,,,,,,,,,2022-11-15 21:12:30.996706+00:00,1.1635428774766412,0.014439273976500357,1.7464898644866782,-0.9313928155569573,1.477407956484457,0.2098205,302.2282981921711,0.21501484927806078,0.20774449527159666,,,,,,,,0.8400155349868415,0.5425623475516621,,,,,,,,,,,,
2022-11-15 14:12:31.197225-07:00,6.400207,2.08,1.64,-1.27,0.16,16.88,969.06,36.22,25.0,0.0,-0.000315343,0.000203209,-0.000187162,32.821355,-111.787041,386.189386,-1.07706329,-0.506505694,0.030330607,,,,,,,,,,,,,,2022-11-15 21:12:31.197225+00:00,1.1639721643222787,0.014446394934989896,2.07387256396717,-1.2387450063781256,1.6632673329170573,0.159812838,306.67748892357787,0.21882457953282064,0.21174034076982434,,,,,,,,0.5416786487590807,0.8405856538619586,,,,,,,,,,,,
2022-11-15 14:12:31.396787-07:00,6.599769,2.17,1.59,-1.47,0.14,16.75,969.05,36.54,25.0,0.0,-0.000121962,0.000807095,-0.00145207,32.821355,-111.787041,386.18340500000005,-1.06978021,-0.510622611,0.0329599735,,,,,,,,,,,,,,2022-11-15 21:12:31.396787+00:00,1.1644821081949237,0.01445482810898197,2.1647821304882346,-1.4392512193566114,1.6170459486550426,0.13854793,311.670670721366,0.22179700600608265,0.21492108328538934,,,,,,,,0.9887744227486893,0.14941599953818935,,,,,,,,,,,,
2022-11-15 14:12:31.598240-07:00,6.801222,2.1,1.79,-1.09,0.12,17.2,969.06,35.56,25.0,0.0,-0.000761654,0.000235203,-0.0016608,32.821355,-111.787041,386.181726,-1.06395749,-0.512557533,0.0298590104,2.06157,-9.31298,6217.03,28.8337,11473.0,0.0444198,-1.0,21.0,-1295.0,78.0,,0.0,,2022-11-15 21:12:31.598240+00:00,1.1626893294933376,0.01442556553840357,2.0949812729534982,-1.0563392663690212,1.8091693918350538,0.11833919999999999,300.2798352103194,0.2164374881948862,0.20929799474863167,2.0147518534544395,305.23110230304593,-1.1655217851014683,1.6335632413847332,0.12289652960000001,0.21099622364924486,0.21802022782415512,0.29505740331418684,0.9554795281687041,-0.631637277146611,0.19988546479718233,,,,,,,,,,
2022-11-15 14:12:31.796881-07:00,6.999863,2.03,1.54,-1.31,0.1,17.04,969.06,35.87,27.0,0.0,-0.000147388,0.000236532,-0.00103976,32.8213549,-111.787041,386.183618,-1.05687354,-0.514881739,0.0349587246,,,,,,,,,,,,,,2022-11-15 21:12:31.796881+00:00,1.1633303932540422,0.014435972672620909,2.021542209865886,-1.2811354985915124,1.5637534142306864,0.09896024,309.32671746810206,0.21933387743319302,0.21243692374260484,,,,,,,,0.8487143538099954,0.5288515345887558,,,,,,,,,,,,
2022-11-15 14:12:31.996488-07:00,7.19947,1.72,1.5,-0.84,0.1,17.43,969.05,35.04,26.0,0.0,-0.000625585,0.000113057,-0.00117756,32.8213549,-111.787041,386.18590700000004,-1.05455901,-0.516301951,0.0361773133,,,,,,,,,,,,,,2022-11-15 21:12:31.996488+00:00,1.1617570485432869,0.01441058593638328,1.718581089997409,-0.812137934812071,1.5145801192858261,0.09882244000000001,298.2007991918641,0.213708187953793,0.2065847756997741,,,,,,,,0.17784119037945487,0.9840592009652765,,,,,,,,,,,,
2022-11-15 14:12:32.196431-07:00,7.399413,2.04,1.91,-0.65,0.27,17.76,969.06,34.36,25.0,0.0,-0.000861456,0.000683031,9.62711e-06,32.8213549,-111.787041,386.189111,-1.04491745,-0.517914802,0.0438590702,,,,,,,,,,,,,,2022-11-15 21:12:32.196431+00:00,1.160451159528344,0.01438925924051499,2.0165441627396903,-0.6143776614122811,1.9206744777387694,0.27000962711000004,287.7382264455152,0.21207637507333385,0.2049075221303273,,,,,,,,0.6212870924585453,0.7835830196886652,,,,,,,,,,,,
2022-11-15 14:12:32.397310-07:00,7.600292,1.77,1.06,-1.4,0.15,17.57,969.06,34.78,24.0,0.0,-0.000592801,0.000238878,0.00109942,32.8213548,-111.787041,386.195245,-1.04043171,-0.519047906,0.0361512532,,,,,,,,,,,,,,2022-11-15 21:12:32.397310+00:00,1.1612095721601214,0.014401556806079217,1.7554640940919453,-1.3802828662090227,1.0846535828991022,0.15109941999999998,321.83903626762765,0.22062293331919772,0.21403785489817315,,,,,,,,0.3737601784211295,0.9275253791819421,,,,,,,,,,,,
2022-11-15 14:12:32.598191-07:00,7.801173,1.87,0.75,-1.7,0.15,17.18,969.08,35.65,24.0,0.0,-0.000546462,0.00085383,0.000558245,32.8213548,-111.787041,386.193658,-1.03047928,-0.515895183,0.0388360551,2.05726,-9.32774,6217.12,28.8341,11449.0,0.00833445,-1.0,20.0,-1288.0,78.0,,0.0,,2022-11-15 21:12:32.598191+00:00,1.1627934217054898,0.014426957389400804,1.8570860329365866,-1.685383013349706,0.7799055276380679,0.150558245,335.16781284077547,0.22561843748879631,0.21947659665930017,1.7601437664348416,315.4078178023834,-1.194131180290341,1.1949728025783894,0.159936894022,0.21196100869725526,0.2185872111534981,0.842266563517323,0.5390612543864745,0.36277578397505206,0.16323331572339722,,,,,,,,,,
2022-11-15 14:12:32.796938-07:00,7.99992,1.7,1.09,-1.28,0.27,17.19,969.06,35.63,25.0,0.0,-0.000582892,0.000596871,-0.000459132,32.8213548,-111.787041,386.187006,-1.02167727,-0.517619875,0.038744948,,,,,,,,,,,,,,2022-11-15 21:12:32.796938+00:00,1.162729375278606,0.014426215541691953,1.6803865747292355,-1.2597641862957407,1.1120671002492981,0.26954086800000004,318.5632832783638,0.21880626690759444,0.21223818407746373,,,,,,,,0.7154350611071258,0.6986792349416455,,,,,,,,,,,,
2022-11-15 14:12:32.997244-07:00,8.200226,1.49,1.06,-1.05,-0.04,17.58,969.07,34.67,26.0,0.0,-0.000860684,0.000220038,-0.00152369,32.8213548,-111.787041,386.185876,-1.01446972,-0.517547236,0.0371211136,,,,,,,,,,,,,,2022-11-15 21:12:32.997244+00:00,1.1611816134250772,0.014400954760905174,1.491237967676752,-1.0308481741849547,1.0775633243667098,-0.04152369,313.73073017963503,0.21581204297856832,0.2091448857210118,,,,,,,,0.2476885281592571,0.9688397148229942,,,,,,,,,,,,
2022-11-15 14:12:33.196561-07:00,8.399543,1.6,0.97,-1.26,-0.13,17.46,969.08,35.03,25.0,0.0,-0.00056801,0.000210018,-0.00151663,32.8213547,-111.787041,386.182764,-1.00729604,-0.517095566,0.0365461636,,,,,,,,,,,,,,2022-11-15 21:12:33.196561+00:00,1.1616730811870026,0.01440877767575687,1.589607320470187,-1.2425429324572705,0.9914325465168543,-0.13151663,321.41342103025306,0.21848486104110854,0.21202576831388464,,,,,,,,0.34679725310168186,0.9379401181531409,,,,,,,,,,,,
2022-11-15 14:12:33.396835-07:00,8.599817,1.65,0.82,-1.41,0.22,17.25,969.07,35.44,24.0,0.0,-0.000271739,-0.000116097,-0.00163009,32.8213547,-111.787041,386.184564,-1.00250103,-0.51804921,0.0356205027,,,,,,,,,,,,,,2022-11-15 21:12:33.396835+00:00,1.1625011379857875,0.014422362269127317,1.6310625703744845,-1.3955535098590806,0.8442721774384264,0.21836991,328.827194770234,0.22067130977725727,0.2144029946173258,,,,,,,,0.39288246690597045,-0.919588694579201,,,,,,,,,,,,
2022-11-15 14:12:33.598253-07:00,8.801235,1.82,1.04,-1.49,0.21,17.03,969.06,35.93,25.0,0.0,-0.000191827,0.000389971,-0.000226208,32.8213547,-111.787041,386.18676100000005,-0.993899858,-0.521153438,0.0344095813,2.05979,-9.55836,6221.66,28.8353,11473.0,0.000180463,-1.0,20.0,-1284.0,78.0,,0.0,,2022-11-15 21:12:33.598253+00:00,1.163370483211767,0.014436623620478109,1.8166296992732414,-1.4713460617400778,1.0654971754460687,0.209773792,324.08926322229536,0.22191259048578796,0.21570245653467499,1.7446692861835023,323.44865003010665,-1.3979145645939426,1.0379460262736413,0.13131566546,0.2145319233196044,0.2207935448821404,0.8973153515671645,0.44139003142560446,0.31433934987704326,0.17801127098173744,,,,,,,,,,
2022-11-15 14:12:33.796641-07:00,8.999623,1.9,1.05,-1.56,0.23,17.05,969.07,35.95,27.0,0.0,-0.000701744,4.45408e-05,6.56533e-05,32.8213546,-111.787041,386.186029,-0.986909348,-0.525491886,0.0306908128,,,,,,,,,,,,,,2022-11-15 21:12:33.796641+00:00,1.1633023103758533,0.01443536773177271,1.8800138308398906,-1.5416388792439368,1.0760118819756495,0.2300656533,325.0862600743609,0.22305192833348522,0.21694297997384174,,,,,,,,0.06334411227392442,0.997991745176396,,,,,,,,,,,,
2022-11-15 14:12:33.996352-07:00,9.199334,1.81,1.19,-1.36,0.13,17.31,969.06,35.39,26.0,0.0,-0.0005474,0.000977238,-0.000114398,32.8213546,-111.787041,386.187402,-0.979024793,-0.524957793,0.0334931352,,,,,,,,,,,,,,2022-11-15 21:12:33.996352+00:00,1.1622490078440766,0.014418419392466483,1.8060330099597075,-1.338491439669347,1.2125163499912073,0.12988560200000002,317.82711105338996,0.219847034773063,0.21358541715829482,,,,,,,,0.8724501690839637,0.48870308211158564,,,,,,,,,,,,
2022-11-15 14:12:34.196658-07:00,9.39964,1.9,1.66,-0.92,0.16,17.4,969.06,35.11,25.0,0.0,-0.00102319,0.000665277,0.000798085,32.8213546,-111.787041,386.189294,-0.97290371,-0.524012986,0.0315954829,,,,,,,,,,,,,,2022-11-15 21:12:34.196658+00:00,1.1618889926635365,0.014412577845736125,1.8966777774330974,-0.8910160282629036,1.6743586917943105,0.160798085,298.0198368809118,0.2142482709666047,0.20767659987814002,,,,,,,,0.5451055621725814,0.8383674171200322,,,,,,,,,,,,
2022-11-15 14:12:34.396632-07:00,9.599614,1.79,1.5,-0.96,0.17,17.51,969.06,34.91,24.0,0.0,-9.45205e-05,0.00043552,0.000332314,32.8213546,-111.787041,386.191888,-0.965811384,-0.523042593,0.0339732095,,,,,,,,,,,,,,2022-11-15 21:12:34.396632+00:00,1.1614492768815472,0.014405444646355335,1.7805896669132544,-0.934144408335392,1.5158739348290062,0.170332314,301.6430984149808,0.2146499736887758,0.20817138961535175,,,,,,,,0.9772497881161526,0.21209161140161775,,,,,,,,,,,,
2022-11-15 14:12:34.598111-07:00,9.801093,1.6,1.3,-0.94,0.1,17.56,969.06,34.8,25.0,0.0,-0.000735932,0.000118633,0.000799575,32.8213545,-111.78704,386.194086,-0.959707751,-0.51979161,0.0344599773,2.0599,-9.40104,6236.44,28.836,11427.0,0.0189504,-1.0,18.0,-1298.0,78.0,,0.0,,2022-11-15 21:12:34.598111+00:00,1.1612495160757816,0.014402204632711814,1.6035730089007723,-0.9179754448209028,1.3148260255946191,0.100799575,304.9216880912633,0.21441727136507163,0.2080083836167279,1.6406261604953372,306.2338156640955,-0.9495767185710667,1.3253957607880527,0.09454227412,0.20838790701569873,0.2147871525150528,0.15914652352698852,0.9872549741831002,-0.7265422111509248,0.20941362837251773,,,,,,,,,,
2022-11-15 14:12:34.797290-07:00,10.000272,1.5,1.03,-1.1,-0.02,17.53,969.07,34.86,26.0,0.0,-0.000889227,0.000476497,0.000809278,32.8213545,-111.78704,386.19314,-0.952880354,-0.520886733,0.0353037259,,,,,,,,,,,,,,2022-11-15 21:12:34.797290+00:00,1.1613813488064975,0.01440419420872608,1.5059897427918318,-1.0822423468501676,1.047261480280092,-0.019190722,315.9410998686773,0.2162281856284399,0.21000112758375944,,,,,,,,0.4723179863025843,0.8814282272624764,,,,,,,,,,,,
2022-11-15 14:12:34.996770-07:00,10.199752,1.41,1.06,-0.94,0.06,17.8,969.06,34.27,26.0,0.0,-0.000804979,-0.000237542,-2.78814e-05,32.8213545,-111.78704,386.19088100000005,-0.951508191,-0.516764828,0.0298301255,,,,,,,,,,,,,,2022-11-15 21:12:34.996770+00:00,1.1602916199291646,0.01438667297365156,1.4163006064377293,-0.9225053645859674,1.0746586714422355,0.0599721186,310.64335506464425,0.21439206092637178,0.20808203438451464,,,,,,,,0.28302537441674386,-0.9591124216880219,,,,,,,,,,,,
2022-11-15 14:12:35.197274-07:00,10.400256,1.59,1.24,-1.0,-0.01,17.6,969.05,34.72,25.0,0.0,-0.000617062,-0.000408033,-0.00112341,32.8213545,-111.78704,386.18514400000004,-0.947828039,-0.514151007,0.0310382521,,,,,,,,,,,,,,2022-11-15 21:12:35.197274+00:00,1.1610777752904842,0.014399567964249684,1.5927489580007477,-0.9797591680879857,1.255755237201902,-0.01112341,307.9618917017652,0.21503599154277467,0.20874540820129542,,,,,,,,0.5515689976822866,-0.8341292710340272,,,,,,,,,,,,
2022-11-15 14:12:35.396490-07:00,10.599472,2.1,1.86,-0.96,0.1,17.06,969.06,35.92,24.0,0.0,-0.000741615,-0.000298696,-0.000784838,32.8213544,-111.78704,386.185785,-0.945223198,-0.512821601,0.0265580893,,,,,,,,,,,,,,2022-11-15 21:12:35.396490+00:00,1.163250221627065,0.014434670954181624,2.0925997719652494,-0.9294845562875036,1.8748419307376385,0.09921516200000001,296.3706914276255,0.21458689508508885,0.20818002977516537,,,,,,,,0.3736000366331492,-0.9275898946343204,,,,,,,,,,,,
2022-11-15 14:12:35.597691-07:00,10.800673,2.25,1.93,-1.15,0.16,16.9,969.07,36.24,24.0,0.0,-7.42634e-05,-0.000411439,-0.000441834,32.8213544,-111.78704,386.187402,-0.935116679,-0.513379565,0.0267596716,2.05923,-8.64315,6243.55,28.8376,11473.0,-0.00617504,-1.0,21.0,-1296.0,78.0,,0.0,,2022-11-15 21:12:35.597691+00:00,1.1639039147425365,0.014445137335671146,2.2467823734040113,-1.118760408348961,1.9484368560848533,0.159558166,299.8637340549558,0.21680356267951462,0.21052630167495637,1.9751788717801635,301.88187133269366,-1.0291760009264506,1.680476407768277,0.05500049400000001,0.20940839099720746,0.21566676883783673,0.9840979794216569,-0.1776264814103239,1.8365623491470395,0.20291543521852975,,,,,,,,,,
2022-11-15 14:12:35.796976-07:00,10.999958,2.07,1.76,-1.07,0.06,17.14,969.05,35.83,26.0,0.0,-0.000715038,-0.000321318,-0.000816938,32.8213544,-111.78704,386.181482,-0.925905842,-0.509624005,0.0303799225,,,,,,,,,,,,,,2022-11-15 21:12:35.796976+00:00,1.1629176449953782,0.01442942053368903,2.059278644672909,-1.0417410585368545,1.7763457161725045,0.059183061999999995,300.3895661120818,0.215783087743289,0.20956813764211002,,,,,,,,0.409888203137778,-0.9121357689118894,,,,,,,,,,,,
2022-11-15 14:12:35.997197-07:00,11.200179,1.88,1.53,-1.1,-0.03,17.45,969.06,35.05,26.0,0.0,-0.000426111,-0.000790535,-0.00183051,32.8213544,-111.78704,386.177545,-0.918064291,-0.510546378,0.0293989864,,,,,,,,,,,,,,2022-11-15 21:12:35.997197+00:00,1.1616890805863405,0.014409334600811372,1.8844846108579,-1.0761348133709479,1.547002298644487,-0.03183051,304.82347336704004,0.21612430713851655,0.21002207769251022,,,,,,,,0.8802672874707825,-0.47447813712417847,,,,,,,,,,,,
2022-11-15 14:12:36.197295-07:00,11.400277,2.23,1.98,-1.02,0.11,17.18,969.04,35.64,25.0,0.0,-0.000770657,-0.000303445,-0.000309528,32.8213543,-111.78704,386.184412,-0.907661971,-0.509053972,0.0289127223,,,,,,,,,,,,,,2022-11-15 21:12:36.197295+00:00,1.1627454259395382,0.0144267738198239,2.226729502603346,-0.9888102244726887,1.9951387464891797,0.109690472,296.3634639729928,0.2151411826796883,0.20898741819494265,,,,,,,,0.36637071464721677,-0.9304689674830041,,,,,,,,,,,,
2022-11-15 14:12:36.396703-07:00,11.599685,2.33,2.07,-1.04,0.21,17.16,969.05,35.69,25.0,0.0,-0.000864168,-0.00036814,0.00114306,32.8213543,-111.78704,386.190088,-0.902480046,-0.512329206,0.0241515113,,,,,,,,,,,,,,2022-11-15 21:12:36.396703+00:00,1.16283752941927,0.014428120004708306,2.3159527175900725,-1.007635394084771,2.0852596727267496,0.21114306,295.79067811748155,0.21535719812758733,0.2092285278246812,,,,,,,,0.39192374150301845,-0.9199977069788138,,,,,,,,,,,,
2022-11-15 14:12:36.597681-07:00,11.800663,2.09,1.8,-1.06,0.13,17.23,969.06,35.57,24.0,0.0,-0.00022516,-0.000354341,0.00136183,32.8213543,-111.78704,386.19021000000004,-0.897280979,-0.50967247,0.0229812143,2.05985,-8.6041,6245.9,28.8385,11435.0,0.0953077,-1.0,18.0,-1297.0,78.0,,0.0,,2022-11-15 21:12:36.597681+00:00,1.162569208686516,0.014423615882321213,2.0889024293220726,-1.0320365992621596,1.8161535774848592,0.13136183,299.6075785931835,0.21557752530111576,0.20954303840438723,2.1392361036260903,299.77144249417023,-1.0553923838037371,1.8563758929967686,0.10450893466,0.2098674321792303,0.21589493875286533,0.8440170374362533,-0.536316362343468,2.1328370857018335,0.16188632302436817,,,,,,,,,,
2022-11-15 14:12:36.796919-07:00,11.999901,1.95,1.62,-1.07,0.14,17.31,969.05,35.35,26.0,0.0,-2.22594e-05,-0.000576686,0.000368494,32.8213543,-111.78704,386.190576,-0.89281954,-0.509373512,0.0188011566,,,,,,,,,,,,,,2022-11-15 21:12:36.796919+00:00,1.1622370142729062,0.014418373555504892,1.9417601095188277,-1.045203924461752,1.6364538121219072,0.140368494,302.5663927434909,0.21568372926731683,0.2097181577998143,,,,,,,,0.9992558968467943,-0.03857010003757915,,,,,,,,,,,,
2022-11-15 14:12:36.997280-07:00,12.200262,2.12,1.73,-1.23,-0.07,17.4,969.05,35.11,25.0,0.0,9.98819e-05,-0.000117314,-1.91827e-05,32.8213542,-111.78704,386.192224,-0.884148486,-0.507887709,0.0263264915,,,,,,,,,,,,,,2022-11-15 21:12:36.997280+00:00,1.161877002807463,0.014412532046986401,2.122835759096132,-1.2032757767373146,1.7488736561611484,-0.0700191827,304.5290990437025,0.21771505838861854,0.21186001867232615,,,,,,,,0.7614106033822946,0.6482699229927378,,,,,,,,,,,,
2022-11-15 14:12:37.196817-07:00,12.399799,2.28,1.94,-1.19,-0.01,17.41,969.05,35.27,24.0,0.0,-0.000401505,-0.000120894,-1.12055e-07,32.8213542,-111.78704,386.19304800000003,-0.879281068,-0.510199066,0.0251169342,,,,,,,,,,,,,,2022-11-15 21:12:37.196817+00:00,1.161837015300483,0.014411883284650064,2.2756116433549325,-1.160210018226141,1.9576314936627461,-0.010000112055,300.65352923458164,0.21716151237253478,0.21127470675646481,,,,,,,,0.288315906570302,-0.9575353455714023,,,,,,,,,,,,
2022-11-15 14:12:37.396920-07:00,12.599902,2.23,1.73,-1.41,-0.1,17.32,969.06,35.38,24.0,0.0,-8.06495e-05,-0.000207248,-0.000451916,32.8213542,-111.78704,386.190485,-0.869943523,-0.515177355,0.0344339205,,,,,,,,,,,,,,2022-11-15 21:12:37.396920+00:00,1.1622089951402572,0.014417770096290434,2.2318806119611083,-1.383778487900892,1.7511276830861338,-0.100451916,308.3165437421521,0.22030394106139978,0.21464200383696305,,,,,,,,0.9319240582053758,-0.36265348438698797,,,,,,,,,,,,
2022-11-15 14:12:37.597423-07:00,12.800405,2.19,1.67,-1.41,-0.07,17.21,969.06,35.66,25.0,0.0,0.000347408,-0.000373748,-0.000638576,32.8213542,-111.78704,386.190332,-0.868760667,-0.517523732,0.026184008,2.05968,-9.76874,6253.52,28.8389,11429.0,0.0649854,-1.0,20.0,-1290.0,78.0,,0.0,,2022-11-15 21:12:37.597423+00:00,1.1626492864664228,0.014424915594084198,2.186140490669564,-1.3848908700154028,1.6915340738787803,-0.07063857600000001,309.30783411798143,0.2203006599025848,0.21466109648110746,2.3153055762215384,307.02030948954587,-1.3924205795027942,1.8451403425672175,-0.06008266581099999,0.21487991353370278,0.2205407056022092,0.7324452402426044,0.6808259469541048,0.40346820189459387,0.15407509482210877,,,,,,,,,,
2022-11-15 14:12:37.796516-07:00,12.999498,2.44,1.86,-1.58,-0.07,17.21,969.05,35.66,26.0,0.0,-0.000166715,-0.000298968,-0.000113962,32.8213542,-111.78704,386.194604,-0.862757254,-0.519423593,0.0313605617,,,,,,,,,,,,,,2022-11-15 21:12:37.796516+00:00,1.1626372887646659,0.014424869714615875,2.4405532079226315,-1.5521131078224322,1.8834130883126088,-0.070113962,309.4917969382201,0.22306395789352,0.21752209892179916,,,,,,,,0.873385190572549,-0.4870300903317496,,,,,,,,,,,,
2022-11-15 14:12:37.996608-07:00,13.19959,2.44,1.92,-1.51,-0.05,17.28,969.04,35.45,26.0,0.0,-0.000410623,-4.35875e-05,0.000791237,32.8213542,-111.78704,386.19906000000003,-0.858386068,-0.519992884,0.0244180671,,,,,,,,,,,,,,2022-11-15 21:12:37.996608+00:00,1.162345072867907,0.014420275935235259,2.4423419271994558,-1.4811104135491013,1.941995373895819,-0.049208763,307.3318434147942,0.22187345678100676,0.21629966167217948,,,,,,,,0.10555665249391714,-0.9944132908978431,,,,,,,,,,,,
2022-11-15 14:12:38.197228-07:00,13.40021,2.38,1.97,-1.33,-0.14,17.28,969.05,35.57,25.0,0.0,-0.000624063,0.000241847,0.000533062,32.8213542,-111.78704,386.19826700000004,-0.849292899,-0.520193293,0.03012311,,,,,,,,,,,,,,2022-11-15 21:12:38.197228+00:00,1.1623570676779547,0.01442032178461608,2.3762761173983007,-1.3004118850881528,1.9888733281028783,-0.139466938,303.1784048839287,0.2190361396083763,0.21340943612840038,,,,,,,,0.3613504102186629,0.9324300944493394,,,,,,,,,,,,
2022-11-15 14:12:38.397250-07:00,13.600232,2.12,1.66,-1.32,0.0,17.66,969.06,34.67,24.0,0.0,-0.000827841,0.000352947,0.00137191,32.8213542,-111.78704,386.203027,-0.839252007,-0.515981023,0.0293905721,,,,,,,,,,,,,,2022-11-15 21:12:38.397250+00:00,1.1608502005377754,0.01439572900607903,2.119977864129545,-1.2951911185427505,1.6783283680040824,0.00137191,307.6579064375958,0.2188608157075422,0.21336456315011695,,,,,,,,0.39218940605838426,0.9198844871915015,,,,,,,,,,,,
2022-11-15 14:12:38.598333-07:00,13.801315,2.34,1.76,-1.54,-0.07,18.02,969.05,33.81,25.0,0.0,-0.000216632,-6.76489e-05,0.000302451,32.8213541,-111.78704,386.196863,-0.835082108,-0.513941811,0.0298606279,2.06019,-8.74052,6245.36,28.84,11478.0,0.113264,-1.0,18.0,-1285.0,78.0,,0.0,,2022-11-15 21:12:38.598333+00:00,1.1594029713421998,0.014372419687609158,2.338510793086368,-1.5142531090590876,1.782041035185868,-0.06969754900000001,310.3555427537842,0.22231064840048023,0.2169471469154529,2.344480071830366,307.4543302386163,-1.4248354956322198,1.8586250755570497,-0.03588028380000001,0.21551169985325128,0.22094998190863033,0.2980798938282913,-0.9545409246833342,1.914082556711061,0.20222683345547848,,,,,,,,,,
2022-11-15 14:12:38.797303-07:00,14.000285,2.52,1.91,-1.65,-0.02,17.86,969.05,34.15,27.0,0.0,-0.000262076,0.000837732,-0.000187732,32.8213541,-111.78704,386.19262100000003,-0.829898324,-0.511292587,0.0268007728,,,,,,,,,,,,,,2022-11-15 21:12:38.797303+00:00,1.1600404218607894,0.014382749724170685,2.5232656110145872,-1.6213248385834282,1.9334360893293676,-0.020187732,309.9822458714333,0.22420459959919573,0.2189062217501489,,,,,,,,0.954387575864043,0.29857051936913587,,,,,,,,,,,,
2022-11-15 14:12:38.997112-07:00,14.200094,2.37,1.89,-1.42,0.05,17.59,969.05,34.83,26.0,0.0,0.000174796,-0.000386819,-0.00142111,32.8213541,-111.78704,386.188898,-0.825899337,-0.514110843,0.0350613642,,,,,,,,,,,,,,2022-11-15 21:12:38.997112+00:00,1.1611177105513804,0.014400215610630514,2.364369973523031,-1.3929965268876796,1.9104465571630527,0.04857889,306.0975512463395,0.22033770622755725,0.2149311313221372,,,,,,,,0.9112790724552234,0.4117893297611628,,,,,,,,,,,,
2022-11-15 14:12:39.197248-07:00,14.40023,2.27,1.84,-1.31,0.13,17.65,969.06,34.65,25.0,0.0,5.9402e-05,0.000633339,-0.00147724,32.8213541,-111.78704,386.19106400000004,-0.819178516,-0.516089017,0.0274210761,,,,,,,,,,,,,,2022-11-15 21:12:39.197248+00:00,1.1608901197331174,0.014396376304866182,2.2583833487025506,-1.2829265214213152,1.8586002502772754,0.12852276,304.6159566592187,0.2186577721390098,0.2132491070837008,,,,,,,,0.9956303582755003,-0.09338195585978558,,,,,,,,,,,,
2022-11-15 14:12:39.396944-07:00,14.599926,2.66,2.42,-1.07,0.21,17.83,969.06,34.29,25.0,0.0,-3.57768e-05,-0.00021583,-0.00147549,32.8213541,-111.78704,386.187402,-0.813868334,-0.515068288,0.0360099003,,,,,,,,,,,,,,2022-11-15 21:12:39.396944+00:00,1.1601719940146762,0.014384733887803938,2.6460485274763785,-1.0357337085574303,2.4349185807163622,0.20852451,293.04329413552693,0.21544643870291227,0.20986786670945887,,,,,,,,0.9865379836500251,-0.16353228065352363,,,,,,,,,,,,
2022-11-15 14:12:39.597720-07:00,14.800702,2.82,2.26,-1.69,0.01,17.77,969.03,34.42,26.0,0.0,-0.000381265,0.000429144,-0.000863703,32.8213541,-111.78704,386.188593,-0.803430243,-0.517900578,0.026214939,2.05979,-9.1891,6255.41,28.8407,11478.0,0.199724,-1.0,18.0,-1285.0,78.0,,0.0,,2022-11-15 21:12:39.597720+00:00,1.1603753466944315,0.014388475660712243,2.8214421748747602,-1.6577148875335734,2.2830937996086735,0.009136297,305.9827520394391,0.2248592472869321,0.21966326701784827,2.6123342927319766,303.0897769385793,-1.417358682325403,2.1799441540465,0.0833095434,0.2156782798502424,0.22098971930896982,0.7475791235775111,0.6641727591456009,0.6883097133909651,0.15502374012981252,,,,,,,,,,
2022-11-15 14:12:39.797153-07:00,15.000135,2.54,1.94,-1.64,0.03,17.81,969.05,34.34,27.0,0.0,-0.000585095,4.0972e-05,0.000143515,32.8213541,-111.78704,386.191644,-0.799158491,-0.515886224,0.0249824049,,,,,,,,,,,,,,2022-11-15 21:12:39.797153+00:00,1.160239768922561,0.014385980928008921,2.539836898622031,-1.6127413638502186,1.9621000904460797,0.030143515,309.4183764297354,0.22394674227324443,0.2188309304434168,,,,,,,,0.06985517103105356,0.9975571437668231,,,,,,,,,,,,
2022-11-15 14:12:39.996671-07:00,15.199653,2.8,2.34,-1.53,0.04,17.79,969.04,34.38,25.0,0.0,-2.37519e-05,-0.000336343,0.000220635,32.8213542,-111.78704,386.190179,-0.796087534,-0.513182955,0.0239745783,,,,,,,,,,,,,,2022-11-15 21:12:39.996671+00:00,1.1603075531485054,0.014387228185626386,2.7959605139841615,-1.4976769302644777,2.361008049184108,0.040220635,302.3885054289762,0.22203839614275064,0.2167802279967873,,,,,,,,0.9975158301392457,-0.07044266194296943,,,,,,,,,,,,
2022-11-15 14:12:40.196927-07:00,15.399909,3.06,2.58,-1.65,-0.13,17.17,969.04,35.82,25.0,0.0,-0.000394665,-8.92305e-06,0.000720445,32.8213542,-111.78704,386.191522,-0.793089071,-0.512775803,0.0255141875,,,,,,,,,,,,,,2022-11-15 21:12:40.196927+00:00,1.1627854764157692,0.014427423932563653,3.062168293592057,-1.6141395947163848,2.60219676947177,-0.12927955500000002,301.81127849625045,0.22410950321693884,0.21887513509200845,,,,,,,,0.022603398464207884,-0.999744510551505,,,,,,,,,,,,
2022-11-15 14:12:40.396446-07:00,15.599428,2.97,2.58,-1.47,-0.12,17.49,969.02,35.04,25.0,0.0,-0.000135924,0.000208389,-0.000143291,32.8213542,-111.78704,386.185693,-0.788868362,-0.514149582,0.0259647716,,,,,,,,,,,,,,2022-11-15 21:12:40.396446+00:00,1.1614812558755223,0.014406558022491424,2.9691742046442533,-1.4341310596869947,2.599858373289955,-0.120143291,298.8819597202322,0.22103130430974763,0.21573593884423867,,,,,,,,0.8375772521724293,0.5463189056249864,,,,,,,,,,,,
2022-11-15 14:12:40.598351-07:00,15.801333,2.95,2.19,-1.97,0.1,17.78,969.05,34.46,26.0,0.0,-5.12371e-05,-0.000856928,-0.000432624,32.8213542,-111.78704,386.19268200000005,-0.784280613,-0.512465506,0.0272998569,2.06066,-9.16025,6262.94,28.8418,11469.0,0.1885,-1.0,20.0,-1292.0,78.0,,0.0,,2022-11-15 21:12:40.598351+00:00,1.1603594100495251,0.014387920352177038,2.9462006348936254,-1.9406959776492994,2.216708664525727,0.099567376,311.2016715720251,0.2302858973164039,0.22541631110428156,2.8285102967612215,308.7603697626651,-1.7403336849883977,2.2018128921304863,-0.016080071200000007,0.22148532683785277,0.22645368606880342,0.9982172606164437,-0.05968501158082257,2.301759469715491,0.2206978038489751,,,,,,,,,,
2022-11-15 14:12:40.797241-07:00,16.000223,2.61,1.77,-1.92,0.02,17.74,969.06,34.5,26.0,0.0,0.000303537,-8.39044e-05,-0.000246662,32.8213541,-111.78704,386.191034,-0.773566521,-0.51154414,0.0272141927,,,,,,,,,,,,,,2022-11-15 21:12:40.797241+00:00,1.1605309457815343,0.014390552725114622,2.6116486004203474,-1.8960123693069015,1.7960638929372168,0.019753338,316.5506796627981,0.22923164259292392,0.22451367550945062,,,,,,,,0.26643076931558785,0.9638540580201466,,,,,,,,,,,,
2022-11-15 14:12:40.997309-07:00,16.200291,2.55,1.77,-1.84,0.05,17.88,969.05,34.23,25.0,0.0,-0.000181422,-0.000494669,-0.000298224,32.821354,-111.78704,386.196497,-0.765297305,-0.51668882,0.0282473557,,,,,,,,,,,,,,2022-11-15 21:12:40.997309+00:00,1.1599607022152643,0.014381457651876229,2.5533597502558245,-1.8166894235824087,1.7942367604277598,0.049701776,315.3562593620197,0.22761008290800283,0.22288557363928455,,,,,,,,0.938849710389151,-0.3443272009327861,,,,,,,,,,,,
2022-11-15 14:12:41.196435-07:00,16.399417,2.58,1.64,-2.0,-0.03,18.21,969.06,33.49,25.0,0.0,-0.000619656,0.000479046,-0.000932657,32.821354,-111.78704,386.19210200000003,-0.756016779,-0.516911689,0.0229244433,,,,,,,,,,,,,,2022-11-15 21:12:41.196435+00:00,1.1586588646979357,0.014360217618641999,2.5856605209033834,-1.9777077064421056,1.6656267760929708,-0.030932657,319.89589391713633,0.2308497499002171,0.2263351078162347,,,,,,,,0.6116240842691215,0.79114851926927,,,,,,,,,,,,
2022-11-15 14:12:41.396828-07:00,16.59981,2.6,1.72,-1.95,-0.08,18.45,969.06,33.04,25.0,0.0,-0.000607984,0.000338881,-0.00140135,32.821354,-111.787039,386.19338400000004,-0.747958719,-0.515967566,0.0170541855,,,,,,,,,,,,,,2022-11-15 21:12:41.396828+00:00,1.157705236002711,0.014344776976265844,2.5995137890299644,-1.9270421348523163,1.7447007049522132,-0.08140135,317.8430146368887,0.22978753502704322,0.22526154845042354,,,,,,,,0.48686337753798803,0.8734781345931348,,,,,,,,,,,,
2022-11-15 14:12:41.598207-07:00,16.801189,2.74,2.02,-1.85,0.13,18.84,969.05,32.2,25.0,0.0,-0.000478548,0.000418343,-0.00155204,32.821354,-111.787039,386.189294,-0.739460569,-0.515211743,0.0199232553,2.06125,-8.56975,6274.89,28.8427,11441.0,0.298481,-1.0,18.0,-1287.0,78.0,,0.0,,2022-11-15 21:12:41.598207+00:00,1.156147002177158,0.014319711947738244,2.7385066097657558,-1.8233581462065007,2.0432287004623655,0.12844796,311.74542348887434,0.22774500501977604,0.2231211209717786,2.591699266210249,313.9510942004891,-1.7939387518462897,1.860754076222888,0.0730548146,0.22262529740951326,0.227216831094209,0.6581601492584724,0.7528779568615788,-0.12594276168467822,0.16089523262473365,,,,,,,,,,
2022-11-15 14:12:41.796748-07:00,16.99973,2.59,2.0,-1.64,0.19,18.95,969.06,32.05,26.0,0.0,-0.000916012,-0.000190034,-0.000683021,32.821354,-111.787039,386.192377,-0.731326233,-0.516817826,0.0236110458,,,,,,,,,,,,,,2022-11-15 21:12:41.796748+00:00,1.1557235426853492,0.014312716152275914,2.585829138876047,-1.614529032429835,2.0198535439238214,0.189316979,308.63638451217645,0.22377082213431596,0.21907581531426765,,,,,,,,0.20313273309639987,-0.9791512103576172,,,,,,,,,,,,
2022-11-15 14:12:41.997264-07:00,17.200246,2.45,1.81,-1.65,0.16,18.51,969.07,32.95,25.0,0.0,-0.000345629,-6.11956e-05,-0.000156859,32.8213539,-111.787039,386.19448200000005,-0.724057703,-0.512372914,0.0264621398,,,,,,,,,,,,,,2022-11-15 21:12:41.997264+00:00,1.1574790182783814,0.014340967371186475,2.448986272476095,-1.627056739300692,1.83036065568307,0.159843141,311.6347544473695,0.22393104338969275,0.21933289449486187,,,,,,,,0.1743440987915574,-0.9846847897761799,,,,,,,,,,,,
2022-11-15 14:12:42.197032-07:00,17.400014,2.27,1.61,-1.61,-0.03,17.6,969.07,34.85,24.0,0.0,-0.000662236,-0.000359342,-0.000187631,32.8213539,-111.787039,386.19466600000004,-0.715194018,-0.509120682,0.0317051261,,,,,,,,,,,,,,2022-11-15 21:12:42.197032+00:00,1.1611017385075586,0.014399659392544374,2.276660770763826,-1.5901376268460812,1.6293086241787496,-0.030187631,314.3029167396839,0.2231971841074312,0.2186778269083407,,,,,,,,0.4769303525883178,-0.878941089482101,,,,,,,,,,,,
2022-11-15 14:12:42.397216-07:00,17.600198,2.35,1.99,-1.22,0.28,17.8,969.06,34.4,25.0,0.0,-0.00046423,-7.53977e-05,0.00045438,32.8213539,-111.787039,386.193658,-0.703662062,-0.509055669,0.0375554977,,,,,,,,,,,,,,2022-11-15 21:12:42.397216+00:00,1.1602916199291646,0.01438667297365156,2.3338421295163863,-1.1955443805085735,2.004368409185285,0.28045438,300.81478241176046,0.21705301460014942,0.21234515870919762,,,,,,,,0.160313880391967,-0.9870660868217842,,,,,,,,,,,,
2022-11-15 14:12:42.597715-07:00,17.800697,2.48,2.05,-1.36,0.31,17.85,969.05,34.25,27.0,0.0,-0.000166035,9.35223e-05,0.000210536,32.8213539,-111.787039,386.19475700000004,-0.703300004,-0.508368065,0.0341910752,2.05782,-9.00175,6288.09,28.8435,11423.0,0.231294,-1.0,18.0,-1303.0,78.0,,0.0,,2022-11-15 21:12:42.597715+00:00,1.160080285792812,0.014383395847996914,2.4599114101530124,-1.3346411066932495,2.0663729726565823,0.310210536,302.8578460753615,0.21907164704669058,0.21441058254106776,2.3401309099092424,300.88616057400577,-1.1877095408270226,1.9905147889895478,0.20190013639999999,0.21262751638472754,0.21728906902625506,0.4907698611031076,0.871289242119307,-0.05795387916896466,0.17272087211126774,,,,,,,,,,
2022-11-15 14:12:42.796431-07:00,17.999413,2.26,2.01,-1.01,0.2,17.92,969.05,34.19,25.0,0.0,0.000318477,0.00043809,-0.000272124,32.8213538,-111.787039,386.19030200000003,-0.690175973,-0.503310348,0.0378848143,,,,,,,,,,,,,,2022-11-15 21:12:42.796431+00:00,1.1598012957903883,0.014378874208502819,2.249583197679006,-0.9852770750158689,2.0223386582686578,0.199727876,295.97519911979936,0.21436508660327647,0.2096795453356294,,,,,,,,0.8088536736350834,-0.5880099783566857,,,,,,,,,,,,
2022-11-15 14:12:42.996849-07:00,18.199831,2.39,2.22,-0.86,0.25,18.59,969.07,32.75,25.0,0.0,7.8215e-06,0.000304248,-0.000704479,32.8213538,-111.787039,386.189996,-0.688755738,-0.500838548,0.0333646789,,,,,,,,,,,,,,2022-11-15 21:12:42.996849+00:00,1.15716161812255,0.014335830667896007,2.380657041433981,-0.8329475150713398,2.2301852806584646,0.249295521,290.4800585234235,0.21275841277372756,0.20802446842940223,,,,,,,,0.9996697221557145,-0.025699155727701643,,,,,,,,,,,,
2022-11-15 14:12:43.196858-07:00,18.39984,2.22,1.59,-1.54,-0.22,18.12,969.06,33.77,24.0,0.0,-0.000152427,-0.000303604,-0.00047945,32.8213538,-111.787039,386.189996,-0.680334716,-0.504782838,0.0369874813,,,,,,,,,,,,,,2022-11-15 21:12:43.196858+00:00,1.1590168806206973,0.014366016494440005,2.213624500220165,-1.5213156952181317,1.608021138995986,-0.22047945,313.41289526396554,0.2218964793826497,0.217563455745523,,,,,,,,0.893690078948344,-0.4486847922420625,,,,,,,,,,,,
2022-11-15 14:12:43.397261-07:00,18.600243,2.42,2.0,-1.35,0.03,18.37,969.05,33.29,24.0,0.0,-5.97507e-05,-0.000520631,-0.000601509,32.8213538,-111.787039,386.189813,-0.674939457,-0.505274224,0.0316757076,,,,,,,,,,,,,,2022-11-15 21:12:43.397261+00:00,1.1580109878077263,0.014349874750158517,2.413222008604904,-1.3268676780817943,2.015704002991738,0.029398491,303.355516504108,0.21884063043818847,0.21437277145296518,,,,,,,,0.9934787403102828,-0.11401750984604796,,,,,,,,,,,,
2022-11-15 14:12:43.597967-07:00,18.800949,2.17,1.81,-1.19,0.12,18.27,969.04,33.4,26.0,0.0,-0.000151891,-0.000634463,-0.000362751,32.8213537,-111.787039,386.188287,-0.668219524,-0.508040983,0.0311219319,2.05462,-9.2534,6311.19,28.844,11473.0,0.187323,-1.0,19.0,-1293.0,78.0,,0.0,,2022-11-15 21:12:43.597967+00:00,1.1583964021447608,0.014356263457450193,2.166363204837027,-1.1694446505787588,1.8236032311071613,0.119637249,302.671338090473,0.21654238867854889,0.2120904695455979,2.506539794118587,307.11234774541145,-1.5091221544583555,1.9935556436224728,-0.0242456886,0.2176720483113296,0.2220103433214347,0.9725193675342153,-0.23282199159626202,2.2901282992430287,0.20622433304096785,,,,,,,,,,
2022-11-15 14:12:43.796823-07:00,18.999805,2.77,2.08,-1.82,-0.19,18.31,969.04,33.36,26.0,0.0,0.000142885,1.02707e-05,-0.000358833,32.8213537,-111.787039,386.189722,-0.662801525,-0.511259081,0.0294103556,,,,,,,,,,,,,,2022-11-15 21:12:43.796823+00:00,1.1582374237048862,0.01435368912160686,2.7639398528524874,-1.7958069076015277,2.1010571293510485,-0.190358833,310.52103724463313,0.22696869759234065,0.2227937059093721,,,,,,,,0.07169590047556917,-0.9974265375730672,,,,,,,,,,,,
2022-11-15 14:12:43.996394-07:00,19.199376,2.98,2.4,-1.76,0.14,18.2,969.04,33.56,25.0,0.0,-0.000725938,5.5582e-05,0.0005741,32.8213537,-111.787039,386.19698500000004,-0.660151664,-0.510259606,0.0213720359,,,,,,,,,,,,,,2022-11-15 21:12:43.996394+00:00,1.1586747194543545,0.014360770783815284,2.975549404078353,-1.732175840811565,2.419392715666431,0.1405741,305.6009516238777,0.22580352051544578,0.22153983890318985,,,,,,,,0.07634232288329411,0.9970816665332799,,,,,,,,,,,,
2022-11-15 14:12:44.197159-07:00,19.400141,3.02,2.42,-1.81,0.16,17.39,969.04,35.35,24.0,0.0,-0.000425776,0.000106101,0.00182726,32.8213537,-111.787039,386.199091,-0.649461161,-0.513891622,0.02652392,,,,,,,,,,,,,,2022-11-15 21:12:44.197159+00:00,1.1619050027983278,0.014413135065468773,3.0215962434224473,-1.7823469362146749,2.43993509283153,0.16182726,306.1477356480823,0.22674066739882925,0.22256708179661944,,,,,,,,0.24179985363381817,0.9703261466036377,,,,,,,,,,,,
2022-11-15 14:12:44.396828-07:00,19.59981,2.88,2.5,-1.41,0.13,16.75,969.04,36.83,25.0,0.0,-0.000259707,0.000614615,0.00247877,32.8213537,-111.787039,386.19896900000003,-0.640333478,-0.510550365,0.0173863035,,,,,,,,,,,,,,2022-11-15 21:12:44.396828+00:00,1.1644700914557646,0.014454782033643442,2.8696855305407913,-1.3813580933228276,2.515341897676478,0.13247877,298.7744062222232,0.2196660299127085,0.21536160674955918,,,,,,,,0.9211405628574056,0.38923009063886865,,,,,,,,,,,,
2022-11-15 14:12:44.597667-07:00,19.800649,2.79,2.44,-1.36,-0.06,16.71,969.04,36.9,26.0,0.0,-0.000517074,0.000684005,0.00202758,32.8213537,-111.787039,386.200555,-0.632086196,-0.512462224,0.0332216651,2.05986,-8.93621,6316.84,28.8455,11405.0,0.154655,-1.0,16.0,-1299.0,78.0,,0.0,,2022-11-15 21:12:44.597667+00:00,1.1646307855965852,0.014457393015467898,2.7926400582876494,-1.3323157385744286,2.454337643418224,-0.05797242,298.4949357243357,0.21887090188962663,0.2146153153313067,2.902622755226625,302.87117185554393,-1.5748417505211216,2.4313056596657545,-0.0124215568,0.21883922710612308,0.22300697348777948,0.7977157201679851,0.6030336887744108,0.9898081151960633,0.16115065952126834,,,,,,,,,,
2022-11-15 14:12:44.796667-07:00,19.999649,2.97,2.45,-1.67,-0.18,16.5,969.02,37.45,26.0,0.0,-1.03902e-05,-5.7841e-05,0.00133355,32.8213537,-111.787039,386.191949,-0.627848923,-0.507793183,0.0246135779,,,,,,,,,,,,,,2022-11-15 21:12:44.796667+00:00,1.1654511037723523,0.014471023898023568,2.9650529145239086,-1.6431109380629143,2.468142060567976,-0.17866645,303.65281248850306,0.22404470595698844,0.21993746020644134,,,,,,,,0.9842460994843758,-0.17680389036950567,,,,,,,,,,,,
2022-11-15 14:12:44.996592-07:00,20.199574,2.87,2.26,-1.76,-0.12,16.77,969.02,36.73,25.0,0.0,-0.000251817,0.000218965,0.000225056,32.8213538,-111.787039,386.19054600000004,-0.623667329,-0.506042451,0.034494952,,,,,,,,,,,,,,2022-11-15 21:12:44.996592+00:00,1.164365729193094,0.014453384766105323,2.8641390293583266,-1.7350770464307625,2.278771603834566,-0.119774944,307.28596919457556,0.2257125622807446,0.22171467144668858,,,,,,,,0.656167957133031,0.7546148766303675,,,,,,,,,,,,
2022-11-15 14:12:45.196351-07:00,20.399333,2.89,2.27,-1.78,-0.09,16.77,969.04,36.81,24.0,0.0,6.12218e-06,0.000181156,0.000996431,32.8213538,-111.787039,386.190759,-0.618456854,-0.505578672,0.0242451996,,,,,,,,,,,,,,2022-11-15 21:12:45.196351+00:00,1.1643897610134732,0.014453476898690277,2.884560982336602,-1.7552129984138007,2.2890870212855465,-0.08900356899999999,307.48006178801853,0.22608289323757283,0.2221262253671425,,,,,,,,0.9994294352540007,-0.033775789374477755,,,,,,,,,,,,
2022-11-15 14:12:45.397166-07:00,20.600148,2.95,2.29,-1.85,0.03,16.76,969.03,36.78,25.0,0.0,8.49602e-05,0.00102889,0.00114302,32.8213538,-111.787039,386.195306,-0.611508707,-0.506151938,0.0323265167,,,,,,,,,,,,,,2022-11-15 21:12:45.397166+00:00,1.1644179085245214,0.01445408336577709,2.943337753813199,-1.824425404314732,2.3096989148183695,0.03114302,308.3051194307329,0.2274365566005885,0.22355524163420773,,,,,,,,0.9966080524729931,-0.08229453047431413,,,,,,,,,,,,
2022-11-15 14:12:45.598186-07:00,20.801168,3.13,2.58,-1.78,-0.08,16.54,969.03,37.36,26.0,0.0,0.000398078,-0.000358743,0.00183216,32.8213537,-111.787039,386.198053,-0.606066424,-0.507806555,0.0195559676,2.05922,-9.33351,6320.53,28.8462,11462.0,0.230075,-1.0,20.0,-1303.0,78.0,,0.0,,2022-11-15 21:12:45.598186+00:00,1.1653022053241189,0.01446845412385551,3.1349843250195537,-1.752968805034401,2.599081969983742,-0.07816784,303.99796785816204,0.22605221381807203,0.222110197490444,3.1664370947413696,304.1666953951615,-1.7642266012305114,2.622810822879257,-0.06085066840000001,0.22235852163854286,0.22629066926892355,0.6694520432167249,0.7428552765060986,0.4452810246709522,0.1597640834737808,,,,,,,,,,
2022-11-15 14:12:45.796752-07:00,20.999734,3.43,2.97,-1.72,-0.14,16.69,969.01,37.0,25.0,0.0,0.000148616,0.000971288,0.000737977,32.8213537,-111.787039,386.19631300000003,-0.598807361,-0.513543027,0.0316531993,,,,,,,,,,,,,,2022-11-15 21:12:45.796752+00:00,1.164675091619444,0.014458560561405787,3.4317500327630337,-1.687895397612834,2.987962083776582,-0.139262023,299.4620412279514,0.2248943076632345,0.2208950990465749,,,,,,,,0.9884957050983116,-0.15124893719359372,,,,,,,,,,,,
2022-11-15 14:12:45.996873-07:00,21.199855,3.44,2.91,-1.83,-0.03,16.75,969.02,36.83,24.0,0.0,-0.000456887,-0.000678309,0.00103707,32.8213536,-111.787039,386.201135,-0.589723303,-0.514382699,0.0221622335,,,,,,,,,,,,,,2022-11-15 21:12:45.996873+00:00,1.164446057977447,0.014454689883952201,3.4375523797744583,-1.8006304007767895,2.928224124532045,-0.028962929999999998,301.5882866709428,0.22698737502514993,0.22310584465434508,,,,,,,,0.8293991644518501,-0.5586564472075596,,,,,,,,,,,,
2022-11-15 14:12:46.196663-07:00,21.399645,3.36,2.75,-1.92,0.02,16.69,969.03,36.85,24.0,0.0,-0.000623788,0.00110388,0.000258261,32.8213536,-111.787039,386.195123,-0.583629977,-0.51914231,0.0227124457,,,,,,,,,,,,,,2022-11-15 21:12:46.196663+00:00,1.1646991300729506,0.014458652761783394,3.35280027982074,-1.890784767736317,2.768790833281264,0.020258261,304.3288514736922,0.22878615466146277,0.2250183588729588,,,,,,,,0.8706115429831173,0.4919710776301344,,,,,,,,,,,,
2022-11-15 14:12:46.396502-07:00,21.599484,3.09,2.51,-1.81,-0.01,16.71,969.03,37.0,26.0,0.0,-0.000709435,-0.00035293,-0.0011459,32.8213536,-111.787039,386.19173600000005,-0.577052935,-0.519603599,0.0267579107,,,,,,,,,,,,,,2022-11-15 21:12:46.396502+00:00,1.1646187671991444,0.014457346923345386,3.0941676228838264,-1.784982160922796,2.5273923248458945,-0.0111459,305.2318212264988,0.2265633438827775,0.22283758731357764,,,,,,,,0.4454079833261969,-0.895327721222397,,,,,,,,,,,,
2022-11-15 14:12:46.598249-07:00,21.801231,2.97,2.32,-1.85,-0.01,16.86,969.03,36.61,27.0,0.0,-0.00111491,-0.000114914,-0.00125191,32.8213536,-111.787039,386.191217,-0.570862061,-0.521494938,0.0251196673,2.05713,-9.36616,6300.88,28.8471,11444.0,0.242755,-1.0,18.0,-1292.0,78.0,,0.0,,2022-11-15 21:12:46.598249+00:00,1.1640163989529464,0.014447560698120263,2.9664974429069826,-1.8269083323514805,2.3372019647344127,-0.01125191,308.013485273199,0.22733847731769405,0.22370944197637654,3.151217825580951,306.4371965356887,-1.8686309355059962,2.535951347129764,0.0069777202,0.2245806647305729,0.22824333742729763,0.10252704539073819,-0.9947302171762178,2.1187872551739555,0.2258564283349891,,,,,,,,,,
2022-11-15 14:12:46.797185-07:00,22.000167,3.08,2.39,-1.93,0.01,16.94,969.02,36.38,26.0,0.0,-0.000910531,-4.11005e-05,-0.00126232,32.8213536,-111.787039,386.19198,-0.568192871,-0.524521317,0.0248204947,,,,,,,,,,,,,,2022-11-15 21:12:46.797185+00:00,1.1636833817355368,0.014442300835719415,3.0712815801954227,-1.9062453491762892,2.408111129825918,0.008737680000000001,308.3649116537341,0.22895602391666173,0.22536801391520003,,,,,,,,0.045093129236803975,-0.9989827874871683,,,,,,,,,,,,
2022-11-15 14:12:46.997325-07:00,22.200307,3.27,2.62,-1.96,0.03,17.32,969.02,35.65,24.0,0.0,-0.000945355,-0.000172914,-0.00170953,32.8213536,-111.787039,386.18606,-0.565170649,-0.519323503,0.02820398,,,,,,,,,,,,,,2022-11-15 21:12:46.997325+00:00,1.1621610225071843,0.014417586767398996,3.271342202097783,-1.9342340673430973,2.6382604829613303,0.028290469999999998,306.2469130513191,0.2295726873578922,0.22596992157475151,,,,,,,,0.17992408130195725,-0.9836804994344691,,,,,,,,,,,,
2022-11-15 14:12:47.196489-07:00,22.399471,3.04,2.64,-1.42,0.47,17.57,969.04,35.0,24.0,0.0,-0.000831781,-6.80057e-05,-0.00123391,32.8213535,-111.787039,386.186792,-0.559855724,-0.52152731,0.0315621357,,,,,,,,,,,,,,2022-11-15 21:12:47.196489+00:00,1.161185606470233,0.014401465353034387,2.9969610672933724,-1.3942043268842774,2.6529172497025586,0.46876608999999997,297.7235560513753,0.21959997282704993,0.21581794157146017,,,,,,,,0.08148724149237223,-0.9966743848790155,,,,,,,,,,,,
2022-11-15 14:12:47.397255-07:00,22.600237,3.24,2.8,-1.62,0.12,16.52,969.02,37.4,26.0,0.0,-0.000726297,0.000282426,-0.00110171,32.8213535,-111.787039,386.188257,-0.556771218,-0.523892476,0.0227989719,,,,,,,,,,,,,,2022-11-15 21:12:47.397255+00:00,1.1653706362676903,0.014469715809628364,3.234101269442458,-1.5924325402053263,2.814883590116034,0.11889828999999999,299.4976567405888,0.22295929100877093,0.21923617875008827,,,,,,,,0.36242080948679456,0.9320145690121676,,,,,,,,,,,,
