Timestamp,Seconds,S,Um,Vm,Wm,T,P,H,MD,Sts,Vx,Vy,Vz,Lat,Lon,Alt,Yaw,Roll,Pitch,CH4,C2H6,H20,T_a,Batt,R,C2C1,Power,Current,SOC,Lat_a,Lon_a,TS,Timestamp_UTC
2022-11-15 14:12:24.797018-07:00,0.0,2.01,1.12,-1.67,0.02,17.14,969.06,35.54,26.0,0.0,-0.000545984,-0.000352492,-0.00323383,32.8213565,-111.787043,385.33316,-1.33054807,-0.51217585,0.0309794284,,,,,,,,,,,,,,2022-11-15 21:12:24.797018+00:00
2022-11-15 14:12:24.996448-07:00,0.19943,2.26,1.06,-1.99,0.02,17.42,969.05,34.87,27.0,0.0,-0.000563078,0.000426191,-0.00210705,32.8213564,-111.787043,385.336914,-1.32229989,-0.509743907,0.0155328742,,,,,,,,,,,,,,2022-11-15 21:12:24.996448+00:00
2022-11-15 14:12:25.197077-07:00,0.400059,2.42,0.68,-2.33,0.04,16.88,969.06,36.04,25.0,0.0,-0.000694247,6.86827e-06,-0.00115846,32.8213563,-111.787043,385.338165,-1.3152518,-0.511433677,0.0222333402,,,,,,,,,,,,,,2022-11-15 21:12:25.197077+00:00
2022-11-15 14:12:25.396904-07:00,0.599886,2.36,0.64,-2.27,0.04,16.83,969.07,36.26,24.0,0.0,-0.000465056,0.000449728,-0.000999271,32.8213563,-111.787043,385.336243,-1.30696814,-0.50690403,0.0141733497,,,,,,,,,,,,,,2022-11-15 21:12:25.396904+00:00
2022-11-15 14:12:25.596500-07:00,0.799482,2.23,0.69,-2.12,-0.03,16.95,969.06,36.08,25.0,0.0,-0.000502896,0.000343208,-7.80415e-05,32.8213562,-111.787043,385.343475,-1.29727129,-0.504966596,0.0176375447,2.05947,-9.16662,6225.92,28.8286,11461.0,0.115642,-1.0,20.0,-1317.0,78.0,,0.0,,2022-11-15 21:12:25.596500+00:00
2022-11-15 14:12:25.797300-07:00,1.000282,2.43,1.04,-2.19,0.07,16.66,969.06,36.7,26.0,0.0,-0.000813722,0.000383195,0.000734603,32.8213562,-111.787043,385.342896,-1.28579859,-0.50348557,0.0195984928,,,,,,,,,,,,,,2022-11-15 21:12:25.797300+00:00
2022-11-15 14:12:25.996529-07:00,1.199511,2.47,1.12,-2.21,-0.01,17.03,969.06,35.88,27.0,0.0,-0.000260789,3.16583e-05,-0.00159792,32.8213562,-111.787043,385.33609,-1.27846645,-0.501326555,0.0187322827,,,,,,,,,,,,,,2022-11-15 21:12:25.996529+00:00
2022-11-15 14:12:26.197012-07:00,1.399994,2.42,1.18,-2.11,-0.02,16.87,969.06,36.16,26.0,0.0,-0.000530683,0.000690226,-0.00148507,32.8213561,-111.787042,385.332886,-1.26994204,-0.505474001,0.0239953574,,,,,,,,,,,,,,2022-11-15 21:12:26.197012+00:00
2022-11-15 14:12:26.396557-07:00,1.599539,2.34,1.35,-1.92,0.04,16.64,969.05,36.75,24.0,0.0,-0.000526404,0.000294405,-0.00131023,32.8213561,-111.787042,385.33609,-1.26192386,-0.507868755,0.0210885614,,,,,,,,,,,,,,2022-11-15 21:12:26.396557+00:00
2022-11-15 14:12:26.596685-07:00,1.799667,2.34,1.75,-1.54,0.24,16.45,969.06,37.14,24.0,0.0,-0.000639661,0.000450949,-0.000812875,32.821356,-111.787042,385.336578,-1.2517211,-0.510183707,0.0323645896,2.0572,-9.83381,6232.36,28.8294,11444.0,0.150619,-1.0,18.0,-1306.0,78.0,,0.0,,2022-11-15 21:12:26.596685+00:00
2022-11-15 14:12:26.796822-07:00,1.999804,2.35,1.7,-1.59,0.31,16.38,969.05,37.26,26.0,0.0,-0.000782922,0.000202547,-0.000274626,32.8213559,-111.787042,385.337341,-1.24290535,-0.510009831,0.0294503496,,,,,,,,,,,,,,2022-11-15 21:12:26.796822+00:00
2022-11-15 14:12:26.996718-07:00,2.1997,2.31,1.69,-1.56,0.31,16.36,969.05,37.4,26.0,0.0,-0.000114344,0.000585709,1.06847e-05,32.8213558,-111.787042,385.338745,-1.23581839,-0.508950539,0.0394156174,,,,,,,,,,,,,,2022-11-15 21:12:26.996718+00:00
2022-11-15 14:12:27.196406-07:00,2.399388,2.24,1.63,-1.5,0.33,16.36,969.05,37.45,25.0,0.0,-0.000530535,0.000302092,0.000471348,32.8213558,-111.787042,385.338745,-1.22825305,-0.509047663,0.0326325045,,,,,,,,,,,,,,2022-11-15 21:12:27.196406+00:00
2022-11-15 14:12:27.397108-07:00,2.60009,2.11,1.52,-1.44,0.29,16.38,969.06,37.35,24.0,0.0,-0.000348668,0.000593721,0.000245974,32.8213558,-111.787042,385.340363,-1.21892252,-0.508585025,0.035449798,,,,,,,,,,,,,,2022-11-15 21:12:27.397108+00:00
2022-11-15 14:12:27.596858-07:00,2.79984,2.12,1.59,-1.39,0.21,16.43,969.05,37.13,24.0,0.0,-0.000317753,-7.67752e-05,1.83692e-05,32.8213557,-111.787042,385.340027,-1.20982771,-0.508184611,0.030963867,2.05829,-8.93313,6238.67,28.8301,11423.0,0.101561,-1.0,20.0,-1311.0,78.0,,0.0,,2022-11-15 21:12:27.596858+00:00
2022-11-15 14:12:27.796967-07:00,2.999949,2.26,1.67,-1.51,0.24,16.43,969.05,37.17,26.0,0.0,-0.000715854,0.000124774,-6.06004e-05,32.8213557,-111.787042,385.338196,-1.20459331,-0.51349683,0.0288667419,,,,,,,,,,,,,,2022-11-15 21:12:27.796967+00:00
2022-11-15 14:12:27.996409-07:00,3.199391,2.41,1.85,-1.52,0.27,16.53,969.07,36.96,26.0,0.0,-0.000532506,1.53758e-05,-0.00030894,32.8213557,-111.787042,385.334106,-1.19770765,-0.516012916,0.0318746569,,,,,,,,,,,,,,2022-11-15 21:12:27.996409+00:00
2022-11-15 14:12:28.196630-07:00,3.399612,2.14,1.51,-1.5,0.27,16.6,969.05,36.84,25.0,0.0,-0.000846698,0.000428735,-0.00115165,32.8213556,-111.787042,385.328644,-1.19181535,-0.51600513,0.0326298732,,,,,,,,,,,,,,2022-11-15 21:12:28.196630+00:00
2022-11-15 14:12:28.396891-07:00,3.599873,2.26,1.62,-1.55,0.23,16.52,969.05,37.03,25.0,0.0,-0.00079277,0.000625481,-0.00116061,32.8213556,-111.787042,385.334259,-1.18334277,-0.516061785,0.0302142937,,,,,,,,,,,,,,2022-11-15 21:12:28.396891+00:00
2022-11-15 14:12:28.597297-07:00,3.800279,2.26,1.73,-1.45,0.18,16.59,969.06,36.9,24.0,0.0,-0.000600382,0.000683391,0.000686329,32.8213555,-111.787042,385.339569,-1.17974954,-0.517003323,0.0303322279,2.05907,-9.22785,6241.68,28.8308,11485.0,-0.00235977,-1.0,19.0,-1303.0,78.0,,0.0,,2022-11-15 21:12:28.597297+00:00
2022-11-15 14:12:28.797250-07:00,4.000232,2.12,1.65,-1.32,0.2,16.53,969.06,37.09,26.0,0.0,-0.000844905,0.000580687,-1.53047e-05,32.8213554,-111.787042,385.338196,-1.16924212,-0.518634814,0.0337825278,,,,,,,,,,,,,,2022-11-15 21:12:28.797250+00:00
2022-11-15 14:12:28.996879-07:00,4.199861,2.3,1.75,-1.48,0.24,16.64,969.06,36.64,26.0,0.0,-0.000702239,0.000848769,-0.00108545,32.8213554,-111.787042,385.335754,-1.16367406,-0.51795925,0.0274231856,,,,,,,,,,,,,,2022-11-15 21:12:28.996879+00:00
2022-11-15 14:12:29.197275-07:00,4.400257,2.27,1.56,-1.63,0.21,16.63,969.06,36.82,25.0,0.0,-0.000322917,0.000565001,-0.000987392,32.8213553,-111.787042,385.336975,-1.15383011,-0.519465017,0.0309652544,,,,,,,,,,,,,,2022-11-15 21:12:29.197275+00:00
2022-11-15 14:12:29.397084-07:00,4.600066,2.2,1.52,-1.58,0.26,16.68,969.05,36.75,25.0,0.0,-0.000822044,-9.1729e-05,-0.000719638,32.8213553,-111.787042,385.336975,-1.14653552,-0.517361572,0.0255556472,,,,,,,,,,,,,,2022-11-15 21:12:29.397084+00:00
2022-11-15 14:12:29.598257-07:00,4.801239,2.1,1.59,-1.36,0.23,16.67,969.05,36.73,25.0,0.0,-0.00101189,-4.37429e-05,-0.000525998,32.8213552,-111.787042,385.335602,-1.13903291,-0.515937058,0.0277806083,2.05936,-9.09799,6230.44,28.8315,11418.0,0.00544092,-1.0,19.0,-1303.0,78.0,,0.0,,2022-11-15 21:12:29.598257+00:00
2022-11-15 14:12:29.797277-07:00,5.000259,2.08,1.57,-1.35,0.23,16.65,969.07,36.72,26.0,0.0,-0.000784774,0.00043172,-0.000814943,32.8213552,-111.787041,385.336487,-1.13046207,-0.513303148,0.0246938794,,,,,,,,,,,,,,2022-11-15 21:12:29.797277+00:00
2022-11-15 14:12:29.996820-07:00,5.199802,2.0,1.56,-1.23,0.21,16.67,969.06,36.77,26.0,0.0,-0.000810917,2.34439e-05,-0.00168051,32.8213552,-111.787041,385.336487,-1.12301397,-0.511337282,0.0293895616,,,,,,,,,,,,,,2022-11-15 21:12:29.996820+00:00
2022-11-15 14:12:30.197150-07:00,5.400132,1.88,1.57,-1.02,0.21,16.99,969.06,35.99,25.0,0.0,-0.000471901,0.000471561,-0.00139592,32.8213552,-111.787041,385.336487,-1.11666835,-0.506961513,0.0287456961,,,,,,,,,,,,,,2022-11-15 21:12:30.197150+00:00
2022-11-15 14:12:30.396691-07:00,5.599673,1.79,1.5,-0.93,0.31,17.28,969.07,35.33,25.0,0.0,-0.000434078,-0.000436727,-0.000618298,32.8213551,-111.787041,385.337402,-1.10872351,-0.504845329,0.033624583,,,,,,,,,,,,,,2022-11-15 21:12:30.396691+00:00
2022-11-15 14:12:30.598115-07:00,5.801097,1.51,1.13,-0.98,0.15,17.43,969.07,35.0,25.0,0.0,-0.000531003,0.000399785,-0.000466103,32.8213551,-111.787041,385.33963,-1.10011076,-0.505663655,0.034454818,2.05794,-8.95586,6214.93,28.8327,11418.0,-0.02073,-1.0,19.0,-1303.0,78.0,,0.0,,2022-11-15 21:12:30.598115+00:00
2022-11-15 14:12:30.796440-07:00,5.999422,1.64,1.31,-0.97,0.2,17.22,969.07,35.45,26.0,0.0,-0.000234577,0.000425683,0.000124246,32.8213551,-111.787041,385.337006,-1.09381463,-0.506299849,0.0346442023,,,,,,,,,,,,,,2022-11-15 21:12:30.796440+00:00
2022-11-15 14:12:30.996706-07:00,6.199688,1.75,1.46,-0.96,0.21,16.99,969.07,35.99,26.0,0.0,-0.000509051,0.000788132,-0.0001795,32.821355,-111.787041,385.338745,-1.08503178,-0.508464738,0.0356946743,,,,,,,,,,,,,,2022-11-15 21:12:30.996706+00:00
2022-11-15 14:12:31.197225-07:00,6.400207,2.08,1.64,-1.27,0.16,16.88,969.06,36.22,25.0,0.0,-0.000315343,0.000203209,-0.000187162,32.821355,-111.787041,385.339386,-1.07706329,-0.506505694,0.030330607,,,,,,,,,,,,,,2022-11-15 21:12:31.197225+00:00
2022-11-15 14:12:31.396787-07:00,6.599769,2.17,1.59,-1.47,0.14,16.75,969.05,36.54,25.0,0.0,-0.000121962,0.000807095,-0.00145207,32.821355,-111.787041,385.333405,-1.06978021,-0.510622611,0.0329599735,,,,,,,,,,,,,,2022-11-15 21:12:31.396787+00:00
2022-11-15 14:12:31.598240-07:00,6.801222,2.1,1.79,-1.09,0.12,17.2,969.06,35.56,25.0,0.0,-0.000761654,0.000235203,-0.0016608,32.821355,-111.787041,385.331726,-1.06395749,-0.512557533,0.0298590104,2.06157,-9.31298,6217.03,28.8337,11473.0,0.0444198,-1.0,21.0,-1295.0,78.0,,0.0,,2022-11-15 21:12:31.598240+00:00
2022-11-15 14:12:31.796881-07:00,6.999863,2.03,1.54,-1.31,0.1,17.04,969.06,35.87,27.0,0.0,-0.000147388,0.000236532,-0.00103976,32.8213549,-111.787041,385.333618,-1.05687354,-0.514881739,0.0349587246,,,,,,,,,,,,,,2022-11-15 21:12:31.796881+00:00
2022-11-15 14:12:31.996488-07:00,7.19947,1.72,1.5,-0.84,0.1,17.43,969.05,35.04,26.0,0.0,-0.000625585,0.000113057,-0.00117756,32.8213549,-111.787041,385.335907,-1.05455901,-0.516301951,0.0361773133,,,,,,,,,,,,,,2022-11-15 21:12:31.996488+00:00
2022-11-15 14:12:32.196431-07:00,7.399413,2.04,1.91,-0.65,0.27,17.76,969.06,34.36,25.0,0.0,-0.000861456,0.000683031,9.62711e-06,32.8213549,-111.787041,385.339111,-1.04491745,-0.517914802,0.0438590702,,,,,,,,,,,,,,2022-11-15 21:12:32.196431+00:00
2022-11-15 14:12:32.397310-07:00,7.600292,1.77,1.06,-1.4,0.15,17.57,969.06,34.78,24.0,0.0,-0.000592801,0.000238878,0.00109942,32.8213548,-111.787041,385.345245,-1.04043171,-0.519047906,0.0361512532,,,,,,,,,,,,,,2022-11-15 21:12:32.397310+00:00
2022-11-15 14:12:32.598191-07:00,7.801173,1.87,0.75,-1.7,0.15,17.18,969.08,35.65,24.0,0.0,-0.000546462,0.00085383,0.000558245,32.8213548,-111.787041,385.343658,-1.03047928,-0.515895183,0.0388360551,2.05726,-9.32774,6217.12,28.8341,11449.0,0.00833445,-1.0,20.0,-1288.0,78.0,,0.0,,2022-11-15 21:12:32.598191+00:00
2022-11-15 14:12:32.796938-07:00,7.99992,1.7,1.09,-1.28,0.27,17.19,969.06,35.63,25.0,0.0,-0.000582892,0.000596871,-0.000459132,32.8213548,-111.787041,385.337006,-1.02167727,-0.517619875,0.038744948,,,,,,,,,,,,,,2022-11-15 21:12:32.796938+00:00
2022-11-15 14:12:32.997244-07:00,8.200226,1.49,1.06,-1.05,-0.04,17.58,969.07,34.67,26.0,0.0,-0.000860684,0.000220038,-0.00152369,32.8213548,-111.787041,385.335876,-1.01446972,-0.517547236,0.0371211136,,,,,,,,,,,,,,2022-11-15 21:12:32.997244+00:00
2022-11-15 14:12:33.196561-07:00,8.399543,1.6,0.97,-1.26,-0.13,17.46,969.08,35.03,25.0,0.0,-0.00056801,0.000210018,-0.00151663,32.8213547,-111.787041,385.332764,-1.00729604,-0.517095566,0.0365461636,,,,,,,,,,,,,,2022-11-15 21:12:33.196561+00:00
2022-11-15 14:12:33.396835-07:00,8.599817,1.65,0.82,-1.41,0.22,17.25,969.07,35.44,24.0,0.0,-0.000271739,-0.000116097,-0.00163009,32.8213547,-111.787041,385.334564,-1.00250103,-0.51804921,0.0356205027,,,,,,,,,,,,,,2022-11-15 21:12:33.396835+00:00
2022-11-15 14:12:33.598253-07:00,8.801235,1.82,1.04,-1.49,0.21,17.03,969.06,35.93,25.0,0.0,-0.000191827,0.000389971,-0.000226208,32.8213547,-111.787041,385.336761,-0.993899858,-0.521153438,0.0344095813,2.05979,-9.55836,6221.66,28.8353,11473.0,0.000180463,-1.0,20.0,-1284.0,78.0,,0.0,,2022-11-15 21:12:33.598253+00:00
2022-11-15 14:12:33.796641-07:00,8.999623,1.9,1.05,-1.56,0.23,17.05,969.07,35.95,27.0,0.0,-0.000701744,4.45408e-05,6.56533e-05,32.8213546,-111.787041,385.336029,-0.986909348,-0.525491886,0.0306908128,,,,,,,,,,,,,,2022-11-15 21:12:33.796641+00:00
2022-11-15 14:12:33.996352-07:00,9.199334,1.81,1.19,-1.36,0.13,17.31,969.06,35.39,26.0,0.0,-0.0005474,0.000977238,-0.000114398,32.8213546,-111.787041,385.337402,-0.979024793,-0.524957793,0.0334931352,,,,,,,,,,,,,,2022-11-15 21:12:33.996352+00:00
2022-11-15 14:12:34.196658-07:00,9.39964,1.9,1.66,-0.92,0.16,17.4,969.06,35.11,25.0,0.0,-0.00102319,0.000665277,0.000798085,32.8213546,-111.787041,385.339294,-0.97290371,-0.524012986,0.0315954829,,,,,,,,,,,,,,2022-11-15 21:12:34.196658+00:00
2022-11-15 14:12:34.396632-07:00,9.599614,1.79,1.5,-0.96,0.17,17.51,969.06,34.91,24.0,0.0,-9.45205e-05,0.00043552,0.000332314,32.8213546,-111.787041,385.341888,-0.965811384,-0.523042593,0.0339732095,,,,,,,,,,,,,,2022-11-15 21:12:34.396632+00:00
2022-11-15 14:12:34.598111-07:00,9.801093,1.6,1.3,-0.94,0.1,17.56,969.06,34.8,25.0,0.0,-0.000735932,0.000118633,0.000799575,32.8213545,-111.78704,385.344086,-0.959707751,-0.51979161,0.0344599773,2.0599,-9.40104,6236.44,28.836,11427.0,0.0189504,-1.0,18.0,-1298.0,78.0,,0.0,,2022-11-15 21:12:34.598111+00:00
2022-11-15 14:12:34.797290-07:00,10.000272,1.5,1.03,-1.1,-0.02,17.53,969.07,34.86,26.0,0.0,-0.000889227,0.000476497,0.000809278,32.8213545,-111.78704,385.34314,-0.952880354,-0.520886733,0.0353037259,,,,,,,,,,,,,,2022-11-15 21:12:34.797290+00:00
2022-11-15 14:12:34.996770-07:00,10.199752,1.41,1.06,-0.94,0.06,17.8,969.06,34.27,26.0,0.0,-0.000804979,-0.000237542,-2.78814e-05,32.8213545,-111.78704,385.340881,-0.951508191,-0.516764828,0.0298301255,,,,,,,,,,,,,,2022-11-15 21:12:34.996770+00:00
2022-11-15 14:12:35.197274-07:00,10.400256,1.59,1.24,-1.0,-0.01,17.6,969.05,34.72,25.0,0.0,-0.000617062,-0.000408033,-0.00112341,32.8213545,-111.78704,385.335144,-0.947828039,-0.514151007,0.0310382521,,,,,,,,,,,,,,2022-11-15 21:12:35.197274+00:00
2022-11-15 14:12:35.396490-07:00,10.599472,2.1,1.86,-0.96,0.1,17.06,969.06,35.92,24.0,0.0,-0.000741615,-0.000298696,-0.000784838,32.8213544,-111.78704,385.335785,-0.945223198,-0.512821601,0.0265580893,,,,,,,,,,,,,,2022-11-15 21:12:35.396490+00:00
2022-11-15 14:12:35.597691-07:00,10.800673,2.25,1.93,-1.15,0.16,16.9,969.07,36.24,24.0,0.0,-7.42634e-05,-0.000411439,-0.000441834,32.8213544,-111.78704,385.337402,-0.935116679,-0.513379565,0.0267596716,2.05923,-8.64315,6243.55,28.8376,11473.0,-0.00617504,-1.0,21.0,-1296.0,78.0,,0.0,,2022-11-15 21:12:35.597691+00:00
2022-11-15 14:12:35.796976-07:00,10.999958,2.07,1.76,-1.07,0.06,17.14,969.05,35.83,26.0,0.0,-0.000715038,-0.000321318,-0.000816938,32.8213544,-111.78704,385.331482,-0.925905842,-0.509624005,0.0303799225,,,,,,,,,,,,,,2022-11-15 21:12:35.796976+00:00
2022-11-15 14:12:35.997197-07:00,11.200179,1.88,1.53,-1.1,-0.03,17.45,969.06,35.05,26.0,0.0,-0.000426111,-0.000790535,-0.00183051,32.8213544,-111.78704,385.327545,-0.918064291,-0.510546378,0.0293989864,,,,,,,,,,,,,,2022-11-15 21:12:35.997197+00:00
2022-11-15 14:12:36.197295-07:00,11.400277,2.23,1.98,-1.02,0.11,17.18,969.04,35.64,25.0,0.0,-0.000770657,-0.000303445,-0.000309528,32.8213543,-111.78704,385.334412,-0.907661971,-0.509053972,0.0289127223,,,,,,,,,,,,,,2022-11-15 21:12:36.197295+00:00
2022-11-15 14:12:36.396703-07:00,11.599685,2.33,2.07,-1.04,0.21,17.16,969.05,35.69,25.0,0.0,-0.000864168,-0.00036814,0.00114306,32.8213543,-111.78704,385.340088,-0.902480046,-0.512329206,0.0241515113,,,,,,,,,,,,,,2022-11-15 21:12:36.396703+00:00
2022-11-15 14:12:36.597681-07:00,11.800663,2.09,1.8,-1.06,0.13,17.23,969.06,35.57,24.0,0.0,-0.00022516,-0.000354341,0.00136183,32.8213543,-111.78704,385.34021,-0.897280979,-0.50967247,0.0229812143,2.05985,-8.6041,6245.9,28.8385,11435.0,0.0953077,-1.0,18.0,-1297.0,78.0,,0.0,,2022-11-15 21:12:36.597681+00:00
2022-11-15 14:12:36.796919-07:00,11.999901,1.95,1.62,-1.07,0.14,17.31,969.05,35.35,26.0,0.0,-2.22594e-05,-0.000576686,0.000368494,32.8213543,-111.78704,385.340576,-0.89281954,-0.509373512,0.0188011566,,,,,,,,,,,,,,2022-11-15 21:12:36.796919+00:00
2022-11-15 14:12:36.997280-07:00,12.200262,2.12,1.73,-1.23,-0.07,17.4,969.05,35.11,25.0,0.0,9.98819e-05,-0.000117314,-1.91827e-05,32.8213542,-111.78704,385.342224,-0.884148486,-0.507887709,0.0263264915,,,,,,,,,,,,,,2022-11-15 21:12:36.997280+00:00
2022-11-15 14:12:37.196817-07:00,12.399799,2.28,1.94,-1.19,-0.01,17.41,969.05,35.27,24.0,0.0,-0.000401505,-0.000120894,-1.12055e-07,32.8213542,-111.78704,385.343048,-0.879281068,-0.510199066,0.0251169342,,,,,,,,,,,,,,2022-11-15 21:12:37.196817+00:00
2022-11-15 14:12:37.396920-07:00,12.599902,2.23,1.73,-1.41,-0.1,17.32,969.06,35.38,24.0,0.0,-8.06495e-05,-0.000207248,-0.000451916,32.8213542,-111.78704,385.340485,-0.869943523,-0.515177355,0.0344339205,,,,,,,,,,,,,,2022-11-15 21:12:37.396920+00:00
2022-11-15 14:12:37.597423-07:00,12.800405,2.19,1.67,-1.41,-0.07,17.21,969.06,35.66,25.0,0.0,0.000347408,-0.000373748,-0.000638576,32.8213542,-111.78704,385.340332,-0.868760667,-0.517523732,0.026184008,2.05968,-9.76874,6253.52,28.8389,11429.0,0.0649854,-1.0,20.0,-1290.0,78.0,,0.0,,2022-11-15 21:12:37.597423+00:00
2022-11-15 14:12:37.796516-07:00,12.999498,2.44,1.86,-1.58,-0.07,17.21,969.05,35.66,26.0,0.0,-0.000166715,-0.000298968,-0.000113962,32.8213542,-111.78704,385.344604,-0.862757254,-0.519423593,0.0313605617,,,,,,,,,,,,,,2022-11-15 21:12:37.796516+00:00
2022-11-15 14:12:37.996608-07:00,13.19959,2.44,1.92,-1.51,-0.05,17.28,969.04,35.45,26.0,0.0,-0.000410623,-4.35875e-05,0.000791237,32.8213542,-111.78704,385.34906,-0.858386068,-0.519992884,0.0244180671,,,,,,,,,,,,,,2022-11-15 21:12:37.996608+00:00
2022-11-15 14:12:38.197228-07:00,13.40021,2.38,1.97,-1.33,-0.14,17.28,969.05,35.57,25.0,0.0,-0.000624063,0.000241847,0.000533062,32.8213542,-111.78704,385.348267,-0.849292899,-0.520193293,0.03012311,,,,,,,,,,,,,,2022-11-15 21:12:38.197228+00:00
2022-11-15 14:12:38.397250-07:00,13.600232,2.12,1.66,-1.32,0.0,17.66,969.06,34.67,24.0,0.0,-0.000827841,0.000352947,0.00137191,32.8213542,-111.78704,385.353027,-0.839252007,-0.515981023,0.0293905721,,,,,,,,,,,,,,2022-11-15 21:12:38.397250+00:00
2022-11-15 14:12:38.598333-07:00,13.801315,2.34,1.76,-1.54,-0.07,18.02,969.05,33.81,25.0,0.0,-0.000216632,-6.76489e-05,0.000302451,32.8213541,-111.78704,385.346863,-0.835082108,-0.513941811,0.0298606279,2.06019,-8.74052,6245.36,28.84,11478.0,0.113264,-1.0,18.0,-1285.0,78.0,,0.0,,2022-11-15 21:12:38.598333+00:00
2022-11-15 14:12:38.797303-07:00,14.000285,2.52,1.91,-1.65,-0.02,17.86,969.05,34.15,27.0,0.0,-0.000262076,0.000837732,-0.000187732,32.8213541,-111.78704,385.342621,-0.829898324,-0.511292587,0.0268007728,,,,,,,,,,,,,,2022-11-15 21:12:38.797303+00:00
2022-11-15 14:12:38.997112-07:00,14.200094,2.37,1.89,-1.42,0.05,17.59,969.05,34.83,26.0,0.0,0.000174796,-0.000386819,-0.00142111,32.8213541,-111.78704,385.338898,-0.825899337,-0.514110843,0.0350613642,,,,,,,,,,,,,,2022-11-15 21:12:38.997112+00:00
2022-11-15 14:12:39.197248-07:00,14.40023,2.27,1.84,-1.31,0.13,17.65,969.06,34.65,25.0,0.0,5.9402e-05,0.000633339,-0.00147724,32.8213541,-111.78704,385.341064,-0.819178516,-0.516089017,0.0274210761,,,,,,,,,,,,,,2022-11-15 21:12:39.197248+00:00
2022-11-15 14:12:39.396944-07:00,14.599926,2.66,2.42,-1.07,0.21,17.83,969.06,34.29,25.0,0.0,-3.57768e-05,-0.00021583,-0.00147549,32.8213541,-111.78704,385.337402,-0.813868334,-0.515068288,0.0360099003,,,,,,,,,,,,,,2022-11-15 21:12:39.396944+00:00
2022-11-15 14:12:39.597720-07:00,14.800702,2.82,2.26,-1.69,0.01,17.77,969.03,34.42,26.0,0.0,-0.000381265,0.000429144,-0.000863703,32.8213541,-111.78704,385.338593,-0.803430243,-0.517900578,0.026214939,2.05979,-9.1891,6255.41,28.8407,11478.0,0.199724,-1.0,18.0,-1285.0,78.0,,0.0,,2022-11-15 21:12:39.597720+00:00
2022-11-15 14:12:39.797153-07:00,15.000135,2.54,1.94,-1.64,0.03,17.81,969.05,34.34,27.0,0.0,-0.000585095,4.0972e-05,0.000143515,32.8213541,-111.78704,385.341644,-0.799158491,-0.515886224,0.0249824049,,,,,,,,,,,,,,2022-11-15 21:12:39.797153+00:00
2022-11-15 14:12:39.996671-07:00,15.199653,2.8,2.34,-1.53,0.04,17.79,969.04,34.38,25.0,0.0,-2.37519e-05,-0.000336343,0.000220635,32.8213542,-111.78704,385.340179,-0.796087534,-0.513182955,0.0239745783,,,,,,,,,,,,,,2022-11-15 21:12:39.996671+00:00
2022-11-15 14:12:40.196927-07:00,15.399909,3.06,2.58,-1.65,-0.13,17.17,969.04,35.82,25.0,0.0,-0.000394665,-8.92305e-06,0.000720445,32.8213542,-111.78704,385.341522,-0.793089071,-0.512775803,0.0255141875,,,,,,,,,,,,,,2022-11-15 21:12:40.196927+00:00
2022-11-15 14:12:40.396446-07:00,15.599428,2.97,2.58,-1.47,-0.12,17.49,969.02,35.04,25.0,0.0,-0.000135924,0.000208389,-0.000143291,32.8213542,-111.78704,385.335693,-0.788868362,-0.514149582,0.0259647716,,,,,,,,,,,,,,2022-11-15 21:12:40.396446+00:00
2022-11-15 14:12:40.598351-07:00,15.801333,2.95,2.19,-1.97,0.1,17.78,969.05,34.46,26.0,0.0,-5.12371e-05,-0.000856928,-0.000432624,32.8213542,-111.78704,385.342682,-0.784280613,-0.512465506,0.0272998569,2.06066,-9.16025,6262.94,28.8418,11469.0,0.1885,-1.0,20.0,-1292.0,78.0,,0.0,,2022-11-15 21:12:40.598351+00:00
2022-11-15 14:12:40.797241-07:00,16.000223,2.61,1.77,-1.92,0.02,17.74,969.06,34.5,26.0,0.0,0.000303537,-8.39044e-05,-0.000246662,32.8213541,-111.78704,385.341034,-0.773566521,-0.51154414,0.0272141927,,,,,,,,,,,,,,2022-11-15 21:12:40.797241+00:00
2022-11-15 14:12:40.997309-07:00,16.200291,2.55,1.77,-1.84,0.05,17.88,969.05,34.23,25.0,0.0,-0.000181422,-0.000494669,-0.000298224,32.821354,-111.78704,385.346497,-0.765297305,-0.51668882,0.0282473557,,,,,,,,,,,,,,2022-11-15 21:12:40.997309+00:00
2022-11-15 14:12:41.196435-07:00,16.399417,2.58,1.64,-2.0,-0.03,18.21,969.06,33.49,25.0,0.0,-0.000619656,0.000479046,-0.000932657,32.821354,-111.78704,385.342102,-0.756016779,-0.516911689,0.0229244433,,,,,,,,,,,,,,2022-11-15 21:12:41.196435+00:00
2022-11-15 14:12:41.396828-07:00,16.59981,2.6,1.72,-1.95,-0.08,18.45,969.06,33.04,25.0,0.0,-0.000607984,0.000338881,-0.00140135,32.821354,-111.787039,385.343384,-0.747958719,-0.515967566,0.0170541855,,,,,,,,,,,,,,2022-11-15 21:12:41.396828+00:00
2022-11-15 14:12:41.598207-07:00,16.801189,2.74,2.02,-1.85,0.13,18.84,969.05,32.2,25.0,0.0,-0.000478548,0.000418343,-0.00155204,32.821354,-111.787039,385.339294,-0.739460569,-0.515211743,0.0199232553,2.06125,-8.56975,6274.89,28.8427,11441.0,0.298481,-1.0,18.0,-1287.0,78.0,,0.0,,2022-11-15 21:12:41.598207+00:00
2022-11-15 14:12:41.796748-07:00,16.99973,2.59,2.0,-1.64,0.19,18.95,969.06,32.05,26.0,0.0,-0.000916012,-0.000190034,-0.000683021,32.821354,-111.787039,385.342377,-0.731326233,-0.516817826,0.0236110458,,,,,,,,,,,,,,2022-11-15 21:12:41.796748+00:00
2022-11-15 14:12:41.997264-07:00,17.200246,2.45,1.81,-1.65,0.16,18.51,969.07,32.95,25.0,0.0,-0.000345629,-6.11956e-05,-0.000156859,32.8213539,-111.787039,385.344482,-0.724057703,-0.512372914,0.0264621398,,,,,,,,,,,,,,2022-11-15 21:12:41.997264+00:00
2022-11-15 14:12:42.197032-07:00,17.400014,2.27,1.61,-1.61,-0.03,17.6,969.07,34.85,24.0,0.0,-0.000662236,-0.000359342,-0.000187631,32.8213539,-111.787039,385.344666,-0.715194018,-0.509120682,0.0317051261,,,,,,,,,,,,,,2022-11-15 21:12:42.197032+00:00
2022-11-15 14:12:42.397216-07:00,17.600198,2.35,1.99,-1.22,0.28,17.8,969.06,34.4,25.0,0.0,-0.00046423,-7.53977e-05,0.00045438,32.8213539,-111.787039,385.343658,-0.703662062,-0.509055669,0.0375554977,,,,,,,,,,,,,,2022-11-15 21:12:42.397216+00:00
2022-11-15 14:12:42.597715-07:00,17.800697,2.48,2.05,-1.36,0.31,17.85,969.05,34.25,27.0,0.0,-0.000166035,9.35223e-05,0.000210536,32.8213539,-111.787039,385.344757,-0.703300004,-0.508368065,0.0341910752,2.05782,-9.00175,6288.09,28.8435,11423.0,0.231294,-1.0,18.0,-1303.0,78.0,,0.0,,2022-11-15 21:12:42.597715+00:00
2022-11-15 14:12:42.796431-07:00,17.999413,2.26,2.01,-1.01,0.2,17.92,969.05,34.19,25.0,0.0,0.000318477,0.00043809,-0.000272124,32.8213538,-111.787039,385.340302,-0.690175973,-0.503310348,0.0378848143,,,,,,,,,,,,,,2022-11-15 21:12:42.796431+00:00
2022-11-15 14:12:42.996849-07:00,18.199831,2.39,2.22,-0.86,0.25,18.59,969.07,32.75,25.0,0.0,7.8215e-06,0.000304248,-0.000704479,32.8213538,-111.787039,385.339996,-0.688755738,-0.500838548,0.0333646789,,,,,,,,,,,,,,2022-11-15 21:12:42.996849+00:00
2022-11-15 14:12:43.196858-07:00,18.39984,2.22,1.59,-1.54,-0.22,18.12,969.06,33.77,24.0,0.0,-0.000152427,-0.000303604,-0.00047945,32.8213538,-111.787039,385.339996,-0.680334716,-0.504782838,0.0369874813,,,,,,,,,,,,,,2022-11-15 21:12:43.196858+00:00
2022-11-15 14:12:43.397261-07:00,18.600243,2.42,2.0,-1.35,0.03,18.37,969.05,33.29,24.0,0.0,-5.97507e-05,-0.000520631,-0.000601509,32.8213538,-111.787039,385.339813,-0.674939457,-0.505274224,0.0316757076,,,,,,,,,,,,,,2022-11-15 21:12:43.397261+00:00
2022-11-15 14:12:43.597967-07:00,18.800949,2.17,1.81,-1.19,0.12,18.27,969.04,33.4,26.0,0.0,-0.000151891,-0.000634463,-0.000362751,32.8213537,-111.787039,385.338287,-0.668219524,-0.508040983,0.0311219319,2.05462,-9.2534,6311.19,28.844,11473.0,0.187323,-1.0,19.0,-1293.0,78.0,,0.0,,2022-11-15 21:12:43.597967+00:00
2022-11-15 14:12:43.796823-07:00,18.999805,2.77,2.08,-1.82,-0.19,18.31,969.04,33.36,26.0,0.0,0.000142885,1.02707e-05,-0.000358833,32.8213537,-111.787039,385.339722,-0.662801525,-0.511259081,0.0294103556,,,,,,,,,,,,,,2022-11-15 21:12:43.796823+00:00
2022-11-15 14:12:43.996394-07:00,19.199376,2.98,2.4,-1.76,0.14,18.2,969.04,33.56,25.0,0.0,-0.000725938,5.5582e-05,0.0005741,32.8213537,-111.787039,385.346985,-0.660151664,-0.510259606,0.0213720359,,,,,,,,,,,,,,2022-11-15 21:12:43.996394+00:00
2022-11-15 14:12:44.197159-07:00,19.400141,3.02,2.42,-1.81,0.16,17.39,969.04,35.35,24.0,0.0,-0.000425776,0.000106101,0.00182726,32.8213537,-111.787039,385.349091,-0.649461161,-0.513891622,0.02652392,,,,,,,,,,,,,,2022-11-15 21:12:44.197159+00:00
2022-11-15 14:12:44.396828-07:00,19.59981,2.88,2.5,-1.41,0.13,16.75,969.04,36.83,25.0,0.0,-0.000259707,0.000614615,0.00247877,32.8213537,-111.787039,385.348969,-0.640333478,-0.510550365,0.0173863035,,,,,,,,,,,,,,2022-11-15 21:12:44.396828+00:00
2022-11-15 14:12:44.597667-07:00,19.800649,2.79,2.44,-1.36,-0.06,16.71,969.04,36.9,26.0,0.0,-0.000517074,0.000684005,0.00202758,32.8213537,-111.787039,385.350555,-0.632086196,-0.512462224,0.0332216651,2.05986,-8.93621,6316.84,28.8455,11405.0,0.154655,-1.0,16.0,-1299.0,78.0,,0.0,,2022-11-15 21:12:44.597667+00:00
2022-11-15 14:12:44.796667-07:00,19.999649,2.97,2.45,-1.67,-0.18,16.5,969.02,37.45,26.0,0.0,-1.03902e-05,-5.7841e-05,0.00133355,32.8213537,-111.787039,385.341949,-0.627848923,-0.507793183,0.0246135779,,,,,,,,,,,,,,2022-11-15 21:12:44.796667+00:00
2022-11-15 14:12:44.996592-07:00,20.199574,2.87,2.26,-1.76,-0.12,16.77,969.02,36.73,25.0,0.0,-0.000251817,0.000218965,0.000225056,32.8213538,-111.787039,385.340546,-0.623667329,-0.506042451,0.034494952,,,,,,,,,,,,,,2022-11-15 21:12:44.996592+00:00
2022-11-15 14:12:45.196351-07:00,20.399333,2.89,2.27,-1.78,-0.09,16.77,969.04,36.81,24.0,0.0,6.12218e-06,0.000181156,0.000996431,32.8213538,-111.787039,385.340759,-0.618456854,-0.505578672,0.0242451996,,,,,,,,,,,,,,2022-11-15 21:12:45.196351+00:00
2022-11-15 14:12:45.397166-07:00,20.600148,2.95,2.29,-1.85,0.03,16.76,969.03,36.78,25.0,0.0,8.49602e-05,0.00102889,0.00114302,32.8213538,-111.787039,385.345306,-0.611508707,-0.506151938,0.0323265167,,,,,,,,,,,,,,2022-11-15 21:12:45.397166+00:00
2022-11-15 14:12:45.598186-07:00,20.801168,3.13,2.58,-1.78,-0.08,16.54,969.03,37.36,26.0,0.0,0.000398078,-0.000358743,0.00183216,32.8213537,-111.787039,385.348053,-0.606066424,-0.507806555,0.0195559676,2.05922,-9.33351,6320.53,28.8462,11462.0,0.230075,-1.0,20.0,-1303.0,78.0,,0.0,,2022-11-15 21:12:45.598186+00:00
2022-11-15 14:12:45.796752-07:00,20.999734,3.43,2.97,-1.72,-0.14,16.69,969.01,37.0,25.0,0.0,0.000148616,0.000971288,0.000737977,32.8213537,-111.787039,385.346313,-0.598807361,-0.513543027,0.0316531993,,,,,,,,,,,,,,2022-11-15 21:12:45.796752+00:00
2022-11-15 14:12:45.996873-07:00,21.199855,3.44,2.91,-1.83,-0.03,16.75,969.02,36.83,24.0,0.0,-0.000456887,-0.000678309,0.00103707,32.8213536,-111.787039,385.351135,-0.589723303,-0.514382699,0.0221622335,,,,,,,,,,,,,,2022-11-15 21:12:45.996873+00:00
2022-11-15 14:12:46.196663-07:00,21.399645,3.36,2.75,-1.92,0.02,16.69,969.03,36.85,24.0,0.0,-0.000623788,0.00110388,0.000258261,32.8213536,-111.787039,385.345123,-0.583629977,-0.51914231,0.0227124457,,,,,,,,,,,,,,2022-11-15 21:12:46.196663+00:00
2022-11-15 14:12:46.396502-07:00,21.599484,3.09,2.51,-1.81,-0.01,16.71,969.03,37.0,26.0,0.0,-0.000709435,-0.00035293,-0.0011459,32.8213536,-111.787039,385.341736,-0.577052935,-0.519603599,0.0267579107,,,,,,,,,,,,,,2022-11-15 21:12:46.396502+00:00
2022-11-15 14:12:46.598249-07:00,21.801231,2.97,2.32,-1.85,-0.01,16.86,969.03,36.61,27.0,0.0,-0.00111491,-0.000114914,-0.00125191,32.8213536,-111.787039,385.341217,-0.570862061,-0.521494938,0.0251196673,2.05713,-9.36616,6300.88,28.8471,11444.0,0.242755,-1.0,18.0,-1292.0,78.0,,0.0,,2022-11-15 21:12:46.598249+00:00
2022-11-15 14:12:46.797185-07:00,22.000167,3.08,2.39,-1.93,0.01,16.94,969.02,36.38,26.0,0.0,-0.000910531,-4.11005e-05,-0.00126232,32.8213536,-111.787039,385.34198,-0.568192871,-0.524521317,0.0248204947,,,,,,,,,,,,,,2022-11-15 21:12:46.797185+00:00
2022-11-15 14:12:46.997325-07:00,22.200307,3.27,2.62,-1.96,0.03,17.32,969.02,35.65,24.0,0.0,-0.000945355,-0.000172914,-0.00170953,32.8213536,-111.787039,385.33606,-0.565170649,-0.519323503,0.02820398,,,,,,,,,,,,,,2022-11-15 21:12:46.997325+00:00
2022-11-15 14:12:47.196489-07:00,22.399471,3.04,2.64,-1.42,0.47,17.57,969.04,35.0,24.0,0.0,-0.000831781,-6.80057e-05,-0.00123391,32.8213535,-111.787039,385.336792,-0.559855724,-0.52152731,0.0315621357,,,,,,,,,,,,,,2022-11-15 21:12:47.196489+00:00
2022-11-15 14:12:47.397255-07:00,22.600237,3.24,2.8,-1.62,0.12,16.52,969.02,37.4,26.0,0.0,-0.000726297,0.000282426,-0.00110171,32.8213535,-111.787039,385.338257,-0.556771218,-0.523892476,0.0227989719,,,,,,,,,,,,,,2022-11-15 21:12:47.397255+00:00
2022-11-15 14:12:47.597764-07:00,22.800746,3.23,2.67,-1.82,-0.09,16.24,969.04,38.11,27.0,0.0,-0.000898732,-0.00010399,-0.000994826,32.8213535,-111.787039,385.337372,-0.553891203,-0.522852648,0.0239007986,2.05885,-9.07353,6276.55,28.8483,11427.0,0.260857,-1.0,20.0,-1305.0,78.0,,0.0,,2022-11-15 21:12:47.597764+00:00
2022-11-15 14:12:47.797248-07:00,23.00023,3.14,2.55,-1.83,-0.07,16.36,969.04,37.78,26.0,0.0,-0.00112803,0.000439306,-0.00100407,32.8213535,-111.787039,385.336578,-0.547744791,-0.522546962,0.0184722403,,,,,,,,,,,,,,2022-11-15 21:12:47.797248+00:00
2022-11-15 14:12:47.996685-07:00,23.199667,3.35,2.7,-1.99,0.05,16.87,969.02,36.59,24.0,0.0,-0.000497513,-0.000128686,-0.00116159,32.8213535,-111.787039,385.337677,-0.54340411,-0.526624591,0.0172110131,,,,,,,,,,,,,,2022-11-15 21:12:47.996685+00:00
2022-11-15 14:12:48.196727-07:00,23.399709,3.68,3.27,-1.7,-0.01,17.14,969.01,35.13,25.0,0.0,-0.00143343,0.00046864,-0.000107631,32.8213535,-111.787039,385.339569,-0.538894608,-0.519951335,0.0202049406,,,,,,,,,,,,,,2022-11-15 21:12:48.196727+00:00
2022-11-15 14:12:48.397190-07:00,23.600172,4.05,3.58,-1.89,-0.06,16.71,969.01,37.0,26.0,0.0,-0.000567245,-1.76357e-05,0.000478841,32.8213535,-111.787038,385.344818,-0.530228201,-0.523665072,0.0169015702,,,,,,,,,,,,,,2022-11-15 21:12:48.397190+00:00
2022-11-15 14:12:48.597554-07:00,23.800536,4.05,3.52,-1.99,-0.09,16.57,969.0,37.29,27.0,0.0,-0.00111067,0.000753153,0.00089828,32.8213536,-111.787038,385.345001,-0.530778833,-0.52257164,0.00907117077,2.0573,-8.88695,6257.99,28.8491,11474.0,0.215547,-1.0,18.0,-1296.0,78.0,,0.0,,2022-11-15 21:12:48.597554+00:00
2022-11-15 14:12:48.797343-07:00,24.000325,3.88,3.37,-1.92,-0.05,16.58,969.01,36.45,26.0,0.0,-0.000509874,-0.000575547,0.000841916,32.8213535,-111.787038,385.345215,-0.520282737,-0.522189026,0.024507048,,,,,,,,,,,,,,2022-11-15 21:12:48.797343+00:00
2022-11-15 14:12:48.996592-07:00,24.199574,3.73,3.22,-1.86,-0.17,16.51,969.02,37.43,25.0,0.0,-0.000706137,0.00176097,0.000377475,32.8213534,-111.787038,385.344177,-0.512627588,-0.523720004,0.0224573624,,,,,,,,,,,,,,2022-11-15 21:12:48.996592+00:00
2022-11-15 14:12:49.197211-07:00,24.400193,3.54,3.07,-1.76,-0.24,16.49,969.02,37.52,24.0,0.0,-0.000678367,0.000185887,0.00023347,32.8213534,-111.787038,385.342834,-0.50588356,-0.521880136,0.0301947803,,,,,,,,,,,,,,2022-11-15 21:12:49.197211+00:00
2022-11-15 14:12:49.396963-07:00,24.599945,3.21,2.64,-1.82,-0.14,16.55,969.02,37.37,26.0,0.0,-0.00057825,0.00135577,0.000235462,32.8213534,-111.787038,385.345154,-0.499347415,-0.520640469,0.0213389088,,,,,,,,,,,,,,2022-11-15 21:12:49.396963+00:00
2022-11-15 14:12:49.597608-07:00,24.80059,3.24,2.73,-1.74,-0.16,16.79,969.03,36.0,27.0,0.0,-0.000201241,0.000347308,0.00102512,32.8213534,-111.787038,385.347961,-0.494271328,-0.51733447,0.0219948605,2.057,-9.75007,6246.16,28.8498,11415.0,0.295538,-1.0,17.0,-1291.0,78.0,,0.0,,2022-11-15 21:12:49.597608+00:00
2022-11-15 14:12:49.797276-07:00,25.000258,3.14,2.61,-1.75,-0.05,16.79,969.02,36.0,26.0,0.0,-2.19893e-05,0.000545328,0.000426977,32.8213534,-111.787038,385.347961,-0.487097396,-0.516220682,0.0232526693,,,,,,,,,,,,,,2022-11-15 21:12:49.797276+00:00
2022-11-15 14:12:49.996743-07:00,25.199725,3.02,2.57,-1.58,-0.17,16.88,969.03,35.75,25.0,0.0,-0.000360792,-0.000100046,0.000351748,32.8213534,-111.787038,385.345306,-0.484394823,-0.515264614,0.0193106027,,,,,,,,,,,,,,2022-11-15 21:12:49.996743+00:00
2022-11-15 14:12:50.197149-07:00,25.400131,3.22,2.72,-1.72,-0.05,17.14,969.03,35.17,24.0,0.0,-0.000106638,0.000255647,-0.000182613,32.8213535,-111.787038,385.343658,-0.479027766,-0.516776716,0.0212490292,,,,,,,,,,,,,,2022-11-15 21:12:50.197149+00:00
2022-11-15 14:12:50.396964-07:00,25.599946,3.69,3.09,-2.01,0.02,17.12,969.02,35.27,26.0,0.0,-0.000513787,0.000336585,0.000358852,32.8213535,-111.787038,385.342499,-0.47520916,-0.514275992,0.0136844175,,,,,,,,,,,,,,2022-11-15 21:12:50.396964+00:00
2022-11-15 14:12:50.597920-07:00,25.800902,3.22,2.74,-1.65,0.38,17.4,969.03,34.6,26.0,0.0,-0.000498442,0.00056433,-0.000497398,32.8213535,-111.787038,385.338898,-0.468263551,-0.515362648,0.0209384506,2.05723,-8.38092,6225.95,28.8514,11466.0,0.183004,-1.0,22.0,-1305.0,78.0,,0.0,,2022-11-15 21:12:50.597920+00:00
2022-11-15 14:12:50.796638-07:00,25.99962,3.34,2.51,-2.2,0.15,17.05,969.03,35.38,25.0,0.0,-0.000313148,-6.67278e-05,-0.000472149,32.8213534,-111.787038,385.340088,-0.465278425,-0.513289526,0.0145601792,,,,,,,,,,,,,,2022-11-15 21:12:50.796638+00:00
2022-11-15 14:12:50.996692-07:00,26.199674,3.32,2.62,-2.04,0.03,16.11,969.01,37.55,24.0,0.0,0.000393854,7.96839e-05,-0.000477257,32.8213533,-111.787038,385.341705,-0.457011395,-0.511300803,0.01732464,,,,,,,,,,,,,,2022-11-15 21:12:50.996692+00:00
2022-11-15 14:12:51.196823-07:00,26.399805,3.37,2.74,-1.97,-0.0,16.68,969.03,36.21,24.0,0.0,-0.000217659,-0.000300317,0.00095689,32.8213533,-111.787038,385.350342,-0.450879462,-0.51133566,0.0204988956,,,,,,,,,,,,,,2022-11-15 21:12:51.196823+00:00
2022-11-15 14:12:51.396785-07:00,26.599767,3.49,2.99,-1.79,-0.11,16.61,969.03,36.37,26.0,0.0,-0.000477808,0.000122642,1.89326e-05,32.8213533,-111.787038,385.347931,-0.445728833,-0.507395924,0.0201311876,,,,,,,,,,,,,,2022-11-15 21:12:51.396785+00:00
2022-11-15 14:12:51.598134-07:00,26.801116,3.2,2.54,-1.94,0.04,17.03,969.03,35.42,25.0,0.0,-0.000393798,-0.000234714,-0.00173935,32.8213533,-111.787038,385.346741,-0.437649072,-0.50721741,0.0289770288,2.05646,-9.28014,6224.3,28.852,11436.0,0.194945,-1.0,18.0,-1294.0,78.0,,0.0,,2022-11-15 21:12:51.598134+00:00
2022-11-15 14:12:51.796950-07:00,26.999932,3.35,2.57,-2.15,0.18,16.66,969.03,36.25,25.0,0.0,-0.000338163,-0.000296669,-0.00119291,32.8213533,-111.787038,385.34729,-0.430323819,-0.504894637,0.0187711995,,,,,,,,,,,,,,2022-11-15 21:12:51.796950+00:00
2022-11-15 14:12:51.996628-07:00,27.19961,3.01,1.98,-2.27,0.07,17.68,969.04,33.92,24.0,0.0,-0.000493881,0.000683146,-0.00123133,32.8213533,-111.787038,385.348541,-0.425340213,-0.504836462,0.0290957533,,,,,,,,,,,,,,2022-11-15 21:12:51.996628+00:00
2022-11-15 14:12:52.197089-07:00,27.400071,2.88,2.06,-2.01,0.03,18.05,969.02,33.25,25.0,0.0,-0.000392769,-0.00052858,-0.00114907,32.8213532,-111.787038,385.343414,-0.423251107,-0.505780605,0.0132288701,,,,,,,,,,,,,,2022-11-15 21:12:52.197089+00:00
2022-11-15 14:12:52.396804-07:00,27.599786,2.91,2.27,-1.82,0.15,18.32,969.03,32.69,26.0,0.0,0.000112877,0.00111156,-0.00128575,32.8213532,-111.787038,385.348602,-0.414070646,-0.506687374,0.0326858554,,,,,,,,,,,,,,2022-11-15 21:12:52.396804+00:00
2022-11-15 14:12:52.597832-07:00,27.800814,3.0,1.89,-2.33,0.16,17.84,969.04,33.66,25.0,0.0,-0.000510198,-0.001286,0.00130768,32.8213532,-111.787038,385.35556,-0.413848247,-0.507164019,0.0231139961,2.05395,-8.47472,6216.09,28.8536,11433.0,-0.00127265,-1.0,19.0,-1304.0,78.0,,0.0,,2022-11-15 21:12:52.597832+00:00
2022-11-15 14:12:52.796413-07:00,27.999395,2.94,1.86,-2.28,0.11,16.95,969.05,35.55,25.0,0.0,-0.000215097,0.00127617,-0.000429659,32.8213532,-111.787038,385.352783,-0.407998053,-0.509030853,0.0189528098,,,,,,,,,,,,,,2022-11-15 21:12:52.796413+00:00
2022-11-15 14:12:52.997260-07:00,28.200242,3.03,1.93,-2.33,0.19,16.24,969.04,37.19,24.0,0.0,-0.000390489,0.000535011,-0.00135228,32.8213532,-111.787038,385.352783,-0.404635688,-0.50380571,0.0305850183,,,,,,,,,,,,,,2022-11-15 21:12:52.997260+00:00
2022-11-15 14:12:53.196993-07:00,28.399975,2.91,1.61,-2.43,0.0,17.45,969.05,34.52,24.0,0.0,0.000149495,0.00150373,-0.00445067,32.8213532,-111.787038,385.34848,-0.392846872,-0.510412408,0.0153046565,,,,,,,,,,,,,,2022-11-15 21:12:53.196993+00:00
2022-11-15 14:12:53.397297-07:00,28.600279,2.98,1.8,-2.37,0.02,17.02,969.03,35.49,26.0,0.0,0.000422912,6.51383e-05,-0.00701518,32.8213532,-111.787038,385.337952,-0.38918279,-0.512420847,0.0318782587,,,,,,,,,,,,,,2022-11-15 21:12:53.397297+00:00
2022-11-15 14:12:53.598264-07:00,28.801246,2.76,1.79,-2.1,0.02,17.08,969.03,35.41,25.0,0.0,-0.00171225,0.000567658,-0.0109764,32.8213531,-111.787038,385.33786,-0.386349802,-0.514032398,0.017042813,2.05665,-9.64252,6235.56,28.8541,11472.0,0.0336454,-1.0,19.0,-1301.0,78.0,,0.0,,2022-11-15 21:12:53.598264+00:00
2022-11-15 14:12:53.796703-07:00,28.999685,2.6,1.7,-1.96,0.05,17.43,969.03,34.54,24.0,0.0,0.000160484,-0.000768937,-0.00860901,32.8213531,-111.787038,385.337585,-0.384704892,-0.511579821,0.027089305,,,,,,,,,,,,,,2022-11-15 21:12:53.796703+00:00
2022-11-15 14:12:53.996806-07:00,29.199788,2.43,1.89,-1.52,0.14,17.79,969.04,33.76,24.0,0.0,-1.31158e-05,-0.000587672,-0.0066381,32.8213531,-111.787038,385.339935,-0.383103084,-0.509302984,0.0124599527,,,,,,,,,,,,,,2022-11-15 21:12:53.996806+00:00
2022-11-15 14:12:54.196418-07:00,29.3994,2.78,2.41,-1.34,0.37,18.26,969.05,32.74,25.0,0.0,-0.000542554,-0.000270687,-0.00486199,32.8213531,-111.787038,385.340546,-0.378159356,-0.508570272,0.0303581879,,,,,,,,,,,,,,2022-11-15 21:12:54.196418+00:00
2022-11-15 14:12:54.396881-07:00,29.599863,2.84,2.11,-1.9,0.11,17.25,969.04,34.97,27.0,0.0,-0.000586626,0.000156931,-0.00389738,32.8213531,-111.787038,385.343964,-0.371229576,-0.50753531,0.0212638001,,,,,,,,,,,,,,2022-11-15 21:12:54.396881+00:00
2022-11-15 14:12:54.598106-07:00,29.801088,2.49,1.69,-1.83,-0.03,16.75,969.05,36.05,25.0,0.0,-0.000146742,-0.000289877,-0.00324964,32.8213531,-111.787038,385.342316,-0.365328778,-0.509683982,0.0349725417,2.0551,-8.86824,6243.1,28.8553,11411.0,-0.0108799,-1.0,15.0,-1299.0,78.0,,0.0,,2022-11-15 21:12:54.598106+00:00
2022-11-15 14:12:54.797283-07:00,30.000265,2.51,1.47,-2.04,0.0,17.06,969.04,35.53,24.0,0.0,-0.000353996,3.94924e-05,-0.00295643,32.8213531,-111.787038,385.340912,-0.355030704,-0.510527845,0.0197040223,,,,,,,,,,,,,,2022-11-15 21:12:54.797283+00:00
2022-11-15 14:12:54.996892-07:00,30.199874,2.24,1.48,-1.69,0.03,17.8,969.05,33.74,24.0,0.0,-0.00035085,0.000659778,-0.00233429,32.821353,-111.787038,385.344788,-0.347140276,-0.512420247,0.0298881388,,,,,,,,,,,,,,2022-11-15 21:12:54.996892+00:00
2022-11-15 14:12:55.196634-07:00,30.399616,2.31,1.89,-1.33,0.18,18.41,969.05,32.56,26.0,0.0,-0.000566514,0.000309573,-0.00168959,32.821353,-111.787038,385.342285,-0.343321532,-0.510532635,0.0160670547,,,,,,,,,,,,,,2022-11-15 21:12:55.196634+00:00
2022-11-15 14:12:55.396448-07:00,30.59943,2.71,1.8,-2.02,0.07,17.78,969.04,33.78,26.0,0.0,1.68548e-07,-0.000747853,-0.00187545,32.821353,-111.787038,385.341705,-0.343302591,-0.513936651,0.0272626594,,,,,,,,,,,,,,2022-11-15 21:12:55.396448+00:00
2022-11-15 14:12:55.597979-07:00,30.800961,2.65,2.05,-1.67,-0.03,17.61,969.04,34.15,25.0,0.0,-0.000890927,-5.15171e-05,-0.00178095,32.821353,-111.787038,385.341461,-0.34098273,-0.514198395,0.0120156986,2.05691,-8.85078,6246.96,28.8562,11433.0,-0.0264571,-1.0,18.0,-1278.0,78.0,,0.0,,2022-11-15 21:12:55.597979+00:00
2022-11-15 14:12:55.796834-07:00,30.999816,2.62,2.1,-1.56,-0.0,17.59,969.04,34.23,24.0,0.0,-0.000840614,-0.000486057,-0.00149801,32.821353,-111.787038,385.342194,-0.339510546,-0.51485066,0.0288791583,,,,,,,,,,,,,,2022-11-15 21:12:55.796834+00:00
2022-11-15 14:12:55.996821-07:00,31.199803,2.89,1.82,-2.24,0.09,17.49,969.03,34.5,24.0,0.0,-0.000660469,-0.000480719,-0.00107602,32.8213529,-111.787038,385.341919,-0.332886463,-0.512705931,0.00825172482,,,,,,,,,,,,,,2022-11-15 21:12:55.996821+00:00
2022-11-15 14:12:56.197085-07:00,31.400067,3.2,2.17,-2.35,0.14,17.71,969.03,33.97,26.0,0.0,-0.000750871,0.000229603,-0.000981205,32.8213529,-111.787038,385.341949,-0.327299583,-0.511666121,0.0170987819,,,,,,,,,,,,,,2022-11-15 21:12:56.197085+00:00
2022-11-15 14:12:56.397071-07:00,31.600053,3.23,2.76,-1.63,0.34,18.41,969.01,32.55,26.0,0.0,-0.000582328,-0.000742088,-0.00181213,32.8213529,-111.787037,385.338806,-0.317558723,-0.512249217,0.0166889605,,,,,,,,,,,,,,2022-11-15 21:12:56.397071+00:00
2022-11-15 14:12:56.597975-07:00,31.800957,3.01,2.6,-1.52,-0.0,17.84,969.04,33.69,25.0,0.0,-0.00059442,3.02836e-05,-0.00140097,32.8213529,-111.787037,385.337433,-0.313411119,-0.514521699,0.0221267319,2.05667,-8.68864,6264.62,28.8577,11427.0,-0.0992431,-1.0,18.0,-1299.0,78.0,,0.0,,2022-11-15 21:12:56.597975+00:00
2022-11-15 14:12:56.796594-07:00,31.999576,3.02,2.4,-1.84,0.02,16.29,969.05,37.16,24.0,0.0,-0.000328139,-0.00120208,-0.00158057,32.8213529,-111.787037,385.337891,-0.306226124,-0.514418798,0.017245686,,,,,,,,,,,,,,2022-11-15 21:12:56.796594+00:00
2022-11-15 14:12:56.997040-07:00,32.200022,2.98,2.31,-1.88,0.02,16.22,969.03,37.38,24.0,0.0,-0.000361652,0.000673253,-0.00148829,32.8213529,-111.787037,385.340454,-0.296829134,-0.512782771,0.00716858454,,,,,,,,,,,,,,2022-11-15 21:12:56.997040+00:00
2022-11-15 14:12:57.197108-07:00,32.40009,2.94,2.25,-1.89,-0.08,16.58,969.03,36.49,26.0,0.0,0.000146718,-0.00065255,-0.00119777,32.8213529,-111.787037,385.338593,-0.290847966,-0.511720887,0.0218994847,,,,,,,,,,,,,,2022-11-15 21:12:57.197108+00:00
2022-11-15 14:12:57.396855-07:00,32.599837,3.07,2.54,-1.72,-0.07,16.56,969.02,36.6,26.0,0.0,-0.00094868,7.50093e-05,-0.000952836,32.8213529,-111.787037,385.33725,-0.282849133,-0.513428733,0.00885931151,,,,,,,,,,,,,,2022-11-15 21:12:57.396855+00:00
2022-11-15 14:12:57.597593-07:00,32.800575,2.95,2.37,-1.77,-0.01,17.01,969.01,35.51,25.0,0.0,-0.000747846,6.97514e-05,-0.00151517,32.8213529,-111.787037,385.334473,-0.278831746,-0.514159884,0.0185658285,2.05922,-8.84959,6268.2,28.8589,11469.0,-0.088418,-1.0,17.0,-1300.0,78.0,,0.0,,2022-11-15 21:12:57.597593+00:00
2022-11-15 14:12:57.796588-07:00,32.99957,2.9,2.43,-1.58,-0.04,17.04,969.02,35.39,24.0,0.0,1.99039e-05,0.000429262,-0.00137729,32.8213528,-111.787037,385.336334,-0.275581884,-0.513472808,0.00690809061,,,,,,,,,,,,,,2022-11-15 21:12:57.796588+00:00
2022-11-15 14:12:57.996431-07:00,33.199413,2.95,2.61,-1.37,0.07,17.19,969.03,35.1,25.0,0.0,-0.000394605,-0.000135697,-0.00106144,32.8213528,-111.787037,385.337799,-0.272702526,-0.510671034,0.0246173399,,,,,,,,,,,,,,2022-11-15 21:12:57.996431+00:00
2022-11-15 14:12:58.196745-07:00,33.399727,3.11,2.42,-1.95,0.01,17.64,969.02,34.07,27.0,0.0,-0.00066725,-0.000151165,-0.00156582,32.8213528,-111.787037,385.338745,-0.270058816,-0.510383844,0.0104613819,,,,,,,,,,,,,,2022-11-15 21:12:58.196745+00:00
2022-11-15 14:12:58.396632-07:00,33.599614,3.04,2.52,-1.7,0.09,17.5,969.03,34.48,26.0,0.0,0.000208193,0.000110328,-0.00215959,32.8213528,-111.787037,385.332458,-0.26720628,-0.512754185,0.028967884,,,,,,,,,,,,,,2022-11-15 21:12:58.396632+00:00
2022-11-15 14:12:58.597537-07:00,33.800519,2.78,2.32,-1.53,0.15,17.69,969.04,34.02,25.0,0.0,-0.000298848,-0.000589063,-0.00250312,32.8213528,-111.787037,385.327148,-0.261370804,-0.512647453,0.0127164074,2.05492,-9.08538,6259.94,28.86,11469.0,-0.0764002,-1.0,17.0,-1300.0,78.0,,0.0,,2022-11-15 21:12:58.597537+00:00
2022-11-15 14:12:58.796415-07:00,33.999397,2.74,2.01,-1.86,0.02,17.41,969.04,34.58,25.0,0.0,-0.000289519,0.000616747,-0.00262336,32.8213528,-111.787037,385.323975,-0.256582545,-0.518286095,0.024476654,,,,,,,,,,,,,,2022-11-15 21:12:58.796415+00:00
2022-11-15 14:12:58.996352-07:00,34.199334,2.74,1.98,-1.89,0.03,17.46,969.04,34.46,25.0,0.0,-0.000616251,-0.000376869,-0.00216961,32.8213528,-111.787037,385.323761,-0.255623987,-0.518761825,0.0241947753,,,,,,,,,,,,,,2022-11-15 21:12:58.996352+00:00
2022-11-15 14:12:59.196878-07:00,34.39986,2.69,2.06,-1.72,-0.01,17.69,969.03,34.02,26.0,0.0,-0.000487458,0.0011513,-0.00133863,32.8213529,-111.787037,385.326172,-0.249695924,-0.511159649,0.0162801663,,,,,,,,,,,,,,2022-11-15 21:12:59.196878+00:00
2022-11-15 14:12:59.397303-07:00,34.600285,2.8,2.08,-1.87,0.09,18.13,969.05,33.09,25.0,0.0,-0.000107688,-0.00100335,-0.00048537,32.8213529,-111.787037,385.330658,-0.241986269,-0.509179976,0.0271076928,,,,,,,,,,,,,,2022-11-15 21:12:59.397303+00:00
2022-11-15 14:12:59.598021-07:00,34.801003,2.86,2.15,-1.88,0.07,17.99,969.05,33.33,25.0,0.0,-0.000284881,0.000246022,8.91664e-05,32.821353,-111.787037,385.329926,-0.235213464,-0.510364844,0.00942649403,2.05505,-9.41721,6249.36,28.8612,11418.0,-0.024986,-1.0,18.0,-1305.0,78.0,,0.0,,2022-11-15 21:12:59.598021+00:00
2022-11-15 14:12:59.796659-07:00,34.999641,2.93,2.21,-1.92,0.02,18.04,969.03,33.26,24.0,0.0,-0.000200639,-0.000208204,0.000208228,32.821353,-111.787037,385.331024,-0.226046818,-0.507074855,0.0260396669,,,,,,,,,,,,,,2022-11-15 21:12:59.796659+00:00
2022-11-15 14:12:59.996573-07:00,35.199555,3.12,2.2,-2.21,0.06,16.6,969.03,36.4,25.0,0.0,-0.000112854,0.000203469,-0.00021129,32.821353,-111.787037,385.327942,-0.221208653,-0.505457168,0.0133427188,,,,,,,,,,,,,,2022-11-15 21:12:59.996573+00:00
2022-11-15 14:13:00.196578-07:00,35.39956,3.05,2.18,-2.14,0.06,17.21,969.02,35.02,26.0,0.0,-0.00031081,0.000343856,-0.000344144,32.8213529,-111.787037,385.331818,-0.215510147,-0.503417899,0.0275473763,,,,,,,,,,,,,,2022-11-15 21:13:00.196578+00:00
2022-11-15 14:13:00.396442-07:00,35.599424,2.91,2.21,-1.9,0.04,16.81,969.02,35.95,25.0,0.0,-0.000696553,-8.43983e-05,-0.000869541,32.8213529,-111.787037,385.327332,-0.210903313,-0.502122826,0.00573650806,,,,,,,,,,,,,,2022-11-15 21:13:00.396442+00:00
2022-11-15 14:13:00.597699-07:00,35.800681,3.14,2.48,-1.91,0.28,17.2,969.02,35.08,25.0,0.0,-4.94268e-05,0.0015168,-0.00133091,32.8213529,-111.787037,385.323334,-0.208503904,-0.503266779,0.0127928544,2.05762,-8.40047,6268.81,28.8618,11472.0,-0.0347245,-1.0,19.0,-1311.0,78.0,,0.0,,2022-11-15 21:13:00.597699+00:00
2022-11-15 14:13:00.797334-07:00,36.000316,3.73,3.21,-1.9,-0.02,17.33,969.01,34.7,24.0,0.0,-0.000648647,-0.000513055,-0.00259698,32.8213528,-111.787037,385.317871,-0.202059162,-0.507176191,0.0080827285,,,,,,,,,,,,,,2022-11-15 21:13:00.797334+00:00
2022-11-15 14:13:00.997339-07:00,36.200321,3.6,2.84,-2.21,0.08,17.04,969.03,35.4,26.0,0.0,-0.000487301,8.32206e-05,-0.00139593,32.8213528,-111.787037,385.31842,-0.200526066,-0.509441423,0.0196622774,,,,,,,,,,,,,,2022-11-15 21:13:00.997339+00:00
2022-11-15 14:13:01.196637-07:00,36.399619,3.81,3.04,-2.3,0.1,16.81,969.02,35.97,27.0,0.0,-0.000880056,-0.00121285,-0.00110877,32.8213528,-111.787037,385.318268,-0.192707681,-0.510272197,0.00258674759,,,,,,,,,,,,,,2022-11-15 21:13:01.196637+00:00
2022-11-15 14:13:01.396401-07:00,36.599383,3.48,2.71,-2.17,0.13,17.11,969.01,35.33,26.0,0.0,-0.000747833,-0.000176495,-0.000927943,32.8213527,-111.787037,385.318115,-0.186593011,-0.515324739,0.0174531663,,,,,,,,,,,,,,2022-11-15 21:13:01.396401+00:00
2022-11-15 14:13:01.597950-07:00,36.800932,3.61,2.87,-2.19,0.09,16.75,969.02,36.1,25.0,0.0,-0.000683933,-0.00246161,-0.00138932,32.8213527,-111.787037,385.315094,-0.185430649,-0.515733527,0.00369608408,2.0577,-9.10026,6270.47,28.8631,11434.0,0.0049652,-1.0,17.0,-1293.0,78.0,,0.0,,2022-11-15 21:13:01.597950+00:00
2022-11-15 14:13:01.797251-07:00,37.000233,4.07,3.45,-2.16,0.1,16.93,969.01,35.68,25.0,0.0,-0.00108298,-0.00116392,-0.00209302,32.8213527,-111.787037,385.310883,-0.186477354,-0.518651415,-0.00199634019,,,,,,,,,,,,,,2022-11-15 21:13:01.797251+00:00
2022-11-15 14:13:01.996861-07:00,37.199843,3.71,3.08,-2.05,0.19,17.14,969.0,35.22,25.0,0.0,-0.000609258,-0.00176795,-0.00193991,32.8213526,-111.787037,385.313324,-0.186369621,-0.52008417,0.00997360786,,,,,,,,,,,,,,2022-11-15 21:13:01.996861+00:00
2022-11-15 14:13:02.196895-07:00,37.399877,3.43,2.56,-2.26,0.32,17.55,969.01,34.28,27.0,0.0,-0.000341287,0.000235444,-0.000297387,32.8213526,-111.787037,385.320343,-0.182944968,-0.519929088,0.00348152322,,,,,,,,,,,,,,2022-11-15 21:13:02.196895+00:00
2022-11-15 14:13:02.396815-07:00,37.599797,3.07,2.16,-2.18,0.15,18.13,969.02,33.05,26.0,0.0,-0.000479508,-0.00127617,9.56652e-05,32.8213526,-111.787037,385.328522,-0.18078619,-0.526607462,0.0205792937,,,,,,,,,,,,,,2022-11-15 21:13:02.396815+00:00
2022-11-15 14:13:02.597374-07:00,37.800356,3.44,2.35,-2.51,0.16,17.72,969.02,33.96,25.0,0.0,-0.000919757,0.00112192,0.000934378,32.8213526,-111.787037,385.334137,-0.176307539,-0.526383142,0.00641303113,2.05697,-8.65377,6254.94,28.864,11431.0,-0.0190698,-1.0,16.0,-1313.0,78.0,,0.0,,2022-11-15 21:13:02.597374+00:00
2022-11-15 14:13:02.796946-07:00,37.999928,3.21,2.18,-2.36,0.06,17.63,969.02,34.11,25.0,0.0,-0.000465177,-0.00091879,5.12984e-05,32.8213526,-111.787037,385.343048,-0.167599401,-0.521268922,0.034578922,,,,,,,,,,,,,,2022-11-15 21:13:02.796946+00:00
2022-11-15 14:13:02.997101-07:00,38.200083,3.29,2.07,-2.56,0.11,18.33,969.03,32.63,26.0,0.0,-0.000231293,-0.000113162,-0.000541788,32.8213526,-111.787037,385.341492,-0.157017308,-0.523742678,0.00108267128,,,,,,,,,,,,,,2022-11-15 21:13:02.997101+00:00
2022-11-15 14:13:03.196789-07:00,38.399771,3.29,2.42,-2.22,0.26,18.67,969.04,31.94,27.0,0.0,-0.00178581,0.00044394,-0.00485476,32.8213526,-111.787037,385.329102,-0.153961338,-0.52494613,0.0264101797,,,,,,,,,,,,,,2022-11-15 21:13:03.196789+00:00
2022-11-15 14:13:03.397087-07:00,38.600069,3.68,2.5,-2.69,0.18,16.76,969.02,36.03,26.0,0.0,-0.00307342,-0.00176414,-0.0100065,32.8213525,-111.787037,385.31604,-0.14646382,-0.519520773,-0.0175360357,,,,,,,,,,,,,,2022-11-15 21:13:03.397087+00:00
2022-11-15 14:13:03.597806-07:00,38.800788,3.92,2.79,-2.74,0.16,16.08,969.02,37.67,25.0,0.0,-0.00257778,0.00106633,-0.0139769,32.8213525,-111.787037,385.30368,-0.143136729,-0.524678509,0.00466361182,2.0579,-9.18026,6250.5,28.8653,11416.0,0.0277095,-1.0,20.0,-1309.0,78.0,,0.0,,2022-11-15 21:13:03.597806+00:00
2022-11-15 14:13:03.796350-07:00,38.999332,3.96,2.94,-2.64,0.11,16.06,969.02,37.66,25.0,0.0,-0.00421885,-0.00103683,-0.0192524,32.8213525,-111.787036,385.288635,-0.144640031,-0.520142069,-0.0132950634,,,,,,,,,,,,,,2022-11-15 21:13:03.796350+00:00
2022-11-15 14:13:03.997244-07:00,39.200226,3.85,2.96,-2.46,0.11,16.11,969.01,37.66,26.0,0.0,-0.00360163,-6.72525e-05,-0.0195118,32.8213525,-111.787036,385.294708,-0.138463462,-0.522757422,-0.0356315784,,,,,,,,,,,,,,2022-11-15 21:13:03.997244+00:00
2022-11-15 14:13:04.196603-07:00,39.399585,3.74,2.83,-2.43,0.12,16.02,969.02,37.88,27.0,0.0,-0.00510908,-0.0035462,-0.0115183,32.8213525,-111.787036,385.301727,-0.137906762,-0.522367031,-0.00195578344,,,,,,,,,,,,,,2022-11-15 21:13:04.196603+00:00
2022-11-15 14:13:04.397259-07:00,39.600241,3.66,2.88,-2.25,0.06,15.98,969.01,37.86,26.0,0.0,-0.00761234,0.000976691,-0.0127695,32.8213525,-111.787036,385.289917,-0.133633499,-0.523713619,-0.0187248889,,,,,,,,,,,,,,2022-11-15 21:13:04.397259+00:00
2022-11-15 14:13:04.598202-07:00,39.801184,3.79,2.85,-2.5,0.15,16.04,969.02,37.77,25.0,0.0,-0.00602439,-0.000823992,-0.0144492,32.8213525,-111.787036,385.289703,-0.126705008,-0.522472531,-0.0047448533,2.05842,-8.23942,6251.89,28.8658,11466.0,0.0865526,-1.0,20.0,-1291.0,78.0,,0.0,,2022-11-15 21:13:04.598202+00:00
2022-11-15 14:13:04.797111-07:00,40.000093,3.85,2.78,-2.66,0.17,16.01,969.01,37.83,25.0,0.0,-0.00721233,-0.000546859,-0.012878,32.8213525,-111.787036,385.293396,-0.121567086,-0.519386569,-0.0190324692,,,,,,,,,,,,,,2022-11-15 21:13:04.797111+00:00
2022-11-15 14:13:04.996616-07:00,40.199598,3.59,2.54,-2.53,0.12,16.14,969.0,37.49,26.0,0.0,-0.00293757,-0.000507587,-0.00852304,32.8213524,-111.787036,385.317474,-0.113706557,-0.519445246,-0.00669376424,,,,,,,,,,,,,,2022-11-15 21:13:04.996616+00:00
2022-11-15 14:13:05.197336-07:00,40.400318,3.36,2.52,-2.22,0.08,16.34,969.01,37.01,27.0,0.0,-0.00175104,-0.00110163,-0.00763582,32.8213524,-111.787036,385.31778,-0.107492759,-0.520374058,-0.0205829823,,,,,,,,,,,,,,2022-11-15 21:13:05.197336+00:00
2022-11-15 14:13:05.397220-07:00,40.600202,3.53,2.68,-2.3,0.12,16.29,969.01,37.16,26.0,0.0,-0.000269816,-0.000276908,-0.00627193,32.8213524,-111.787036,385.313568,-0.103332789,-0.52019975,-0.00995870601,,,,,,,,,,,,,,2022-11-15 21:13:05.397220+00:00
2022-11-15 14:13:05.597814-07:00,40.800796,3.29,2.54,-2.08,0.16,16.09,969.02,37.64,25.0,0.0,-0.000450285,-0.00070508,-0.00469126,32.8213524,-111.787036,385.320343,-0.0992358834,-0.523271385,-0.0123181387,2.05725,-8.47697,6233.97,28.8671,11398.0,0.052721,-1.0,15.0,-1283.0,78.0,,0.0,,2022-11-15 21:13:05.597814+00:00
2022-11-15 14:13:05.796485-07:00,40.999467,3.12,2.14,-2.27,0.04,16.23,969.02,37.31,25.0,0.0,-0.000582195,0.00054503,-0.00422592,32.8213524,-111.787036,385.309662,-0.0908708171,-0.523281788,-0.0106371834,,,,,,,,,,,,,,2022-11-15 21:13:05.796485+00:00
2022-11-15 14:13:05.996465-07:00,41.199447,3.11,1.96,-2.42,0.07,16.22,969.02,37.29,26.0,0.0,-0.000607897,-0.000622231,-0.00362293,32.8213524,-111.787036,385.309753,-0.088888553,-0.524577555,-0.0128032114,,,,,,,,,,,,,,2022-11-15 21:13:05.996465+00:00
2022-11-15 14:13:06.196620-07:00,41.399602,3.51,2.26,-2.68,0.2,16.17,969.02,37.37,27.0,0.0,-0.000983881,-0.000370963,-0.00244365,32.8213523,-111.787036,385.319733,-0.0863441972,-0.524277063,-0.0106327645,,,,,,,,,,,,,,2022-11-15 21:13:06.196620+00:00
2022-11-15 14:13:06.396607-07:00,41.599589,3.39,2.13,-2.64,0.06,16.4,969.02,36.87,26.0,0.0,-0.000756252,-0.000785667,-0.00195693,32.8213523,-111.787036,385.322235,-0.0799310903,-0.519028223,-0.0132383708,,,,,,,,,,,,,,2022-11-15 21:13:06.396607+00:00
2022-11-15 14:13:06.597712-07:00,41.800694,3.27,2.01,-2.58,0.03,16.42,969.03,36.77,25.0,0.0,-0.000312286,-0.000672233,-0.00258652,32.8213523,-111.787036,385.323029,-0.0769219609,-0.521794342,-0.00722809357,2.05727,-9.05274,6212.44,28.8677,11447.0,0.017551,-1.0,18.0,-1300.0,78.0,,0.0,,2022-11-15 21:13:06.597712+00:00
2022-11-15 14:13:06.796461-07:00,41.999443,3.22,2.17,-2.38,0.06,16.54,969.01,36.53,25.0,0.0,-0.000336968,-0.000774141,-0.00272591,32.8213523,-111.787036,385.322052,-0.0748365637,-0.518353973,-0.00809872425,,,,,,,,,,,,,,2022-11-15 21:13:06.796461+00:00
2022-11-15 14:13:06.996740-07:00,42.199722,3.13,2.1,-2.33,0.08,16.18,969.02,37.39,26.0,0.0,-0.000885917,-0.000587946,-0.00169321,32.8213523,-111.787036,385.323242,-0.0701636501,-0.517092312,-0.00858691019,,,,,,,,,,,,,,2022-11-15 21:13:06.996740+00:00
2022-11-15 14:13:07.196358-07:00,42.39934,3.01,2.03,-2.22,0.09,16.02,969.03,37.73,27.0,0.0,-0.000159626,-0.000498024,-0.00264437,32.8213523,-111.787036,385.319763,-0.0664450826,-0.524733633,-0.00613280202,,,,,,,,,,,,,,2022-11-15 21:13:07.196358+00:00
2022-11-15 14:13:07.397158-07:00,42.60014,3.08,2.23,-2.13,0.11,16.03,969.02,37.69,26.0,0.0,-0.000908828,-0.000593999,-0.0025871,32.8213522,-111.787036,385.32428,-0.0636267404,-0.52252744,-0.00203273375,,,,,,,,,,,,,,2022-11-15 21:13:07.397158+00:00
2022-11-15 14:13:07.598119-07:00,42.801101,3.03,2.3,-1.97,0.04,16.14,969.04,37.44,25.0,0.0,-0.000459999,-0.000618491,-0.00147365,32.8213522,-111.787036,385.330627,-0.0605303483,-0.523900579,-0.00175176927,2.0584,-8.24322,6196.08,28.8695,11447.0,0.126632,-1.0,18.0,-1300.0,78.0,,0.0,,2022-11-15 21:13:07.598119+00:00
2022-11-15 14:13:07.796402-07:00,42.999384,2.91,2.22,-1.88,-0.06,16.21,969.02,37.32,25.0,0.0,-0.000613789,-0.000951633,-0.00127067,32.8213521,-111.787036,385.332245,-0.053360754,-0.52214835,-0.00487530016,,,,,,,,,,,,,,2022-11-15 21:13:07.796402+00:00
2022-11-15 14:13:07.997063-07:00,43.200045,2.86,2.15,-1.88,-0.04,16.56,969.03,36.46,26.0,0.0,-0.000498552,-0.000640084,-0.00236855,32.8213521,-111.787036,385.332336,-0.0481096003,-0.525660227,-0.000702011524,,,,,,,,,,,,,,2022-11-15 21:13:07.997063+00:00
2022-11-15 14:13:08.196584-07:00,43.399566,3.07,2.39,-1.93,-0.05,16.78,969.03,35.95,27.0,0.0,-0.000153454,-0.000838216,-0.00191429,32.8213521,-111.787036,385.336212,-0.0455301527,-0.526184575,-0.0056634608,,,,,,,,,,,,,,2022-11-15 21:13:08.196584+00:00
2022-11-15 14:13:08.396592-07:00,43.599574,3.03,2.35,-1.91,0.01,16.85,969.02,35.78,26.0,0.0,-0.00043846,-0.000768869,-0.00135839,32.8213521,-111.787036,385.339539,-0.0404314318,-0.527968185,0.00627390854,,,,,,,,,,,,,,2022-11-15 21:13:08.396592+00:00
2022-11-15 14:13:08.597621-07:00,43.800603,2.96,2.2,-1.97,0.01,16.96,969.03,35.5,24.0,0.0,-0.00126473,-0.000951479,-0.000621255,32.821352,-111.787036,385.339813,-0.0375617743,-0.530327153,-0.00377323054,2.05693,-8.29071,6187.14,28.8707,11440.0,0.0834822,-1.0,16.0,-1286.0,78.0,,0.0,,2022-11-15 21:13:08.597621+00:00
2022-11-15 14:13:08.796842-07:00,43.999824,3.04,2.3,-1.99,-0.0,16.69,969.03,36.2,25.0,0.0,-0.000751099,-0.000132776,-0.000857367,32.821352,-111.787036,385.339355,-0.0349916083,-0.531760273,0.000917043464,,,,,,,,,,,,,,2022-11-15 21:13:08.796842+00:00
2022-11-15 14:13:08.996551-07:00,44.199533,2.95,2.24,-1.92,0.06,16.66,969.03,36.17,26.0,0.0,-0.00026267,-0.000483888,-0.00168855,32.821352,-111.787035,385.335602,-0.0331835988,-0.532731855,-0.00130145963,,,,,,,,,,,,,,2022-11-15 21:13:08.996551+00:00
2022-11-15 14:13:09.197209-07:00,44.400191,2.94,2.25,-1.89,0.05,16.74,969.04,36.03,26.0,0.0,-0.000808229,-0.000150777,-0.00312772,32.8213519,-111.787035,385.333374,-0.0302851603,-0.534736817,0.0032592784,,,,,,,,,,,,,,2022-11-15 21:13:09.197209+00:00
2022-11-15 14:13:09.396644-07:00,44.599626,2.58,1.78,-1.87,0.0,16.82,969.03,35.81,25.0,0.0,-0.000654089,-0.000467938,-0.00320054,32.8213519,-111.787035,385.331146,-0.0266130627,-0.534293102,0.00311846661,,,,,,,,,,,,,,2022-11-15 21:13:09.396644+00:00
2022-11-15 14:13:09.598228-07:00,44.80121,2.69,1.74,-2.05,0.01,16.89,969.04,35.64,25.0,0.0,-0.00117505,-8.99093e-05,-0.00317225,32.8213519,-111.787035,385.331146,-0.0244544561,-0.536684684,0.007568264,2.05541,-9.08376,6189.87,28.8714,11443.0,0.131826,-1.0,17.0,-1316.0,78.0,,0.0,,2022-11-15 21:13:09.598228+00:00
2022-11-15 14:13:09.796992-07:00,44.999974,2.89,2.18,-1.9,-0.03,16.8,969.04,35.86,24.0,0.0,-0.00109931,-0.000588282,-0.00259063,32.8213518,-111.787035,385.337921,-0.0198651437,-0.532677212,0.000559696619,,,,,,,,,,,,,,2022-11-15 21:13:09.796992+00:00
2022-11-15 14:13:09.996386-07:00,45.199368,3.06,2.3,-2.02,0.07,16.98,969.04,35.49,26.0,0.0,-0.00114113,-0.000192102,-0.00196068,32.8213518,-111.787035,385.336456,-0.0162101185,-0.52760131,-1.25739717e-05,,,,,,,,,,,,,,2022-11-15 21:13:09.996386+00:00
2022-11-15 14:13:10.196471-07:00,45.399453,3.07,2.04,-2.29,0.14,16.61,969.05,36.28,26.0,0.0,-0.000582415,-0.000539384,-0.00142308,32.8213518,-111.787035,385.339508,-0.0116249721,-0.527351518,0.00237310095,,,,,,,,,,,,,,2022-11-15 21:13:10.196471+00:00
2022-11-15 14:13:10.397176-07:00,45.600158,3.25,2.13,-2.45,0.19,16.53,969.03,36.47,25.0,0.0,-0.00125686,-0.000130645,-0.00178985,32.8213518,-111.787035,385.335876,-0.0109486924,-0.520375949,-0.00215094492,,,,,,,,,,,,,,2022-11-15 21:13:10.397176+00:00
